time,.header.seq,.header.stamp.secs,.header.stamp.nsecs,.header.frame_id,.child_frame_id,.pose.pose.position.x,.pose.pose.position.y,.pose.pose.position.z,.pose.pose.orientation.x,.pose.pose.orientation.y,.pose.pose.orientation.z,.pose.pose.orientation.w,.pose.covariance,.twist.twist.linear.x,.twist.twist.linear.y,.twist.twist.linear.z,.twist.twist.angular.x,.twist.twist.angular.y,.twist.twist.angular.z,.twist.covariance
1970/01/01/01:00:10.732000,1,10,730000000,map,map,0.8,1.675,-0.638285614625,0.000593779495596,-0.000225456210825,-0.674672839868,-0.738116580494,"(115.87408900040002, 0.0, 0.0, 0.0, 0.0, 0.0, 0.0, 115.87408900040002, 0.0, 0.0, 0.0, 0.0, 0.0, 0.0, 114.87408941362298, 0.0, 0.0, 0.0, 0.0, 0.0, 0.0, 0.0, 0.0, 0.0, 0.0, 0.0, 0.0, 0.0, 0.0, 0.0, 0.0, 0.0, 0.0, 0.0, 0.0, 0.0)",0.0,0.0,0.0,-0.00599853296519,-0.00149132735484,-0.00454109393605,"(0.0, 0.0, 0.0, 0.0, 0.0, 0.0, 0.0, 0.0, 0.0, 0.0, 0.0, 0.0, 0.0, 0.0, 0.0, 0.0, 0.0, 0.0, 0.0, 0.0, 0.0, 0.0, 0.0, 0.0, 0.0, 0.0, 0.0, 0.0, 0.0, 0.0, 0.0, 0.0, 0.0, 0.0, 0.0, 0.0)"
1970/01/01/01:00:10.741000,2,10,740000000,map,map,0.8,1.675,-0.613660361364,0.000557388593618,-0.000206417750838,-0.674691157942,-0.738099948294,"(116.2058240514, 0.0, 0.0, 0.0, 0.0, 0.0, 0.0, 116.2058240514, 0.0, 0.0, 0.0, 0.0, 0.0, 0.0, 9.999991320030016e-05, 0.0, 0.0, 0.0, 0.0, 0.0, 0.0, 0.0, 0.0, 0.0, 0.0, 0.0, 0.0, 0.0, 0.0, 0.0, 0.0, 0.0, 0.0, 0.0, 0.0, 0.0)",0.0,0.0,0.0,0.00601417587368,0.00134912435225,-0.0014374828943,"(0.0, 0.0, 0.0, 0.0, 0.0, 0.0, 0.0, 0.0, 0.0, 0.0, 0.0, 0.0, 0.0, 0.0, 0.0, 0.0, 0.0, 0.0, 0.0, 0.0, 0.0, 0.0, 0.0, 0.0, 0.0, 0.0, 0.0, 0.0, 0.0, 0.0, 0.0, 0.0, 0.0, 0.0, 0.0, 0.0)"
1970/01/01/01:00:10.760000,3,10,759000000,map,map,0.8,1.675,-0.592253245256,0.00050176724535,-0.000223872246648,-0.674871841482,-0.737934859088,"(116.66700931810003, 0.0, 0.0, 0.0, 0.0, 0.0, 0.0, 116.66700931810003, 0.0, 0.0, 0.0, 0.0, 0.0, 0.0, 9.90196692025717e-05, 0.0, 0.0, 0.0, 0.0, 0.0, 0.0, 0.0, 0.0, 0.0, 0.0, 0.0, 0.0, 0.0, 0.0, 0.0, 0.0, 0.0, 0.0, 0.0, 0.0, 0.0)",0.0304,0.038,-0.179962238827,0.00426219096774,0.00482395143124,0.0285837584854,"(0.0, 0.0, 0.0, 0.0, 0.0, 0.0, 0.0, 0.0, 0.0, 0.0, 0.0, 0.0, 0.0, 0.0, 0.0, 0.0, 0.0, 0.0, 0.0, 0.0, 0.0, 0.0, 0.0, 0.0, 0.0, 0.0, 0.0, 0.0, 0.0, 0.0, 0.0, 0.0, 0.0, 0.0, 0.0, 0.0)"
1970/01/01/01:00:10.782000,4,10,780000000,map,map,0.8,1.675,-0.596859518076,0.000531991701191,-0.000190929566032,-0.675505529886,-0.737354781475,"(117.12907689350006, 0.0, 0.0, 0.0, 0.0, 0.0, 0.0, 117.12907689350006, 0.0, 0.0, 0.0, 0.0, 0.0, 0.0, 9.901954244978505e-05, 0.0, 0.0, 0.0, 0.0, 0.0, 0.0, 0.0, 0.0, 0.0, 0.0, 0.0, 0.0, 0.0, 0.0, 0.0, 0.0, 0.0, 0.0, 0.0, 0.0, 0.0)",0.060808,0.07601,-0.303613347871,-0.00357187986225,-0.00710201133573,0.107562596757,"(0.0, 0.0, 0.0, 0.0, 0.0, 0.0, 0.0, 0.0, 0.0, 0.0, 0.0, 0.0, 0.0, 0.0, 0.0, 0.0, 0.0, 0.0, 0.0, 0.0, 0.0, 0.0, 0.0, 0.0, 0.0, 0.0, 0.0, 0.0, 0.0, 0.0, 0.0, 0.0, 0.0, 0.0, 0.0, 0.0)"
1970/01/01/01:00:10.802000,5,10,799000000,map,map,0.8,1.675,-0.600790633618,0.000499608968623,-0.000189986859569,-0.676822821734,-0.736145807028,"(117.54885075420003, 0.0, 0.0, 0.0, 0.0, 0.0, 0.0, 117.54885075420003, 0.0, 0.0, 0.0, 0.0, 0.0, 0.0, 9.901954049621207e-05, 0.0, 0.0, 0.0, 0.0, 0.0, 0.0, 0.0, 0.0, 0.0, 0.0, 0.0, 0.0, 0.0, 0.0, 0.0, 0.0, 0.0, 0.0, 0.0, 0.0, 0.0)",0.0854069808,0.10678905,-0.393303970955,0.00378230005572,0.00181875804576,0.154616034349,"(0.0, 0.0, 0.0, 0.0, 0.0, 0.0, 0.0, 0.0, 0.0, 0.0, 0.0, 0.0, 0.0, 0.0, 0.0, 0.0, 0.0, 0.0, 0.0, 0.0, 0.0, 0.0, 0.0, 0.0, 0.0, 0.0, 0.0, 0.0, 0.0, 0.0, 0.0, 0.0, 0.0, 0.0, 0.0, 0.0)"
1970/01/01/01:00:10.825000,6,10,823000000,map,map,0.8,1.675,-0.60329013551,0.000425365802956,-0.000246661580647,-0.677981778408,-0.735078561896,"(117.99097209020006, 0.0, 0.0, 0.0, 0.0, 0.0, 0.0, 117.99097209020006, 0.0, 0.0, 0.0, 0.0, 0.0, 0.0, 9.901954723774184e-05, 0.0, 0.0, 0.0, 0.0, 0.0, 0.0, 0.0, 0.0, 0.0, 0.0, 0.0, 0.0, 0.0, 0.0, 0.0, 0.0, 0.0, 0.0, 0.0, 0.0, 0.0)",0.113472043008,0.141974364,-0.481396563912,0.0038727249447,0.0112081319433,0.155978050467,"(0.0, 0.0, 0.0, 0.0, 0.0, 0.0, 0.0, 0.0, 0.0, 0.0, 0.0, 0.0, 0.0, 0.0, 0.0, 0.0, 0.0, 0.0, 0.0, 0.0, 0.0, 0.0, 0.0, 0.0, 0.0, 0.0, 0.0, 0.0, 0.0, 0.0, 0.0, 0.0, 0.0, 0.0, 0.0, 0.0)"
1970/01/01/01:00:10.841000,7,10,839000000,map,map,0.776594983556,1.98032554464,-0.608046884178,0.000427228043348,-0.000247035757405,-0.678907123004,-0.734224024006,"(0.7395534271016356, 0.0, 0.0, 0.0, 0.0, 0.0, 0.0, 0.04041551648154359, 0.0, 0.0, 0.0, 0.0, 0.0, 0.0, 9.901955061471694e-05, 0.0, 0.0, 0.0, 0.0, 0.0, 0.0, 0.0, 0.0, 0.0, 0.0, 0.0, 0.0, 0.0, 0.0, 0.0, 0.0, 0.0, 0.0, 0.0, 0.0, 0.0)",0.129871286942,0.16261641488,-0.5,0.000126341292768,0.000867486535961,0.149951557734,"(0.0, 0.0, 0.0, 0.0, 0.0, 0.0, 0.0, 0.0, 0.0, 0.0, 0.0, 0.0, 0.0, 0.0, 0.0, 0.0, 0.0, 0.0, 0.0, 0.0, 0.0, 0.0, 0.0, 0.0, 0.0, 0.0, 0.0, 0.0, 0.0, 0.0, 0.0, 0.0, 0.0, 0.0, 0.0, 0.0)"
1970/01/01/01:00:10.863000,8,10,860000000,map,map,0.776552165027,1.98088422655,-0.600919712203,0.000488793578981,-0.000257453499351,-0.679970756678,-0.733239120645,"(0.7522370523178481, 0.0, 0.0, 0.0, 0.0, 0.0, 0.0, 0.05053864825007339, 0.0, 0.0, 0.0, 0.0, 0.0, 0.0, 9.90195551070414e-05, 0.0, 0.0, 0.0, 0.0, 0.0, 0.0, 0.0, 0.0, 0.0, 0.0, 0.0, 0.0, 0.0, 0.0, 0.0, 0.0, 0.0, 0.0, 0.0, 0.0, 0.0)",0.148614110089,0.187541691318,-0.5,-0.0071403142604,-0.00676160993644,0.144901356962,"(0.0, 0.0, 0.0, 0.0, 0.0, 0.0, 0.0, 0.0, 0.0, 0.0, 0.0, 0.0, 0.0, 0.0, 0.0, 0.0, 0.0, 0.0, 0.0, 0.0, 0.0, 0.0, 0.0, 0.0, 0.0, 0.0, 0.0, 0.0, 0.0, 0.0, 0.0, 0.0, 0.0, 0.0, 0.0, 0.0)"
1970/01/01/01:00:10.880000,9,10,879000000,map,map,0.77650292248,1.98152661073,-0.60086617427,0.000485449294464,-0.000272613801021,-0.680942786811,-0.732336464224,"(0.7653390645567887, 0.0, 0.0, 0.0, 0.0, 0.0, 0.0, 0.060690307183340404, 0.0, 0.0, 0.0, 0.0, 0.0, 0.0, 0.010099643102889461, 0.0, 0.0, 0.0, 0.0, 0.0, 0.0, 0.0, 0.0, 0.0, 0.0, 0.0, 0.0, 0.0, 0.0, 0.0, 0.0, 0.0, 0.0, 0.0, 0.0, 0.0)",0.16368606987,0.207725230642,-0.5,0.00412155299639,-0.0013448064315,0.125782151973,"(0.0, 0.0, 0.0, 0.0, 0.0, 0.0, 0.0, 0.0, 0.0, 0.0, 0.0, 0.0, 0.0, 0.0, 0.0, 0.0, 0.0, 0.0, 0.0, 0.0, 0.0, 0.0, 0.0, 0.0, 0.0, 0.0, 0.0, 0.0, 0.0, 0.0, 0.0, 0.0, 0.0, 0.0, 0.0, 0.0)"
1970/01/01/01:00:10.900000,10,10,899000000,map,map,0.776466525812,1.9820014161,-0.603594091892,0.000499897143584,-0.000175942019109,-0.682080828112,-0.731276563181,"(0.7776428099684842, 0.0, 0.0, 0.0, 0.0, 0.0, 0.0, 0.07080937854104469, 0.0, 0.0, 0.0, 0.0, 0.0, 0.0, 0.010099392800193849, 0.0, 0.0, 0.0, 0.0, 0.0, 0.0, 0.0, 0.0, 0.0, 0.0, 0.0, 0.0, 0.0, 0.0, 0.0, 0.0, 0.0, 0.0, 0.0, 0.0, 0.0)",0.177929178288,0.226952707578,-0.490294455533,0.00530323985428,-0.0043493256225,0.129352963701,"(0.0, 0.0, 0.0, 0.0, 0.0, 0.0, 0.0, 0.0, 0.0, 0.0, 0.0, 0.0, 0.0, 0.0, 0.0, 0.0, 0.0, 0.0, 0.0, 0.0, 0.0, 0.0, 0.0, 0.0, 0.0, 0.0, 0.0, 0.0, 0.0, 0.0, 0.0, 0.0, 0.0, 0.0, 0.0, 0.0)"
1970/01/01/01:00:10.938000,11,10,919000000,map,map,0.776423706207,1.98256001106,-0.609187277953,0.000598337796624,-0.000197156968695,-0.682721752603,-0.730678207006,"(0.7903651015029075, 0.0, 0.0, 0.0, 0.0, 0.0, 0.0, 0.08095713616197761, 0.0, 0.0, 0.0, 0.0, 0.0, 0.0, 0.01009957220291599, 0.0, 0.0, 0.0, 0.0, 0.0, 0.0, 0.0, 0.0, 0.0, 0.0, 0.0, 0.0, 0.0, 0.0, 0.0, 0.0, 0.0, 0.0, 0.0, 0.0, 0.0)",0.190615571142,0.24425743682,-0.470409882663,-0.00780558954714,-0.00972179379251,0.107594032459,"(0.0, 0.0, 0.0, 0.0, 0.0, 0.0, 0.0, 0.0, 0.0, 0.0, 0.0, 0.0, 0.0, 0.0, 0.0, 0.0, 0.0, 0.0, 0.0, 0.0, 0.0, 0.0, 0.0, 0.0, 0.0, 0.0, 0.0, 0.0, 0.0, 0.0, 0.0, 0.0, 0.0, 0.0, 0.0, 0.0)"
1970/01/01/01:00:10.978000,12,10,939000000,map,map,0.7763808866,1.98311860589,-0.588252840236,0.00057724772354,-0.000235533505841,-0.683526983949,-0.729924984872,"(0.8031004458100677, 0.0, 0.0, 0.0, 0.0, 0.0, 0.0, 0.09111326639987537, 0.0, 0.0, 0.0, 0.0, 0.0, 0.0, 0.010099614437380795, 0.0, 0.0, 0.0, 0.0, 0.0, 0.0, 0.0, 0.0, 0.0, 0.0, 0.0, 0.0, 0.0, 0.0, 0.0, 0.0, 0.0, 0.0, 0.0, 0.0, 0.0)",0.201889268584,0.259831693138,-0.447481052617,-0.00522373963261,0.0088047911631,0.105292077472,"(0.0, 0.0, 0.0, 0.0, 0.0, 0.0, 0.0, 0.0, 0.0, 0.0, 0.0, 0.0, 0.0, 0.0, 0.0, 0.0, 0.0, 0.0, 0.0, 0.0, 0.0, 0.0, 0.0, 0.0, 0.0, 0.0, 0.0, 0.0, 0.0, 0.0, 0.0, 0.0, 0.0, 0.0, 0.0, 0.0)"
1970/01/01/01:00:10.978000,13,10,960000000,map,map,0.776338066996,1.98367720098,-0.618235904729,0.0006554176975,-0.000283158209887,-0.684234255482,-0.729262051823,"(0.8158489228899647, 0.0, 0.0, 0.0, 0.0, 0.0, 0.0, 0.10127784925473793, 0.0, 0.0, 0.0, 0.0, 0.0, 0.0, 0.010099655213118367, 0.0, 0.0, 0.0, 0.0, 0.0, 0.0, 0.0, 0.0, 0.0, 0.0, 0.0, 0.0, 0.0, 0.0, 0.0, 0.0, 0.0, 0.0, 0.0, 0.0, 0.0)",0.212380997163,0.274549365359,-0.37512122348,0.000246276005267,0.00019354225125,0.0974800693729,"(0.0, 0.0, 0.0, 0.0, 0.0, 0.0, 0.0, 0.0, 0.0, 0.0, 0.0, 0.0, 0.0, 0.0, 0.0, 0.0, 0.0, 0.0, 0.0, 0.0, 0.0, 0.0, 0.0, 0.0, 0.0, 0.0, 0.0, 0.0, 0.0, 0.0, 0.0, 0.0, 0.0, 0.0, 0.0, 0.0)"
1970/01/01/01:00:11.021000,14,10,979000000,map,map,0.417884829133,2.04125675999,-0.596129286776,0.0006388733102,-0.000222923139955,-0.684919226064,-0.728618806621,"(0.31088455898153255, 0.0, 0.0, 0.0, 0.0, 0.0, 0.0, 0.03398818994437264, 0.0, 0.0, 0.0, 0.0, 0.0, 0.0, 0.010099825437551857, 0.0, 0.0, 0.0, 0.0, 0.0, 0.0, 0.0, 0.0, 0.0, 0.0, 0.0, 0.0, 0.0, 0.0, 0.0, 0.0, 0.0, 0.0, 0.0, 0.0, 0.0)",0.2207140645,0.28646717565,-0.355995614627,0.00589681169631,-0.00193158396371,0.0993795415993,"(0.0, 0.0, 0.0, 0.0, 0.0, 0.0, 0.0, 0.0, 0.0, 0.0, 0.0, 0.0, 0.0, 0.0, 0.0, 0.0, 0.0, 0.0, 0.0, 0.0, 0.0, 0.0, 0.0, 0.0, 0.0, 0.0, 0.0, 0.0, 0.0, 0.0, 0.0, 0.0, 0.0, 0.0, 0.0, 0.0)"
1970/01/01/01:00:11.021000,15,10,999000000,map,map,0.417335880168,2.04177697906,-0.589782101865,0.000646579124704,-0.00022525411998,-0.685581617789,-0.727995527171,"(0.3217583438946281, 0.0, 0.0, 0.0, 0.0, 0.0, 0.0, 0.04403306160637552, 0.0, 0.0, 0.0, 0.0, 0.0, 0.0, 0.0100995405018996, 0.0, 0.0, 0.0, 0.0, 0.0, 0.0, 0.0, 0.0, 0.0, 0.0, 0.0, 0.0, 0.0, 0.0, 0.0, 0.0, 0.0, 0.0, 0.0, 0.0, 0.0)",0.214152868523,0.297820458085,-0.290965314552,7.53318117738e-05,-0.000498455782493,0.0919029627636,"(0.0, 0.0, 0.0, 0.0, 0.0, 0.0, 0.0, 0.0, 0.0, 0.0, 0.0, 0.0, 0.0, 0.0, 0.0, 0.0, 0.0, 0.0, 0.0, 0.0, 0.0, 0.0, 0.0, 0.0, 0.0, 0.0, 0.0, 0.0, 0.0, 0.0, 0.0, 0.0, 0.0, 0.0, 0.0, 0.0)"
1970/01/01/01:00:11.021000,16,11,19000000,map,map,0.416657256411,2.04240994043,-0.585914702232,0.000706019269677,-0.000208135502449,-0.686174814926,-0.727436384689,"(0.3328481333779013, 0.0, 0.0, 0.0, 0.0, 0.0, 0.0, 0.054097078235862, 0.0, 0.0, 0.0, 0.0, 0.0, 0.0, 0.010099852243309799, 0.0, 0.0, 0.0, 0.0, 0.0, 0.0, 0.0, 0.0, 0.0, 0.0, 0.0, 0.0, 0.0, 0.0, 0.0, 0.0, 0.0, 0.0, 0.0, 0.0, 0.0)",0.208049262933,0.308038412276,-0.216495912487,-0.00769889610965,-0.00424892043155,0.0862863504912,"(0.0, 0.0, 0.0, 0.0, 0.0, 0.0, 0.0, 0.0, 0.0, 0.0, 0.0, 0.0, 0.0, 0.0, 0.0, 0.0, 0.0, 0.0, 0.0, 0.0, 0.0, 0.0, 0.0, 0.0, 0.0, 0.0, 0.0, 0.0, 0.0, 0.0, 0.0, 0.0, 0.0, 0.0, 0.0, 0.0)"
1970/01/01/01:00:11.064000,17,11,39000000,map,map,0.416010945765,2.04301271715,-0.578441790111,0.000720616443763,-0.000147472069894,-0.686821372606,-0.72682590471,"(0.3438967998137879, 0.0, 0.0, 0.0, 0.0, 0.0, 0.0, 0.06416692708918868, 0.0, 0.0, 0.0, 0.0, 0.0, 0.0, 0.010099818921415293, 0.0, 0.0, 0.0, 0.0, 0.0, 0.0, 0.0, 0.0, 0.0, 0.0, 0.0, 0.0, 0.0, 0.0, 0.0, 0.0, 0.0, 0.0, 0.0, 0.0, 0.0)",0.202357550657,0.317234571049,-0.140775880962,0.00650232974536,-0.00221802806481,0.0769109138874,"(0.0, 0.0, 0.0, 0.0, 0.0, 0.0, 0.0, 0.0, 0.0, 0.0, 0.0, 0.0, 0.0, 0.0, 0.0, 0.0, 0.0, 0.0, 0.0, 0.0, 0.0, 0.0, 0.0, 0.0, 0.0, 0.0, 0.0, 0.0, 0.0, 0.0, 0.0, 0.0, 0.0, 0.0, 0.0, 0.0)"
1970/01/01/01:00:11.064000,18,11,59000000,map,map,0.415364635071,2.04361549294,-0.56698434897,0.000786272178756,-0.000108942277093,-0.687284927354,-0.726387638072,"(0.35495605619104825, 0.0, 0.0, 0.0, 0.0, 0.0, 0.0, 0.07424552095065902, 0.0, 0.0, 0.0, 0.0, 0.0, 0.0, 0.010099858945465019, 0.0, 0.0, 0.0, 0.0, 0.0, 0.0, 0.0, 0.0, 0.0, 0.0, 0.0, 0.0, 0.0, 0.0, 0.0, 0.0, 0.0, 0.0, 0.0, 0.0, 0.0)",0.197042717773,0.325511113944,-0.0605284717902,-0.00171151957299,-0.00585315994868,0.0819558200016,"(0.0, 0.0, 0.0, 0.0, 0.0, 0.0, 0.0, 0.0, 0.0, 0.0, 0.0, 0.0, 0.0, 0.0, 0.0, 0.0, 0.0, 0.0, 0.0, 0.0, 0.0, 0.0, 0.0, 0.0, 0.0, 0.0, 0.0, 0.0, 0.0, 0.0, 0.0, 0.0, 0.0, 0.0, 0.0, 0.0)"
1970/01/01/01:00:11.082000,19,11,80000000,map,map,0.414718324391,2.04421826912,-0.583952102058,0.000829466689261,-8.72312171176e-05,-0.687736441274,-0.725960063562,"(0.36602598250968227, 0.0, 0.0, 0.0, 0.0, 0.0, 0.0, 0.08433293982027286, 0.0, 0.0, 0.0, 0.0, 0.0, 0.0, 0.010099899665440826, 0.0, 0.0, 0.0, 0.0, 0.0, 0.0, 0.0, 0.0, 0.0, 0.0, 0.0, 0.0, 0.0, 0.0, 0.0, 0.0, 0.0, 0.0, 0.0, 0.0, 0.0)",0.191823075305,0.33333244698,0.0318570297454,1.04909289345e-05,-0.00773000889846,0.0663451909063,"(0.0, 0.0, 0.0, 0.0, 0.0, 0.0, 0.0, 0.0, 0.0, 0.0, 0.0, 0.0, 0.0, 0.0, 0.0, 0.0, 0.0, 0.0, 0.0, 0.0, 0.0, 0.0, 0.0, 0.0, 0.0, 0.0, 0.0, 0.0, 0.0, 0.0, 0.0, 0.0, 0.0, 0.0, 0.0, 0.0)"
1970/01/01/01:00:11.100000,20,11,99000000,map,map,0.414072013707,2.04482104518,-0.591863339379,0.000781119438413,-4.00744501032e-05,-0.688290358864,-0.725434974416,"(0.37710665876969, 0.0, 0.0, 0.0, 0.0, 0.0, 0.0, 0.09442926369803024, 0.0, 0.0, 0.0, 0.0, 0.0, 0.0, 0.010099940385433175, 0.0, 0.0, 0.0, 0.0, 0.0, 0.0, 0.0, 0.0, 0.0, 0.0, 0.0, 0.0, 0.0, 0.0, 0.0, 0.0, 0.0, 0.0, 0.0, 0.0, 0.0)",0.187414607784,0.339665864517,0.0730376294264,0.00676229554451,0.00222283640665,0.0672599870051,"(0.0, 0.0, 0.0, 0.0, 0.0, 0.0, 0.0, 0.0, 0.0, 0.0, 0.0, 0.0, 0.0, 0.0, 0.0, 0.0, 0.0, 0.0, 0.0, 0.0, 0.0, 0.0, 0.0, 0.0, 0.0, 0.0, 0.0, 0.0, 0.0, 0.0, 0.0, 0.0, 0.0, 0.0, 0.0, 0.0)"
1970/01/01/01:00:11.137000,21,11,119000000,map,map,0.474639538768,2.01080274485,-0.585706497363,0.000805153267186,-3.60561761516e-05,-0.688580828359,-0.725159256318,"(0.24159610446125462, 0.0, 0.0, 0.0, 0.0, 0.0, 0.0, 0.036595100904191706, 0.0, 0.0, 0.0, 0.0, 0.0, 0.0, 0.010008060865485769, 0.0, 0.0, 0.0, 0.0, 0.0, 0.0, 0.0, 0.0, 0.0, 0.0, 0.0, 0.0, 0.0, 0.0, 0.0, 0.0, 0.0, 0.0, 0.0, 0.0, 0.0)",0.183043324443,0.345699278065,0.0939553076767,-0.00338251516457,-0.0035851326201,0.0515194171297,"(0.0, 0.0, 0.0, 0.0, 0.0, 0.0, 0.0, 0.0, 0.0, 0.0, 0.0, 0.0, 0.0, 0.0, 0.0, 0.0, 0.0, 0.0, 0.0, 0.0, 0.0, 0.0, 0.0, 0.0, 0.0, 0.0, 0.0, 0.0, 0.0, 0.0, 0.0, 0.0, 0.0, 0.0, 0.0, 0.0)"
1970/01/01/01:00:11.180000,22,11,139000000,map,map,0.478896986125,2.01477222792,-0.559990068426,0.00082949776433,-1.13821597988e-05,-0.688964248777,-0.724794886276,"(0.25193483717664333, 0.0, 0.0, 0.0, 0.0, 0.0, 0.0, 0.04646531102070034, 0.0, 0.0, 0.0, 0.0, 0.0, 0.0, 0.010100012886469598, 0.0, 0.0, 0.0, 0.0, 0.0, 0.0, 0.0, 0.0, 0.0, 0.0, 0.0, 0.0, 0.0, 0.0, 0.0, 0.0, 0.0, 0.0, 0.0, 0.0, 0.0)",0.181381938753,0.351129350258,0.118516265989,0.00674769872284,-0.00215775247443,0.0542234443927,"(0.0, 0.0, 0.0, 0.0, 0.0, 0.0, 0.0, 0.0, 0.0, 0.0, 0.0, 0.0, 0.0, 0.0, 0.0, 0.0, 0.0, 0.0, 0.0, 0.0, 0.0, 0.0, 0.0, 0.0, 0.0, 0.0, 0.0, 0.0, 0.0, 0.0, 0.0, 0.0, 0.0, 0.0, 0.0, 0.0)"
1970/01/01/01:00:11.180000,23,11,159000000,map,map,0.478339543721,2.01535595489,-0.564676548518,0.000894286566638,-8.11098812798e-05,-0.689346100541,-0.724431663418,"(0.26263203796243795, 0.0, 0.0, 0.0, 0.0, 0.0, 0.0, 0.05651673581445063, 0.0, 0.0, 0.0, 0.0, 0.0, 0.0, 9.950502454834051e-05, 0.0, 0.0, 0.0, 0.0, 0.0, 0.0, 0.0, 0.0, 0.0, 0.0, 0.0, 0.0, 0.0, 0.0, 0.0, 0.0, 0.0, 0.0, 0.0, 0.0, 0.0)",0.179910554867,0.356016415233,0.177893903945,-0.017781440849,0.00125699792825,0.060957019505,"(0.0, 0.0, 0.0, 0.0, 0.0, 0.0, 0.0, 0.0, 0.0, 0.0, 0.0, 0.0, 0.0, 0.0, 0.0, 0.0, 0.0, 0.0, 0.0, 0.0, 0.0, 0.0, 0.0, 0.0, 0.0, 0.0, 0.0, 0.0, 0.0, 0.0, 0.0, 0.0, 0.0, 0.0, 0.0, 0.0)"
1970/01/01/01:00:11.180000,24,11,179000000,map,map,0.477758711372,2.01597201745,-0.577332900761,0.000949655836416,-7.6540405575e-05,-0.689715247665,-0.724080217971,"(0.27337540019930423, 0.0, 0.0, 0.0, 0.0, 0.0, 0.0, 0.06658062917319454, 0.0, 0.0, 0.0, 0.0, 0.0, 0.0, 9.901967495626485e-05, 0.0, 0.0, 0.0, 0.0, 0.0, 0.0, 0.0, 0.0, 0.0, 0.0, 0.0, 0.0, 0.0, 0.0, 0.0, 0.0, 0.0, 0.0, 0.0, 0.0, 0.0)",0.178418906122,0.360414773709,0.213634671956,0.00250796750398,-0.00579436642596,0.0452919515907,"(0.0, 0.0, 0.0, 0.0, 0.0, 0.0, 0.0, 0.0, 0.0, 0.0, 0.0, 0.0, 0.0, 0.0, 0.0, 0.0, 0.0, 0.0, 0.0, 0.0, 0.0, 0.0, 0.0, 0.0, 0.0, 0.0, 0.0, 0.0, 0.0, 0.0, 0.0, 0.0, 0.0, 0.0, 0.0, 0.0)"
1970/01/01/01:00:11.224000,25,11,200000000,map,map,0.477233302266,2.01652948151,-0.564436725616,0.000973689459394,-5.57289585567e-05,-0.690001103397,-0.723807764937,"(0.2840579990531552, 0.0, 0.0, 0.0, 0.0, 0.0, 0.0, 0.07664723911633506, 0.0, 0.0, 0.0, 0.0, 0.0, 0.0, 9.901961133117544e-05, 0.0, 0.0, 0.0, 0.0, 0.0, 0.0, 0.0, 0.0, 0.0, 0.0, 0.0, 0.0, 0.0, 0.0, 0.0, 0.0, 0.0, 0.0, 0.0, 0.0, 0.0)",0.176833778234,0.36457122247,0.215282014024,0.00107680151127,-0.00371689262211,0.0417239608901,"(0.0, 0.0, 0.0, 0.0, 0.0, 0.0, 0.0, 0.0, 0.0, 0.0, 0.0, 0.0, 0.0, 0.0, 0.0, 0.0, 0.0, 0.0, 0.0, 0.0, 0.0, 0.0, 0.0, 0.0, 0.0, 0.0, 0.0, 0.0, 0.0, 0.0, 0.0, 0.0, 0.0, 0.0, 0.0, 0.0)"
1970/01/01/01:00:11.224000,26,11,220000000,map,map,0.476680238905,2.01711628506,-0.560976723286,0.000918174857074,-4.90683159258e-05,-0.690320414507,-0.723503289518,"(0.2947869021590513, 0.0, 0.0, 0.0, 0.0, 0.0, 0.0, 0.08672646908455349, 0.0, 0.0, 0.0, 0.0, 0.0, 0.0, 9.901962547661059e-05, 0.0, 0.0, 0.0, 0.0, 0.0, 0.0, 0.0, 0.0, 0.0, 0.0, 0.0, 0.0, 0.0, 0.0, 0.0, 0.0, 0.0, 0.0, 0.0, 0.0, 0.0)",0.175311757169,0.368114100223,0.230537854539,0.00284689775708,0.00438108945162,0.0474262307064,"(0.0, 0.0, 0.0, 0.0, 0.0, 0.0, 0.0, 0.0, 0.0, 0.0, 0.0, 0.0, 0.0, 0.0, 0.0, 0.0, 0.0, 0.0, 0.0, 0.0, 0.0, 0.0, 0.0, 0.0, 0.0, 0.0, 0.0, 0.0, 0.0, 0.0, 0.0, 0.0, 0.0, 0.0, 0.0, 0.0)"
1970/01/01/01:00:11.242000,27,11,240000000,map,map,0.476127175488,2.0177030885,-0.549787933087,0.000897858018141,3.14122437586e-05,-0.690567122401,-0.723267876978,"(0.3055265283383621, 0.0, 0.0, 0.0, 0.0, 0.0, 0.0, 0.09681512596415327, 0.0, 0.0, 0.0, 0.0, 0.0, 0.0, 9.901962948780733e-05, 0.0, 0.0, 0.0, 0.0, 0.0, 0.0, 0.0, 0.0, 0.0, 0.0, 0.0, 0.0, 0.0, 0.0, 0.0, 0.0, 0.0, 0.0, 0.0, 0.0, 0.0)",0.17385501908,0.371143260702,0.240793366577,0.00534030327371,-0.0068558854703,0.0375891047649,"(0.0, 0.0, 0.0, 0.0, 0.0, 0.0, 0.0, 0.0, 0.0, 0.0, 0.0, 0.0, 0.0, 0.0, 0.0, 0.0, 0.0, 0.0, 0.0, 0.0, 0.0, 0.0, 0.0, 0.0, 0.0, 0.0, 0.0, 0.0, 0.0, 0.0, 0.0, 0.0, 0.0, 0.0, 0.0, 0.0)"
1970/01/01/01:00:11.261000,28,11,260000000,map,map,0.448810508587,1.97013081146,-0.53746765191,0.00089956644723,3.39150421698e-07,-0.69084487145,-0.723002434809,"(0.18814771315741066, 0.0, 0.0, 0.0, 0.0, 0.0, 0.0, 0.0340603415796919, 0.0, 0.0, 0.0, 0.0, 0.0, 0.0, 9.900762712529874e-05, 0.0, 0.0, 0.0, 0.0, 0.0, 0.0, 0.0, 0.0, 0.0, 0.0, 0.0, 0.0, 0.0, 0.0, 0.0, 0.0, 0.0, 0.0, 0.0, 0.0, 0.0)",0.172234770192,0.374173218328,0.261889747854,-0.00353912837959,0.00429593469799,0.0364236722013,"(0.0, 0.0, 0.0, 0.0, 0.0, 0.0, 0.0, 0.0, 0.0, 0.0, 0.0, 0.0, 0.0, 0.0, 0.0, 0.0, 0.0, 0.0, 0.0, 0.0, 0.0, 0.0, 0.0, 0.0, 0.0, 0.0, 0.0, 0.0, 0.0, 0.0, 0.0, 0.0, 0.0, 0.0, 0.0, 0.0)"
1970/01/01/01:00:11.303000,29,11,279000000,map,map,0.448229115037,1.9706944154,-0.537415008511,0.000899012528981,2.96212496511e-05,-0.691021838165,-0.722833475996,"(0.1986052661486714, 0.0, 0.0, 0.0, 0.0, 0.0, 0.0, 0.044097911176300505, 0.0, 0.0, 0.0, 0.0, 0.0, 0.0, 0.01010029449464307, 0.0, 0.0, 0.0, 0.0, 0.0, 0.0, 0.0, 0.0, 0.0, 0.0, 0.0, 0.0, 0.0, 0.0, 0.0, 0.0, 0.0, 0.0, 0.0, 0.0, 0.0)",0.16974598472,0.376626762587,0.288469369944,0.000929776102303,-0.000900767337663,0.0246959324087,"(0.0, 0.0, 0.0, 0.0, 0.0, 0.0, 0.0, 0.0, 0.0, 0.0, 0.0, 0.0, 0.0, 0.0, 0.0, 0.0, 0.0, 0.0, 0.0, 0.0, 0.0, 0.0, 0.0, 0.0, 0.0, 0.0, 0.0, 0.0, 0.0, 0.0, 0.0, 0.0, 0.0, 0.0, 0.0, 0.0)"
1970/01/01/01:00:11.303000,30,11,300000000,map,map,0.447640288191,1.9712301171,-0.556470874812,0.00091015407308,1.69678108394e-06,-0.691222334674,-0.722641577444,"(0.20907342032253745, 0.0, 0.0, 0.0, 0.0, 0.0, 0.0, 0.05414509256696243, 0.0, 0.0, 0.0, 0.0, 0.0, 0.0, 0.010100347136333792, 0.0, 0.0, 0.0, 0.0, 0.0, 0.0, 0.0, 0.0, 0.0, 0.0, 0.0, 0.0, 0.0, 0.0, 0.0, 0.0, 0.0, 0.0, 0.0, 0.0, 0.0)",0.167094682428,0.379080952515,0.303649418184,-0.00476929185516,0.00120977684751,0.0242989711154,"(0.0, 0.0, 0.0, 0.0, 0.0, 0.0, 0.0, 0.0, 0.0, 0.0, 0.0, 0.0, 0.0, 0.0, 0.0, 0.0, 0.0, 0.0, 0.0, 0.0, 0.0, 0.0, 0.0, 0.0, 0.0, 0.0, 0.0, 0.0, 0.0, 0.0, 0.0, 0.0, 0.0, 0.0, 0.0, 0.0)"
1970/01/01/01:00:11.346000,31,11,319000000,map,map,0.447058857372,1.97179359334,-0.564403391591,0.000913651932235,1.68185270304e-05,-0.69139730073,-0.72247419782,"(0.2195522587037236, 0.0, 0.0, 0.0, 0.0, 0.0, 0.0, 0.06420200838897812, 0.0, 0.0, 0.0, 0.0, 0.0, 0.0, 0.010100387760665032, 0.0, 0.0, 0.0, 0.0, 0.0, 0.0, 0.0, 0.0, 0.0, 0.0, 0.0, 0.0, 0.0, 0.0, 0.0, 0.0, 0.0, 0.0, 0.0, 0.0, 0.0)",0.164789926118,0.381068262026,0.274736143518,0.00255401950822,-0.000299351188,0.0317494991411,"(0.0, 0.0, 0.0, 0.0, 0.0, 0.0, 0.0, 0.0, 0.0, 0.0, 0.0, 0.0, 0.0, 0.0, 0.0, 0.0, 0.0, 0.0, 0.0, 0.0, 0.0, 0.0, 0.0, 0.0, 0.0, 0.0, 0.0, 0.0, 0.0, 0.0, 0.0, 0.0, 0.0, 0.0, 0.0, 0.0)"
1970/01/01/01:00:11.346000,32,11,339000000,map,map,0.446477457601,1.9723571862,-0.546102124438,0.000931249023509,-2.77354251335e-06,-0.691618173924,-0.722262765521,"(0.23004185978147723, 0.0, 0.0, 0.0, 0.0, 0.0, 0.0, 0.07426871733702575, 0.0, 0.0, 0.0, 0.0, 0.0, 0.0, 0.010100428373103643, 0.0, 0.0, 0.0, 0.0, 0.0, 0.0, 0.0, 0.0, 0.0, 0.0, 0.0, 0.0, 0.0, 0.0, 0.0, 0.0, 0.0, 0.0, 0.0, 0.0, 0.0)",0.162444093284,0.382961435824,0.22724734628,0.000180384029293,-0.00968143299515,0.0356745375416,"(0.0, 0.0, 0.0, 0.0, 0.0, 0.0, 0.0, 0.0, 0.0, 0.0, 0.0, 0.0, 0.0, 0.0, 0.0, 0.0, 0.0, 0.0, 0.0, 0.0, 0.0, 0.0, 0.0, 0.0, 0.0, 0.0, 0.0, 0.0, 0.0, 0.0, 0.0, 0.0, 0.0, 0.0, 0.0, 0.0)"
1970/01/01/01:00:11.388000,33,11,359000000,map,map,0.445896057208,1.97292077668,-0.547314618664,0.000936082205131,6.32012984528e-05,-0.691804005965,-0.722084772794,"(0.2405423035556531, 0.0, 0.0, 0.0, 0.0, 0.0, 0.0, 0.08434529940905766, 0.0, 0.0, 0.0, 0.0, 0.0, 0.0, 0.010100468974482801, 0.0, 0.0, 0.0, 0.0, 0.0, 0.0, 0.0, 0.0, 0.0, 0.0, 0.0, 0.0, 0.0, 0.0, 0.0, 0.0, 0.0, 0.0, 0.0, 0.0, 0.0)",0.160177755801,0.384665292241,0.21060054896,0.00682064836934,0.000317962509941,0.0256707972154,"(0.0, 0.0, 0.0, 0.0, 0.0, 0.0, 0.0, 0.0, 0.0, 0.0, 0.0, 0.0, 0.0, 0.0, 0.0, 0.0, 0.0, 0.0, 0.0, 0.0, 0.0, 0.0, 0.0, 0.0, 0.0, 0.0, 0.0, 0.0, 0.0, 0.0, 0.0, 0.0, 0.0, 0.0, 0.0, 0.0)"
1970/01/01/01:00:11.388000,34,11,379000000,map,map,0.44525651673,1.97354072606,-0.534018650784,0.00100716677525,7.38327998306e-05,-0.692003734611,-0.721893304929,"(0.2511054096216142, 0.0, 0.0, 0.0, 0.0, 0.0, 0.0, 0.0944410377464944, 0.0, 0.0, 0.0, 0.0, 0.0, 0.0, 0.010100819349563738, 0.0, 0.0, 0.0, 0.0, 0.0, 0.0, 0.0, 0.0, 0.0, 0.0, 0.0, 0.0, 0.0, 0.0, 0.0, 0.0, 0.0, 0.0, 0.0, 0.0, 0.0)",0.157984840777,0.386198763017,0.187687375852,-0.0074536700476,-0.00559006098059,0.0328205129871,"(0.0, 0.0, 0.0, 0.0, 0.0, 0.0, 0.0, 0.0, 0.0, 0.0, 0.0, 0.0, 0.0, 0.0, 0.0, 0.0, 0.0, 0.0, 0.0, 0.0, 0.0, 0.0, 0.0, 0.0, 0.0, 0.0, 0.0, 0.0, 0.0, 0.0, 0.0, 0.0, 0.0, 0.0, 0.0, 0.0)"
1970/01/01/01:00:11.427000,35,11,399000000,map,map,0.444733256376,1.97404795749,-0.534658134754,0.000963836151829,4.18232150443e-05,-0.692157733927,-0.721745627641,"(0.26157603159327153, 0.0, 0.0, 0.0, 0.0, 0.0, 0.0, 0.1045283953250738, 0.0, 0.0, 0.0, 0.0, 0.0, 0.0, 0.010100264527141368, 0.0, 0.0, 0.0, 0.0, 0.0, 0.0, 0.0, 0.0, 0.0, 0.0, 0.0, 0.0, 0.0, 0.0, 0.0, 0.0, 0.0, 0.0, 0.0, 0.0, 0.0)",0.155857493431,0.387578886715,0.184496765534,0.00312963968206,0.00475130629215,0.0217786464136,"(0.0, 0.0, 0.0, 0.0, 0.0, 0.0, 0.0, 0.0, 0.0, 0.0, 0.0, 0.0, 0.0, 0.0, 0.0, 0.0, 0.0, 0.0, 0.0, 0.0, 0.0, 0.0, 0.0, 0.0, 0.0, 0.0, 0.0, 0.0, 0.0, 0.0, 0.0, 0.0, 0.0, 0.0, 0.0, 0.0)"
1970/01/01/01:00:11.427000,36,11,420000000,map,map,0.467637164887,1.9851162611,-0.53191654896,0.000910119499494,-1.09816412601e-06,-0.692308781647,-0.721600901948,"(0.18307495824610445, 0.0, 0.0, 0.0, 0.0, 0.0, 0.0, 0.04482501129699803, 0.0, 0.0, 0.0, 0.0, 0.0, 0.0, 0.01010057612580373, 0.0, 0.0, 0.0, 0.0, 0.0, 0.0, 0.0, 0.0, 0.0, 0.0, 0.0, 0.0, 0.0, 0.0, 0.0, 0.0, 0.0, 0.0, 0.0, 0.0, 0.0)",0.153692465988,0.38888310361,0.174128497764,-0.00143420514848,0.0028310227117,0.0197927259775,"(0.0, 0.0, 0.0, 0.0, 0.0, 0.0, 0.0, 0.0, 0.0, 0.0, 0.0, 0.0, 0.0, 0.0, 0.0, 0.0, 0.0, 0.0, 0.0, 0.0, 0.0, 0.0, 0.0, 0.0, 0.0, 0.0, 0.0, 0.0, 0.0, 0.0, 0.0, 0.0, 0.0, 0.0, 0.0, 0.0)"
1970/01/01/01:00:11.467000,37,11,439000000,map,map,0.467076425897,1.98567713616,-0.537146037137,0.000893505491692,-0.000147783767241,-0.692463911026,-0.72145192601,"(0.19344255899936996, 0.0, 0.0, 0.0, 0.0, 0.0, 0.0, 0.05487394852016063, 0.0, 0.0, 0.0, 0.0, 0.0, 0.0, 0.010100631231090425, 0.0, 0.0, 0.0, 0.0, 0.0, 0.0, 0.0, 0.0, 0.0, 0.0, 0.0, 0.0, 0.0, 0.0, 0.0, 0.0, 0.0, 0.0, 0.0, 0.0, 0.0)",0.152685283486,0.389939208767,0.164923981664,-0.00616769990111,0.0141273500959,0.0133520079494,"(0.0, 0.0, 0.0, 0.0, 0.0, 0.0, 0.0, 0.0, 0.0, 0.0, 0.0, 0.0, 0.0, 0.0, 0.0, 0.0, 0.0, 0.0, 0.0, 0.0, 0.0, 0.0, 0.0, 0.0, 0.0, 0.0, 0.0, 0.0, 0.0, 0.0, 0.0, 0.0, 0.0, 0.0, 0.0, 0.0)"
1970/01/01/01:00:11.467000,38,11,459000000,map,map,0.466545334346,1.98621744083,-0.536038396242,0.000812727393367,-0.000114751792106,-0.692504761858,-0.721412845344,"(0.20380202935130298, 0.0, 0.0, 0.0, 0.0, 0.0, 0.0, 0.06492994382005844, 0.0, 0.0, 0.0, 0.0, 0.0, 0.0, 0.01010051220574303, 0.0, 0.0, 0.0, 0.0, 0.0, 0.0, 0.0, 0.0, 0.0, 0.0, 0.0, 0.0, 0.0, 0.0, 0.0, 0.0, 0.0, 0.0, 0.0, 0.0, 0.0)",0.151586573794,0.390945287891,0.142846037843,0.0102691038454,-0.00280260345723,0.00636281658545,"(0.0, 0.0, 0.0, 0.0, 0.0, 0.0, 0.0, 0.0, 0.0, 0.0, 0.0, 0.0, 0.0, 0.0, 0.0, 0.0, 0.0, 0.0, 0.0, 0.0, 0.0, 0.0, 0.0, 0.0, 0.0, 0.0, 0.0, 0.0, 0.0, 0.0, 0.0, 0.0, 0.0, 0.0, 0.0, 0.0)"
1970/01/01/01:00:11.510000,39,11,480000000,map,map,0.465930382265,1.98684303834,-0.541366884283,0.000770524753789,-0.000143203363813,-0.692594990359,-0.721326241473,"(0.21423082826548975, 0.0, 0.0, 0.0, 0.0, 0.0, 0.0, 0.07500641971135787, 0.0, 0.0, 0.0, 0.0, 0.0, 0.0, 0.010101062527496594, 0.0, 0.0, 0.0, 0.0, 0.0, 0.0, 0.0, 0.0, 0.0, 0.0, 0.0, 0.0, 0.0, 0.0, 0.0, 0.0, 0.0, 0.0, 0.0, 0.0, 0.0)",0.150397731653,0.391896032662,0.120466597242,-0.00410212472352,0.0105708715544,0.0156552464381,"(0.0, 0.0, 0.0, 0.0, 0.0, 0.0, 0.0, 0.0, 0.0, 0.0, 0.0, 0.0, 0.0, 0.0, 0.0, 0.0, 0.0, 0.0, 0.0, 0.0, 0.0, 0.0, 0.0, 0.0, 0.0, 0.0, 0.0, 0.0, 0.0, 0.0, 0.0, 0.0, 0.0, 0.0, 0.0, 0.0)"
1970/01/01/01:00:11.510000,40,11,499000000,map,map,0.465427239702,1.98735489109,-0.533144495397,0.00074804274399,-0.000174155079166,-0.692758115785,-0.721169606662,"(0.22459176327773303, 0.0, 0.0, 0.0, 0.0, 0.0, 0.0, 0.08507834739557212, 0.0, 0.0, 0.0, 0.0, 0.0, 0.0, 0.010100429425641046, 0.0, 0.0, 0.0, 0.0, 0.0, 0.0, 0.0, 0.0, 0.0, 0.0, 0.0, 0.0, 0.0, 0.0, 0.0, 0.0, 0.0, 0.0, 0.0, 0.0, 0.0)",0.149290718311,0.392665909559,0.0912842221599,0.00572015606759,0.00108067278926,0.0245299395365,"(0.0, 0.0, 0.0, 0.0, 0.0, 0.0, 0.0, 0.0, 0.0, 0.0, 0.0, 0.0, 0.0, 0.0, 0.0, 0.0, 0.0, 0.0, 0.0, 0.0, 0.0, 0.0, 0.0, 0.0, 0.0, 0.0, 0.0, 0.0, 0.0, 0.0, 0.0, 0.0, 0.0, 0.0, 0.0, 0.0)"
1970/01/01/01:00:11.550000,41,11,519000000,map,map,0.464840240008,1.98795205247,-0.515988949366,0.000754895516981,-0.000149279342398,-0.692907046942,-0.72102649177,"(0.23502443149368718, 0.0, 0.0, 0.0, 0.0, 0.0, 0.0, 0.0951729951913874, 0.0, 0.0, 0.0, 0.0, 0.0, 0.0, 0.010100969907750773, 0.0, 0.0, 0.0, 0.0, 0.0, 0.0, 0.0, 0.0, 0.0, 0.0, 0.0, 0.0, 0.0, 0.0, 0.0, 0.0, 0.0, 0.0, 0.0, 0.0, 0.0)",0.148101714464,0.393399318603,0.0762916135145,0.0036190465873,-0.00306453242292,0.0177760590791,"(0.0, 0.0, 0.0, 0.0, 0.0, 0.0, 0.0, 0.0, 0.0, 0.0, 0.0, 0.0, 0.0, 0.0, 0.0, 0.0, 0.0, 0.0, 0.0, 0.0, 0.0, 0.0, 0.0, 0.0, 0.0, 0.0, 0.0, 0.0, 0.0, 0.0, 0.0, 0.0, 0.0, 0.0, 0.0, 0.0)"
1970/01/01/01:00:11.551000,42,11,539000000,map,map,0.464281192905,1.98852077859,-0.533442945545,0.000730262495024,-0.000154529423852,-0.693030441061,-0.720907902392,"(0.24544816581173431, 0.0, 0.0, 0.0, 0.0, 0.0, 0.0, 0.10527395906367817, 0.0, 0.0, 0.0, 0.0, 0.0, 0.0, 0.010100835516932258, 0.0, 0.0, 0.0, 0.0, 0.0, 0.0, 0.0, 0.0, 0.0, 0.0, 0.0, 0.0, 0.0, 0.0, 0.0, 0.0, 0.0, 0.0, 0.0, 0.0, 0.0)",0.14688869844,0.394059386743,0.0898472959113,0.00453987735583,0.00156398373892,0.015795624849,"(0.0, 0.0, 0.0, 0.0, 0.0, 0.0, 0.0, 0.0, 0.0, 0.0, 0.0, 0.0, 0.0, 0.0, 0.0, 0.0, 0.0, 0.0, 0.0, 0.0, 0.0, 0.0, 0.0, 0.0, 0.0, 0.0, 0.0, 0.0, 0.0, 0.0, 0.0, 0.0, 0.0, 0.0, 0.0, 0.0)"
1970/01/01/01:00:11.598000,43,11,559000000,map,map,0.633588931567,1.91240302684,-0.538872084138,0.000734050072602,-0.000121723000211,-0.69312428497,-0.720817767405,"(0.17538542468006418, 0.0, 0.0, 0.0, 0.0, 0.0, 0.0, 0.04416952267187133, 0.0, 0.0, 0.0, 0.0, 0.0, 0.0, 0.01010086235804558, 0.0, 0.0, 0.0, 0.0, 0.0, 0.0, 0.0, 0.0, 0.0, 0.0, 0.0, 0.0, 0.0, 0.0, 0.0, 0.0, 0.0, 0.0, 0.0, 0.0, 0.0)",0.145656140763,0.394653448069,0.0690587944126,0.00450356139721,-0.0031050864766,0.00915171370547,"(0.0, 0.0, 0.0, 0.0, 0.0, 0.0, 0.0, 0.0, 0.0, 0.0, 0.0, 0.0, 0.0, 0.0, 0.0, 0.0, 0.0, 0.0, 0.0, 0.0, 0.0, 0.0, 0.0, 0.0, 0.0, 0.0, 0.0, 0.0, 0.0, 0.0, 0.0, 0.0, 0.0, 0.0, 0.0, 0.0)"
1970/01/01/01:00:11.598000,44,11,579000000,map,map,0.633140239023,1.91297864778,-0.544121763579,0.000679623694503,-0.000155342335309,-0.69322434554,-0.720721500052,"(0.18572446182524863, 0.0, 0.0, 0.0, 0.0, 0.0, 0.0, 0.05422534069275036, 0.0, 0.0, 0.0, 0.0, 0.0, 0.0, 0.010101308759357025, 0.0, 0.0, 0.0, 0.0, 0.0, 0.0, 0.0, 0.0, 0.0, 0.0, 0.0, 0.0, 0.0, 0.0, 0.0, 0.0, 0.0, 0.0, 0.0, 0.0, 0.0)",0.151201637441,0.395188103262,0.0403845190278,0.00390816718174,0.00776491329704,0.0167793263854,"(0.0, 0.0, 0.0, 0.0, 0.0, 0.0, 0.0, 0.0, 0.0, 0.0, 0.0, 0.0, 0.0, 0.0, 0.0, 0.0, 0.0, 0.0, 0.0, 0.0, 0.0, 0.0, 0.0, 0.0, 0.0, 0.0, 0.0, 0.0, 0.0, 0.0, 0.0, 0.0, 0.0, 0.0, 0.0, 0.0)"
1970/01/01/01:00:11.638000,45,11,599000000,map,map,0.632774211079,1.91345639563,-0.525953410397,0.000674136084277,-0.000249760619073,-0.693345741634,-0.720604655817,"(0.1960122069939593, 0.0, 0.0, 0.0, 0.0, 0.0, 0.0, 0.06428071284663074, 0.0, 0.0, 0.0, 0.0, 0.0, 0.0, 9.95051112193305e-05, 0.0, 0.0, 0.0, 0.0, 0.0, 0.0, 0.0, 0.0, 0.0, 0.0, 0.0, 0.0, 0.0, 0.0, 0.0, 0.0, 0.0, 0.0, 0.0, 0.0, 0.0)",0.156058111837,0.395669292936,0.00639367317217,-0.00679498057548,0.0104061568318,0.0232913213816,"(0.0, 0.0, 0.0, 0.0, 0.0, 0.0, 0.0, 0.0, 0.0, 0.0, 0.0, 0.0, 0.0, 0.0, 0.0, 0.0, 0.0, 0.0, 0.0, 0.0, 0.0, 0.0, 0.0, 0.0, 0.0, 0.0, 0.0, 0.0, 0.0, 0.0, 0.0, 0.0, 0.0, 0.0, 0.0, 0.0)"
1970/01/01/01:00:11.638000,46,11,619000000,map,map,0.632367489077,1.91398707456,-0.530611677153,0.000614848824528,-0.000279631601149,-0.693515114014,-0.720441689758,"(0.20634293133510828, 0.0, 0.0, 0.0, 0.0, 0.0, 0.0, 0.07435254091559154, 0.0, 0.0, 0.0, 0.0, 0.0, 0.0, 9.901975015162171e-05, 0.0, 0.0, 0.0, 0.0, 0.0, 0.0, 0.0, 0.0, 0.0, 0.0, 0.0, 0.0, 0.0, 0.0, 0.0, 0.0, 0.0, 0.0, 0.0, 0.0, 0.0)",0.160293336365,0.396102363642,0.00813543449021,0.00404891979225,0.0051385745881,0.0185133907608,"(0.0, 0.0, 0.0, 0.0, 0.0, 0.0, 0.0, 0.0, 0.0, 0.0, 0.0, 0.0, 0.0, 0.0, 0.0, 0.0, 0.0, 0.0, 0.0, 0.0, 0.0, 0.0, 0.0, 0.0, 0.0, 0.0, 0.0, 0.0, 0.0, 0.0, 0.0, 0.0, 0.0, 0.0, 0.0, 0.0)"
1970/01/01/01:00:11.653000,47,11,652000000,map,map,0.631960767166,1.91451775406,-0.552301599648,0.00064715785156,-0.000308930400656,-0.69360088285,-0.720359208376,"(0.21668532039940866, 0.0, 0.0, 0.0, 0.0, 0.0, 0.0, 0.08443529261852702, 0.0, 0.0, 0.0, 0.0, 0.0, 0.0, 9.901970741853642e-05, 0.0, 0.0, 0.0, 0.0, 0.0, 0.0, 0.0, 0.0, 0.0, 0.0, 0.0, 0.0, 0.0, 0.0, 0.0, 0.0, 0.0, 0.0, 0.0, 0.0, 0.0)",0.16634980443,0.396745473641,-0.00272732617467,-0.00394340029974,-0.00679242332483,0.00747292603646,"(0.0, 0.0, 0.0, 0.0, 0.0, 0.0, 0.0, 0.0, 0.0, 0.0, 0.0, 0.0, 0.0, 0.0, 0.0, 0.0, 0.0, 0.0, 0.0, 0.0, 0.0, 0.0, 0.0, 0.0, 0.0, 0.0, 0.0, 0.0, 0.0, 0.0, 0.0, 0.0, 0.0, 0.0, 0.0, 0.0)"
1970/01/01/01:00:11.661000,48,11,659000000,map,map,0.631554045158,1.91504843295,-0.528783902715,0.000591041720281,-0.000353232161143,-0.69372128586,-0.720243357226,"(0.22703945418686047, 0.0, 0.0, 0.0, 0.0, 0.0, 0.0, 0.09452904795543714, 0.0, 0.0, 0.0, 0.0, 0.0, 0.0, 9.90197112965224e-05, 0.0, 0.0, 0.0, 0.0, 0.0, 0.0, 0.0, 0.0, 0.0, 0.0, 0.0, 0.0, 0.0, 0.0, 0.0, 0.0, 0.0, 0.0, 0.0, 0.0, 0.0)",0.167342783767,0.396859382064,-0.0170802167902,0.00113634495752,0.0103385384382,0.0183015900899,"(0.0, 0.0, 0.0, 0.0, 0.0, 0.0, 0.0, 0.0, 0.0, 0.0, 0.0, 0.0, 0.0, 0.0, 0.0, 0.0, 0.0, 0.0, 0.0, 0.0, 0.0, 0.0, 0.0, 0.0, 0.0, 0.0, 0.0, 0.0, 0.0, 0.0, 0.0, 0.0, 0.0, 0.0, 0.0, 0.0)"
1970/01/01/01:00:11.687000,49,11,680000000,map,map,0.631147323193,1.91557911211,-0.525046324938,0.000554270200158,-0.000335422606946,-0.693856612805,-0.720113003609,"(0.23740541269746365, 0.0, 0.0, 0.0, 0.0, 0.0, 0.0, 0.10463388692632189, 0.0, 0.0, 0.0, 0.0, 0.0, 0.0, 9.901971517700239e-05, 0.0, 0.0, 0.0, 0.0, 0.0, 0.0, 0.0, 0.0, 0.0, 0.0, 0.0, 0.0, 0.0, 0.0, 0.0, 0.0, 0.0, 0.0, 0.0, 0.0, 0.0)",0.17015146978,0.397189146947,-0.0159354022275,0.00189653505194,0.00272311189673,0.00817673919806,"(0.0, 0.0, 0.0, 0.0, 0.0, 0.0, 0.0, 0.0, 0.0, 0.0, 0.0, 0.0, 0.0, 0.0, 0.0, 0.0, 0.0, 0.0, 0.0, 0.0, 0.0, 0.0, 0.0, 0.0, 0.0, 0.0, 0.0, 0.0, 0.0, 0.0, 0.0, 0.0, 0.0, 0.0, 0.0, 0.0)"
1970/01/01/01:00:11.704000,50,11,701000000,map,map,0.645043146105,1.92702216063,-0.558968083773,0.000483183052452,-0.000364932876413,-0.69399036056,-0.719984144888,"(0.17558140655462162, 0.0, 0.0, 0.0, 0.0, 0.0, 0.0, 0.037074838351897614, 0.0, 0.0, 0.0, 0.0, 0.0, 0.0, 9.901969812665228e-05, 0.0, 0.0, 0.0, 0.0, 0.0, 0.0, 0.0, 0.0, 0.0, 0.0, 0.0, 0.0, 0.0, 0.0, 0.0, 0.0, 0.0, 0.0, 0.0, 0.0, 0.0)",0.172500565104,0.397484286518,-0.00786253964735,0.00612789484659,0.00605392696196,0.0180622041452,"(0.0, 0.0, 0.0, 0.0, 0.0, 0.0, 0.0, 0.0, 0.0, 0.0, 0.0, 0.0, 0.0, 0.0, 0.0, 0.0, 0.0, 0.0, 0.0, 0.0, 0.0, 0.0, 0.0, 0.0, 0.0, 0.0, 0.0, 0.0, 0.0, 0.0, 0.0, 0.0, 0.0, 0.0, 0.0, 0.0)"
1970/01/01/01:00:11.721000,51,11,719000000,map,map,0.644627046666,1.92758557215,-0.558917668828,0.000507029700238,-0.000422312507649,-0.694082351325,-0.719895441577,"(0.18587108626805052, 0.0, 0.0, 0.0, 0.0, 0.0, 0.0, 0.04712195276414858, 0.0, 0.0, 0.0, 0.0, 0.0, 0.0, 0.010101416452153848, 0.0, 0.0, 0.0, 0.0, 0.0, 0.0, 0.0, 0.0, 0.0, 0.0, 0.0, 0.0, 0.0, 0.0, 0.0, 0.0, 0.0, 0.0, 0.0, 0.0, 0.0)",0.174674271916,0.397710700731,-0.0527767314966,-0.00262702283836,0.00523005783359,0.00937881023224,"(0.0, 0.0, 0.0, 0.0, 0.0, 0.0, 0.0, 0.0, 0.0, 0.0, 0.0, 0.0, 0.0, 0.0, 0.0, 0.0, 0.0, 0.0, 0.0, 0.0, 0.0, 0.0, 0.0, 0.0, 0.0, 0.0, 0.0, 0.0, 0.0, 0.0, 0.0, 0.0, 0.0, 0.0, 0.0, 0.0)"
1970/01/01/01:00:11.749000,52,11,739000000,map,map,0.644250549129,1.92809569621,-0.535053403781,0.000425892880372,-0.00051458638528,-0.694258859693,-0.719725170943,"(0.19614455163774558, 0.0, 0.0, 0.0, 0.0, 0.0, 0.0, 0.05717529443557484, 0.0, 0.0, 0.0, 0.0, 0.0, 0.0, 0.010101025595296876, 0.0, 0.0, 0.0, 0.0, 0.0, 0.0, 0.0, 0.0, 0.0, 0.0, 0.0, 0.0, 0.0, 0.0, 0.0, 0.0, 0.0, 0.0, 0.0, 0.0, 0.0)",0.176731286641,0.397939630658,-0.0933786496394,-0.000464600643642,0.011244453506,0.0147560603193,"(0.0, 0.0, 0.0, 0.0, 0.0, 0.0, 0.0, 0.0, 0.0, 0.0, 0.0, 0.0, 0.0, 0.0, 0.0, 0.0, 0.0, 0.0, 0.0, 0.0, 0.0, 0.0, 0.0, 0.0, 0.0, 0.0, 0.0, 0.0, 0.0, 0.0, 0.0, 0.0, 0.0, 0.0, 0.0, 0.0)"
1970/01/01/01:00:11.777000,53,11,759000000,map,map,0.64385426392,1.92863227867,-0.53587275051,0.000395591791559,-0.000570222339859,-0.694331563007,-0.71965499644,"(0.20644416439312654, 0.0, 0.0, 0.0, 0.0, 0.0, 0.0, 0.0672425208209615, 0.0, 0.0, 0.0, 0.0, 0.0, 0.0, 0.01010127609051787, 0.0, 0.0, 0.0, 0.0, 0.0, 0.0, 0.0, 0.0, 0.0, 0.0, 0.0, 0.0, 0.0, 0.0, 0.0, 0.0, 0.0, 0.0, 0.0, 0.0, 0.0)",0.178427800575,0.398145667592,-0.0843271846912,-0.00345556621035,0.00802548913055,0.00585826151,"(0.0, 0.0, 0.0, 0.0, 0.0, 0.0, 0.0, 0.0, 0.0, 0.0, 0.0, 0.0, 0.0, 0.0, 0.0, 0.0, 0.0, 0.0, 0.0, 0.0, 0.0, 0.0, 0.0, 0.0, 0.0, 0.0, 0.0, 0.0, 0.0, 0.0, 0.0, 0.0, 0.0, 0.0, 0.0, 0.0)"
1970/01/01/01:00:11.804000,54,11,780000000,map,map,0.643457978679,1.92916886132,-0.529466612942,0.000373665320646,-0.00051011359214,-0.694457454326,-0.719533572687,"(0.2167559119910493, 0.0, 0.0, 0.0, 0.0, 0.0, 0.0, 0.07732118746790738, 0.0, 0.0, 0.0, 0.0, 0.0, 0.0, 0.010101318498909105, 0.0, 0.0, 0.0, 0.0, 0.0, 0.0, 0.0, 0.0, 0.0, 0.0, 0.0, 0.0, 0.0, 0.0, 0.0, 0.0, 0.0, 0.0, 0.0, 0.0, 0.0)",0.179865907983,0.398340372495,-0.0748895581746,0.0042952892091,-0.00457391980491,0.0152032408194,"(0.0, 0.0, 0.0, 0.0, 0.0, 0.0, 0.0, 0.0, 0.0, 0.0, 0.0, 0.0, 0.0, 0.0, 0.0, 0.0, 0.0, 0.0, 0.0, 0.0, 0.0, 0.0, 0.0, 0.0, 0.0, 0.0, 0.0, 0.0, 0.0, 0.0, 0.0, 0.0, 0.0, 0.0, 0.0, 0.0)"
1970/01/01/01:00:11.832000,55,11,802000000,map,map,0.643061693462,1.92970544391,-0.530766243816,0.00040016163255,-0.000478693260632,-0.694514407889,-0.719478557879,"(0.22707987443151384, 0.0, 0.0, 0.0, 0.0, 0.0, 0.0, 0.08741137437641226, 0.0, 0.0, 0.0, 0.0, 0.0, 0.0, 0.010101358797408751, 0.0, 0.0, 0.0, 0.0, 0.0, 0.0, 0.0, 0.0, 0.0, 0.0, 0.0, 0.0, 0.0, 0.0, 0.0, 0.0, 0.0, 0.0, 0.0, 0.0, 0.0)",0.181032001043,0.39852293152,-0.052087616552,-0.00172271670394,-0.00111144944016,0.00135331467842,"(0.0, 0.0, 0.0, 0.0, 0.0, 0.0, 0.0, 0.0, 0.0, 0.0, 0.0, 0.0, 0.0, 0.0, 0.0, 0.0, 0.0, 0.0, 0.0, 0.0, 0.0, 0.0, 0.0, 0.0, 0.0, 0.0, 0.0, 0.0, 0.0, 0.0, 0.0, 0.0, 0.0, 0.0, 0.0, 0.0)"
1970/01/01/01:00:11.832000,56,11,819000000,map,map,0.642645593969,1.93026885566,-0.527224923246,0.000334241882948,-0.000414417526235,-0.694575524771,-0.719419716927,"(0.23743326836828726, 0.0, 0.0, 0.0, 0.0, 0.0, 0.0, 0.09751855646184526, 0.0, 0.0, 0.0, 0.0, 0.0, 0.0, 0.01010164055267927, 0.0, 0.0, 0.0, 0.0, 0.0, 0.0, 0.0, 0.0, 0.0, 0.0, 0.0, 0.0, 0.0, 0.0, 0.0, 0.0, 0.0, 0.0, 0.0, 0.0, 0.0)",0.181685941647,0.398648482341,-0.0378513503062,0.0170002357153,0.000823667282059,0.00383500213842,"(0.0, 0.0, 0.0, 0.0, 0.0, 0.0, 0.0, 0.0, 0.0, 0.0, 0.0, 0.0, 0.0, 0.0, 0.0, 0.0, 0.0, 0.0, 0.0, 0.0, 0.0, 0.0, 0.0, 0.0, 0.0, 0.0, 0.0, 0.0, 0.0, 0.0, 0.0, 0.0, 0.0, 0.0, 0.0, 0.0)"
1970/01/01/01:00:11.859000,57,11,839000000,map,map,0.722150902382,1.99189117246,-0.552167449691,0.000348487098437,-0.000402604644886,-0.69461935881,-0.719377400174,"(0.1739533982611838, 0.0, 0.0, 0.0, 0.0, 0.0, 0.0, 0.03575312691110602, 0.0, 0.0, 0.0, 0.0, 0.0, 0.0, 0.01010143044596641, 0.0, 0.0, 0.0, 0.0, 0.0, 0.0, 0.0, 0.0, 0.0, 0.0, 0.0, 0.0, 0.0, 0.0, 0.0, 0.0, 0.0, 0.0, 0.0, 0.0, 0.0)",0.182250143732,0.398783634107,-0.0165720382795,-0.00667718323446,-0.00412380095566,0.0098932391522,"(0.0, 0.0, 0.0, 0.0, 0.0, 0.0, 0.0, 0.0, 0.0, 0.0, 0.0, 0.0, 0.0, 0.0, 0.0, 0.0, 0.0, 0.0, 0.0, 0.0, 0.0, 0.0, 0.0, 0.0, 0.0, 0.0, 0.0, 0.0, 0.0, 0.0, 0.0, 0.0, 0.0, 0.0, 0.0, 0.0)"
1970/01/01/01:00:11.861000,58,11,860000000,map,map,0.721811701024,1.99248839344,-0.533683071858,0.000321523634095,-0.000514337686975,-0.694631458907,-0.719365637252,"(0.18420860604529926, 0.0, 0.0, 0.0, 0.0, 0.0, 0.0, 0.04579901393756982, 0.0, 0.0, 0.0, 0.0, 0.0, 0.0, 0.010101479484569307, 0.0, 0.0, 0.0, 0.0, 0.0, 0.0, 0.0, 0.0, 0.0, 0.0, 0.0, 0.0, 0.0, 0.0, 0.0, 0.0, 0.0, 0.0, 0.0, 0.0, 0.0)",0.185969921465,0.398911352526,-0.0410220401949,-0.00379445152824,0.00969729438633,-0.0025495305036,"(0.0, 0.0, 0.0, 0.0, 0.0, 0.0, 0.0, 0.0, 0.0, 0.0, 0.0, 0.0, 0.0, 0.0, 0.0, 0.0, 0.0, 0.0, 0.0, 0.0, 0.0, 0.0, 0.0, 0.0, 0.0, 0.0, 0.0, 0.0, 0.0, 0.0, 0.0, 0.0, 0.0, 0.0, 0.0, 0.0)"
1970/01/01/01:00:11.893000,59,11,881000000,map,map,0.721420248128,1.99314538568,-0.524255714042,0.000311515126111,-0.000555987365252,-0.694645255415,-0.719352177919,"(0.19451749968678803, 0.0, 0.0, 0.0, 0.0, 0.0, 0.0, 0.05586639306055104, 0.0, 0.0, 0.0, 0.0, 0.0, 0.0, 0.010102317649761217, 0.0, 0.0, 0.0, 0.0, 0.0, 0.0, 0.0, 0.0, 0.0, 0.0, 0.0, 0.0, 0.0, 0.0, 0.0, 0.0, 0.0, 0.0, 0.0, 0.0, 0.0)",0.189124131453,0.399025660511,-0.0273808580945,0.00504104653468,0.00183727264772,0.0075894273255,"(0.0, 0.0, 0.0, 0.0, 0.0, 0.0, 0.0, 0.0, 0.0, 0.0, 0.0, 0.0, 0.0, 0.0, 0.0, 0.0, 0.0, 0.0, 0.0, 0.0, 0.0, 0.0, 0.0, 0.0, 0.0, 0.0, 0.0, 0.0, 0.0, 0.0, 0.0, 0.0, 0.0, 0.0, 0.0, 0.0)"
1970/01/01/01:00:11.931000,60,11,899000000,map,map,0.721130908905,1.99363088984,-0.542795297564,0.000281672564347,-0.000538375868316,-0.694658093081,-0.719339930309,"(0.204756464570551, 0.0, 0.0, 0.0, 0.0, 0.0, 0.0, 0.06592628440911552, 0.0, 0.0, 0.0, 0.0, 0.0, 0.0, 0.010100867225551544, 0.0, 0.0, 0.0, 0.0, 0.0, 0.0, 0.0, 0.0, 0.0, 0.0, 0.0, 0.0, 0.0, 0.0, 0.0, 0.0, 0.0, 0.0, 0.0, 0.0, 0.0)",0.19138917555,0.399113351065,-0.00271059808081,0.00281857394818,-0.00377425113815,0.000583420823663,"(0.0, 0.0, 0.0, 0.0, 0.0, 0.0, 0.0, 0.0, 0.0, 0.0, 0.0, 0.0, 0.0, 0.0, 0.0, 0.0, 0.0, 0.0, 0.0, 0.0, 0.0, 0.0, 0.0, 0.0, 0.0, 0.0, 0.0, 0.0, 0.0, 0.0, 0.0, 0.0, 0.0, 0.0, 0.0, 0.0)"
1970/01/01/01:00:11.931000,61,11,919000000,map,map,0.720807529859,1.99417351527,-0.542573135713,0.000220267240244,-0.000536163652677,-0.694685348921,-0.719313601699,"(0.21503433325222984, 0.0, 0.0, 0.0, 0.0, 0.0, 0.0, 0.07600344596469916, 0.0, 0.0, 0.0, 0.0, 0.0, 0.0, 0.010101343799369741, 0.0, 0.0, 0.0, 0.0, 0.0, 0.0, 0.0, 0.0, 0.0, 0.0, 0.0, 0.0, 0.0, 0.0, 0.0, 0.0, 0.0, 0.0, 0.0, 0.0, 0.0)",0.193531643859,0.399202015958,-0.0103111301967,0.00288406765686,0.00646756929587,0.00472091810296,"(0.0, 0.0, 0.0, 0.0, 0.0, 0.0, 0.0, 0.0, 0.0, 0.0, 0.0, 0.0, 0.0, 0.0, 0.0, 0.0, 0.0, 0.0, 0.0, 0.0, 0.0, 0.0, 0.0, 0.0, 0.0, 0.0, 0.0, 0.0, 0.0, 0.0, 0.0, 0.0, 0.0, 0.0, 0.0, 0.0)"
1970/01/01/01:00:11.972000,62,11,940000000,map,map,0.720450110951,1.99477325892,-0.563489017972,0.000175037096637,-0.00055487412663,-0.694717089449,-0.719282956989,"(0.22535478625921757, 0.0, 0.0, 0.0, 0.0, 0.0, 0.0, 0.0861013695493055, 0.0, 0.0, 0.0, 0.0, 0.0, 0.0, 0.010101903456992587, 0.0, 0.0, 0.0, 0.0, 0.0, 0.0, 0.0, 0.0, 0.0, 0.0, 0.0, 0.0, 0.0, 0.0, 0.0, 0.0, 0.0, 0.0, 0.0, 0.0, 0.0)",0.195381927585,0.399285804283,-0.0162119230023,0.00185966696335,0.00864238805601,0.00428633850055,"(0.0, 0.0, 0.0, 0.0, 0.0, 0.0, 0.0, 0.0, 0.0, 0.0, 0.0, 0.0, 0.0, 0.0, 0.0, 0.0, 0.0, 0.0, 0.0, 0.0, 0.0, 0.0, 0.0, 0.0, 0.0, 0.0, 0.0, 0.0, 0.0, 0.0, 0.0, 0.0, 0.0, 0.0, 0.0, 0.0)"
1970/01/01/01:00:11.972000,63,11,959000000,map,map,0.720092691951,1.99537300317,-0.535415713002,0.000210447888881,-0.000519411062416,-0.69476872329,-0.719233009022,"(0.2356893270011204, 0.0, 0.0, 0.0, 0.0, 0.0, 0.0, 0.09621265087692647, 0.0, 0.0, 0.0, 0.0, 0.0, 0.0, 0.010101952925210775, 0.0, 0.0, 0.0, 0.0, 0.0, 0.0, 0.0, 0.0, 0.0, 0.0, 0.0, 0.0, 0.0, 0.0, 0.0, 0.0, 0.0, 0.0, 0.0, 0.0, 0.0)",0.196712196689,0.399353652876,-0.0532035534047,0.00256059483258,-0.00742630500893,0.0105462007906,"(0.0, 0.0, 0.0, 0.0, 0.0, 0.0, 0.0, 0.0, 0.0, 0.0, 0.0, 0.0, 0.0, 0.0, 0.0, 0.0, 0.0, 0.0, 0.0, 0.0, 0.0, 0.0, 0.0, 0.0, 0.0, 0.0, 0.0, 0.0, 0.0, 0.0, 0.0, 0.0, 0.0, 0.0, 0.0, 0.0)"
1970/01/01/01:00:12.012000,64,11,979000000,map,map,0.721266889016,2.00275587883,-0.535764946665,0.000176053724721,-0.000545108076213,-0.694797995594,-0.719204748243,"(0.16797795772937216, 0.0, 0.0, 0.0, 0.0, 0.0, 0.0, 0.03465903652024723, 0.0, 0.0, 0.0, 0.0, 0.0, 0.0, 0.010101710141747626, 0.0, 0.0, 0.0, 0.0, 0.0, 0.0, 0.0, 0.0, 0.0, 0.0, 0.0, 0.0, 0.0, 0.0, 0.0, 0.0, 0.0, 0.0, 0.0, 0.0, 0.0)",0.19781666602,0.399418287588,-0.0374415664636,-0.00010931592195,0.00724539371856,0.00489017479591,"(0.0, 0.0, 0.0, 0.0, 0.0, 0.0, 0.0, 0.0, 0.0, 0.0, 0.0, 0.0, 0.0, 0.0, 0.0, 0.0, 0.0, 0.0, 0.0, 0.0, 0.0, 0.0, 0.0, 0.0, 0.0, 0.0, 0.0, 0.0, 0.0, 0.0, 0.0, 0.0, 0.0, 0.0, 0.0, 0.0)"
1970/01/01/01:00:12.012000,65,12,3000000,map,map,0.720944828761,2.0032853831,-0.556794127495,9.49692591432e-05,-0.000531003020089,-0.694835580046,-0.71916851249,"(0.17820278569138814, 0.0, 0.0, 0.0, 0.0, 0.0, 0.0, 0.04470338303272357, 0.0, 0.0, 0.0, 0.0, 0.0, 0.0, 9.950517637913663e-05, 0.0, 0.0, 0.0, 0.0, 0.0, 0.0, 0.0, 0.0, 0.0, 0.0, 0.0, 0.0, 0.0, 0.0, 0.0, 0.0, 0.0, 0.0, 0.0, 0.0, 0.0)",0.198877010649,0.399488093078,-0.0208803841895,0.00818186280528,0.00639732658363,0.00301505405734,"(0.0, 0.0, 0.0, 0.0, 0.0, 0.0, 0.0, 0.0, 0.0, 0.0, 0.0, 0.0, 0.0, 0.0, 0.0, 0.0, 0.0, 0.0, 0.0, 0.0, 0.0, 0.0, 0.0, 0.0, 0.0, 0.0, 0.0, 0.0, 0.0, 0.0, 0.0, 0.0, 0.0, 0.0, 0.0, 0.0)"
1970/01/01/01:00:12.051000,66,12,20000000,map,map,0.720605391933,2.00386062197,-0.548231533717,0.000136105077198,-0.000657452497132,-0.6948557078,-0.719148890498,"(0.18845206777037551, 0.0, 0.0, 0.0, 0.0, 0.0, 0.0, 0.054762077396275435, 0.0, 0.0, 0.0, 0.0, 0.0, 0.0, 9.90198273673013e-05, 0.0, 0.0, 0.0, 0.0, 0.0, 0.0, 0.0, 0.0, 0.0, 0.0, 0.0, 0.0, 0.0, 0.0, 0.0, 0.0, 0.0, 0.0, 0.0, 0.0, 0.0)",0.199365590352,0.399531605166,-0.0404832739821,-0.0159241716289,0.00932263106933,0.00339443812442,"(0.0, 0.0, 0.0, 0.0, 0.0, 0.0, 0.0, 0.0, 0.0, 0.0, 0.0, 0.0, 0.0, 0.0, 0.0, 0.0, 0.0, 0.0, 0.0, 0.0, 0.0, 0.0, 0.0, 0.0, 0.0, 0.0, 0.0, 0.0, 0.0, 0.0, 0.0, 0.0, 0.0, 0.0, 0.0, 0.0)"
1970/01/01/01:00:12.051000,67,12,39000000,map,map,0.720265956724,2.00443579332,-0.547941793766,0.000176517442952,-0.000611606809915,-0.694857666311,-0.71914701628,"(0.1987143734992436, 0.0, 0.0, 0.0, 0.0, 0.0, 0.0, 0.0648331587066035, 0.0, 0.0, 0.0, 0.0, 0.0, 0.0, 9.901978472032283e-05, 0.0, 0.0, 0.0, 0.0, 0.0, 0.0, 0.0, 0.0, 0.0, 0.0, 0.0, 0.0, 0.0, 0.0, 0.0, 0.0, 0.0, 0.0, 0.0, 0.0, 0.0)",0.199723861801,0.399576102675,-0.044548366553,0.00400850871947,-0.00809431588002,0.00523332173575,"(0.0, 0.0, 0.0, 0.0, 0.0, 0.0, 0.0, 0.0, 0.0, 0.0, 0.0, 0.0, 0.0, 0.0, 0.0, 0.0, 0.0, 0.0, 0.0, 0.0, 0.0, 0.0, 0.0, 0.0, 0.0, 0.0, 0.0, 0.0, 0.0, 0.0, 0.0, 0.0, 0.0, 0.0, 0.0, 0.0)"
1970/01/01/01:00:12.090000,68,12,59000000,map,map,0.719926521486,2.00501096514,-0.528766641431,0.000175228156862,-0.000556945002154,-0.694888696929,-0.719117165775,"(0.20898978287799205, 0.0, 0.0, 0.0, 0.0, 0.0, 0.0, 0.07491670696307859, 0.0, 0.0, 0.0, 0.0, 0.0, 0.0, 9.901978856224509e-05, 0.0, 0.0, 0.0, 0.0, 0.0, 0.0, 0.0, 0.0, 0.0, 0.0, 0.0, 0.0, 0.0, 0.0, 0.0, 0.0, 0.0, 0.0, 0.0, 0.0, 0.0)",0.199900067239,0.399618492408,-0.0462495225898,0.000591756692153,-0.00771268342972,0.00910456347292,"(0.0, 0.0, 0.0, 0.0, 0.0, 0.0, 0.0, 0.0, 0.0, 0.0, 0.0, 0.0, 0.0, 0.0, 0.0, 0.0, 0.0, 0.0, 0.0, 0.0, 0.0, 0.0, 0.0, 0.0, 0.0, 0.0, 0.0, 0.0, 0.0, 0.0, 0.0, 0.0, 0.0, 0.0, 0.0, 0.0)"
1970/01/01/01:00:12.090000,69,12,81000000,map,map,0.719553142781,2.00564365319,-0.543516598578,0.000183156199268,-0.000473624726522,-0.694919656423,-0.719087302099,"(0.21930796251022713, 0.0, 0.0, 0.0, 0.0, 0.0, 0.0, 0.08502310396800085, 0.0, 0.0, 0.0, 0.0, 0.0, 0.0, 9.901985034273517e-05, 0.0, 0.0, 0.0, 0.0, 0.0, 0.0, 0.0, 0.0, 0.0, 0.0, 0.0, 0.0, 0.0, 0.0, 0.0, 0.0, 0.0, 0.0, 0.0, 0.0, 0.0)",0.199883818475,0.399660458243,-0.0109586538469,0.00737986334929,-0.00199145243533,0.00586766114585,"(0.0, 0.0, 0.0, 0.0, 0.0, 0.0, 0.0, 0.0, 0.0, 0.0, 0.0, 0.0, 0.0, 0.0, 0.0, 0.0, 0.0, 0.0, 0.0, 0.0, 0.0, 0.0, 0.0, 0.0, 0.0, 0.0, 0.0, 0.0, 0.0, 0.0, 0.0, 0.0, 0.0, 0.0, 0.0, 0.0)"
1970/01/01/01:00:12.132000,70,12,100000000,map,map,0.719247651072,2.00616130774,-0.527504435902,0.000164793930723,-0.000414486596235,-0.694939183585,-0.719068449286,"(0.22958022498513, 0.0, 0.0, 0.0, 0.0, 0.0, 0.0, 0.09512151671446947, 0.0, 0.0, 0.0, 0.0, 0.0, 0.0, 9.901974352057177e-05, 0.0, 0.0, 0.0, 0.0, 0.0, 0.0, 0.0, 0.0, 0.0, 0.0, 0.0, 0.0, 0.0, 0.0, 0.0, 0.0, 0.0, 0.0, 0.0, 0.0, 0.0)",0.199690024237,0.39969271471,-0.00892851513711,0.00284290083138,-0.00464017378237,0.00285328445749,"(0.0, 0.0, 0.0, 0.0, 0.0, 0.0, 0.0, 0.0, 0.0, 0.0, 0.0, 0.0, 0.0, 0.0, 0.0, 0.0, 0.0, 0.0, 0.0, 0.0, 0.0, 0.0, 0.0, 0.0, 0.0, 0.0, 0.0, 0.0, 0.0, 0.0, 0.0, 0.0, 0.0, 0.0, 0.0, 0.0)"
1970/01/01/01:00:12.132000,71,12,120000000,map,map,0.678242507031,1.90531257111,-0.537852538861,0.000216869767969,-0.000421368767065,-0.694950610649,-0.719057359397,"(0.15945148056776592, 0.0, 0.0, 0.0, 0.0, 0.0, 0.0, 0.025383873026593454, 0.0, 0.0, 0.0, 0.0, 0.0, 0.0, 9.900706695016753e-05, 0.0, 0.0, 0.0, 0.0, 0.0, 0.0, 0.0, 0.0, 0.0, 0.0, 0.0, 0.0, 0.0, 0.0, 0.0, 0.0, 0.0, 0.0, 0.0, 0.0, 0.0)",0.199341278355,0.399723443239,0.0198364070696,-0.00138981162141,-0.00389616753662,0.00412374578864,"(0.0, 0.0, 0.0, 0.0, 0.0, 0.0, 0.0, 0.0, 0.0, 0.0, 0.0, 0.0, 0.0, 0.0, 0.0, 0.0, 0.0, 0.0, 0.0, 0.0, 0.0, 0.0, 0.0, 0.0, 0.0, 0.0, 0.0, 0.0, 0.0, 0.0, 0.0, 0.0, 0.0, 0.0, 0.0, 0.0)"
1970/01/01/01:00:12.173000,72,12,139000000,map,map,0.678242507031,1.90531257111,-0.537852538861,0.000216869767969,-0.000421368767065,-0.694950610649,-0.719057359397,"(0.15945148056776592, 0.0, 0.0, 0.0, 0.0, 0.0, 0.0, 0.025383873026593454, 0.0, 0.0, 0.0, 0.0, 0.0, 0.0, 9.900706695016753e-05, 0.0, 0.0, 0.0, 0.0, 0.0, 0.0, 0.0, 0.0, 0.0, 0.0, 0.0, 0.0, 0.0, 0.0, 0.0, 0.0, 0.0, 0.0, 0.0, 0.0, 0.0)",0.197335601126,0.399749716131,0.0434417214096,-0.00138981162141,-0.00389616753662,0.00412374578864,"(0.0, 0.0, 0.0, 0.0, 0.0, 0.0, 0.0, 0.0, 0.0, 0.0, 0.0, 0.0, 0.0, 0.0, 0.0, 0.0, 0.0, 0.0, 0.0, 0.0, 0.0, 0.0, 0.0, 0.0, 0.0, 0.0, 0.0, 0.0, 0.0, 0.0, 0.0, 0.0, 0.0, 0.0, 0.0, 0.0)"
1970/01/01/01:00:12.173000,73,12,159000000,map,map,0.677666068447,1.90584983043,-0.53927860056,0.000172123304723,-0.000401590092761,-0.694974069322,-0.719034743661,"(0.1697992071143265, 0.0, 0.0, 0.0, 0.0, 0.0, 0.0, 0.035445420586699646, 0.0, 0.0, 0.0, 0.0, 0.0, 0.0, 0.010056913434086994, 0.0, 0.0, 0.0, 0.0, 0.0, 0.0, 0.0, 0.0, 0.0, 0.0, 0.0, 0.0, 0.0, 0.0, 0.0, 0.0, 0.0, 0.0, 0.0, 0.0, 0.0)",0.195270840403,0.399774744518,0.0441552223225,0.00641069308786,0.0033907042368,0.00441649923232,"(0.0, 0.0, 0.0, 0.0, 0.0, 0.0, 0.0, 0.0, 0.0, 0.0, 0.0, 0.0, 0.0, 0.0, 0.0, 0.0, 0.0, 0.0, 0.0, 0.0, 0.0, 0.0, 0.0, 0.0, 0.0, 0.0, 0.0, 0.0, 0.0, 0.0, 0.0, 0.0, 0.0, 0.0, 0.0, 0.0)"
1970/01/01/01:00:12.215000,74,12,179000000,map,map,0.677135257971,1.90660429112,-0.514737690184,0.000206443341466,-0.000467654958819,-0.69496666333,-0.719041812478,"(0.1901537368861144, 0.0, 0.0, 0.0, 0.0, 0.0, 0.0, 0.055532228330167265, 0.0, 0.0, 0.0, 0.0, 0.0, 0.0, 0.010101502072048007, 0.0, 0.0, 0.0, 0.0, 0.0, 0.0, 0.0, 0.0, 0.0, 0.0, 0.0, 0.0, 0.0, 0.0, 0.0, 0.0, 0.0, 0.0, 0.0, 0.0, 0.0)",0.193231629728,0.399797270066,0.0409011961743,-0.00338297741944,-0.00134074715084,0.0059997431394,"(0.0, 0.0, 0.0, 0.0, 0.0, 0.0, 0.0, 0.0, 0.0, 0.0, 0.0, 0.0, 0.0, 0.0, 0.0, 0.0, 0.0, 0.0, 0.0, 0.0, 0.0, 0.0, 0.0, 0.0, 0.0, 0.0, 0.0, 0.0, 0.0, 0.0, 0.0, 0.0, 0.0, 0.0, 0.0, 0.0)"
1970/01/01/01:00:12.215000,75,12,199000000,map,map,0.676768938041,1.90711733161,-0.537163901127,0.000194029489378,-0.000481721592987,-0.694984126613,-0.719024939251,"(0.20041486881189785, 0.0, 0.0, 0.0, 0.0, 0.0, 0.0, 0.06560796334808291, 0.0, 0.0, 0.0, 0.0, 0.0, 0.0, 0.010102148045944717, 0.0, 0.0, 0.0, 0.0, 0.0, 0.0, 0.0, 0.0, 0.0, 0.0, 0.0, 0.0, 0.0, 0.0, 0.0, 0.0, 0.0, 0.0, 0.0, 0.0, 0.0)",0.191218891029,0.39981754306,0.0777276518042,0.00390752611273,0.00875160194113,0.000869246033615,"(0.0, 0.0, 0.0, 0.0, 0.0, 0.0, 0.0, 0.0, 0.0, 0.0, 0.0, 0.0, 0.0, 0.0, 0.0, 0.0, 0.0, 0.0, 0.0, 0.0, 0.0, 0.0, 0.0, 0.0, 0.0, 0.0, 0.0, 0.0, 0.0, 0.0, 0.0, 0.0, 0.0, 0.0, 0.0, 0.0)"
1970/01/01/01:00:12.258000,76,12,221000000,map,map,0.676402621214,1.90763046628,-0.524685206954,0.000172969256592,-0.000499775076185,-0.695007320551,-0.719002503957,"(0.21068967199259295, 0.0, 0.0, 0.0, 0.0, 0.0, 0.0, 0.07569674633958276, 0.0, 0.0, 0.0, 0.0, 0.0, 0.0, 0.010102199690287177, 0.0, 0.0, 0.0, 0.0, 0.0, 0.0, 0.0, 0.0, 0.0, 0.0, 0.0, 0.0, 0.0, 0.0, 0.0, 0.0, 0.0, 0.0, 0.0, 0.0, 0.0)",0.189040117806,0.399837613323,0.0675205021703,0.000282012161377,0.00216996638534,0.00684781477763,"(0.0, 0.0, 0.0, 0.0, 0.0, 0.0, 0.0, 0.0, 0.0, 0.0, 0.0, 0.0, 0.0, 0.0, 0.0, 0.0, 0.0, 0.0, 0.0, 0.0, 0.0, 0.0, 0.0, 0.0, 0.0, 0.0, 0.0, 0.0, 0.0, 0.0, 0.0, 0.0, 0.0, 0.0, 0.0, 0.0)"
1970/01/01/01:00:12.258000,77,12,240000000,map,map,0.676036304409,1.90814360081,-0.527682693529,0.000169949048001,-0.000481929260881,-0.694995029476,-0.719014373563,"(0.2209782264281995, 0.0, 0.0, 0.0, 0.0, 0.0, 0.0, 0.08579865730449203, 0.0, 0.0, 0.0, 0.0, 0.0, 0.0, 0.010102239611110625, 0.0, 0.0, 0.0, 0.0, 0.0, 0.0, 0.0, 0.0, 0.0, 0.0, 0.0, 0.0, 0.0, 0.0, 0.0, 0.0, 0.0, 0.0, 0.0, 0.0, 0.0)",0.187191654446,0.399853040057,0.0776950142433,0.00191601697831,0.00320869733265,-0.001543456419,"(0.0, 0.0, 0.0, 0.0, 0.0, 0.0, 0.0, 0.0, 0.0, 0.0, 0.0, 0.0, 0.0, 0.0, 0.0, 0.0, 0.0, 0.0, 0.0, 0.0, 0.0, 0.0, 0.0, 0.0, 0.0, 0.0, 0.0, 0.0, 0.0, 0.0, 0.0, 0.0, 0.0, 0.0, 0.0, 0.0)"
1970/01/01/01:00:12.303000,78,12,260000000,map,map,0.653110716097,1.87607602913,-0.514929579325,0.000246732641715,-0.000514590002129,-0.694980981405,-0.719027915872,"(0.1627272131675136, 0.0, 0.0, 0.0, 0.0, 0.0, 0.0, 0.02524827314540624, 0.0, 0.0, 0.0, 0.0, 0.0, 0.0, 0.009985931806739665, 0.0, 0.0, 0.0, 0.0, 0.0, 0.0, 0.0, 0.0, 0.0, 0.0, 0.0, 0.0, 0.0, 0.0, 0.0, 0.0, 0.0, 0.0, 0.0, 0.0, 0.0)",0.185272426716,0.399867736052,0.0792361643437,-0.00934900271737,-0.00415072612046,0.002392953868,"(0.0, 0.0, 0.0, 0.0, 0.0, 0.0, 0.0, 0.0, 0.0, 0.0, 0.0, 0.0, 0.0, 0.0, 0.0, 0.0, 0.0, 0.0, 0.0, 0.0, 0.0, 0.0, 0.0, 0.0, 0.0, 0.0, 0.0, 0.0, 0.0, 0.0, 0.0, 0.0, 0.0, 0.0, 0.0, 0.0)"
1970/01/01/01:00:12.303000,79,12,281000000,map,map,0.652745447194,1.87703767709,-0.512061030396,0.000293150341721,-0.000439839906393,-0.694977229018,-0.719031668259,"(0.17296184146317095, 0.0, 0.0, 0.0, 0.0, 0.0, 0.0, 0.035040450305417914, 0.0, 0.0, 0.0, 0.0, 0.0, 0.0, 0.010102642689048777, 0.0, 0.0, 0.0, 0.0, 0.0, 0.0, 0.0, 0.0, 0.0, 0.0, 0.0, 0.0, 0.0, 0.0, 0.0, 0.0, 0.0, 0.0, 0.0, 0.0, 0.0)",0.182338640811,0.399881623766,0.100129354786,0.00489021398487,-0.00749019906719,-0.00166731687319,"(0.0, 0.0, 0.0, 0.0, 0.0, 0.0, 0.0, 0.0, 0.0, 0.0, 0.0, 0.0, 0.0, 0.0, 0.0, 0.0, 0.0, 0.0, 0.0, 0.0, 0.0, 0.0, 0.0, 0.0, 0.0, 0.0, 0.0, 0.0, 0.0, 0.0, 0.0, 0.0, 0.0, 0.0, 0.0, 0.0)"
1970/01/01/01:00:12.303000,80,12,300000000,map,map,0.652381588325,1.87748575901,-0.524791903945,0.000248236109117,-0.000460640708657,-0.694973556974,-0.719035171715,"(0.18318876139088094, 0.0, 0.0, 0.0, 0.0, 0.0, 0.0, 0.045089735872340095, 0.0, 0.0, 0.0, 0.0, 0.0, 0.0, 0.010102039306989288, 0.0, 0.0, 0.0, 0.0, 0.0, 0.0, 0.0, 0.0, 0.0, 0.0, 0.0, 0.0, 0.0, 0.0, 0.0, 0.0, 0.0, 0.0, 0.0, 0.0, 0.0)",0.179801245134,0.399892869508,0.116970278058,0.00230761477561,0.00706877447649,-0.000540612877331,"(0.0, 0.0, 0.0, 0.0, 0.0, 0.0, 0.0, 0.0, 0.0, 0.0, 0.0, 0.0, 0.0, 0.0, 0.0, 0.0, 0.0, 0.0, 0.0, 0.0, 0.0, 0.0, 0.0, 0.0, 0.0, 0.0, 0.0, 0.0, 0.0, 0.0, 0.0, 0.0, 0.0, 0.0, 0.0, 0.0)"
1970/01/01/01:00:12.342000,81,12,320000000,map,map,0.652000257202,1.87797864074,-0.505541502756,0.000205585546086,-0.000436419451943,-0.694927083488,-0.719080212208,"(0.1934412853374186, 0.0, 0.0, 0.0, 0.0, 0.0, 0.0, 0.05515469781496724, 0.0, 0.0, 0.0, 0.0, 0.0, 0.0, 0.010102395364103707, 0.0, 0.0, 0.0, 0.0, 0.0, 0.0, 0.0, 0.0, 0.0, 0.0, 0.0, 0.0, 0.0, 0.0, 0.0, 0.0, 0.0, 0.0, 0.0, 0.0, 0.0)",0.177230910163,0.399903582558,0.106940495573,0.00709210749298,0.00475096321299,-0.00780530234705,"(0.0, 0.0, 0.0, 0.0, 0.0, 0.0, 0.0, 0.0, 0.0, 0.0, 0.0, 0.0, 0.0, 0.0, 0.0, 0.0, 0.0, 0.0, 0.0, 0.0, 0.0, 0.0, 0.0, 0.0, 0.0, 0.0, 0.0, 0.0, 0.0, 0.0, 0.0, 0.0, 0.0, 0.0, 0.0, 0.0)"
1970/01/01/01:00:12.342000,82,12,339000000,map,map,0.651618902792,1.87847122814,-0.526024912011,0.00011942461814,-0.00042401215443,-0.694900486192,-0.71910579798,"(0.20370789923831661, 0.0, 0.0, 0.0, 0.0, 0.0, 0.0, 0.06523313047331221, 0.0, 0.0, 0.0, 0.0, 0.0, 0.0, 0.010102438219997296, 0.0, 0.0, 0.0, 0.0, 0.0, 0.0, 0.0, 0.0, 0.0, 0.0, 0.0, 0.0, 0.0, 0.0, 0.0, 0.0, 0.0, 0.0, 0.0, 0.0, 0.0)",0.174882134233,0.399912742215,0.126093603964,0.00664002727138,0.00787260051874,-0.000400185421322,"(0.0, 0.0, 0.0, 0.0, 0.0, 0.0, 0.0, 0.0, 0.0, 0.0, 0.0, 0.0, 0.0, 0.0, 0.0, 0.0, 0.0, 0.0, 0.0, 0.0, 0.0, 0.0, 0.0, 0.0, 0.0, 0.0, 0.0, 0.0, 0.0, 0.0, 0.0, 0.0, 0.0, 0.0, 0.0, 0.0)"
1970/01/01/01:00:12.360000,83,12,359000000,map,map,0.651237548569,1.87896381787,-0.526517966375,9.32271208064e-05,-0.000464386921408,-0.694906251091,-0.719100285962,"(0.21398868309356053, 0.0, 0.0, 0.0, 0.0, 0.0, 0.0, 0.0753251138450584, 0.0, 0.0, 0.0, 0.0, 0.0, 0.0, 0.010102477901390737, 0.0, 0.0, 0.0, 0.0, 0.0, 0.0, 0.0, 0.0, 0.0, 0.0, 0.0, 0.0, 0.0, 0.0, 0.0, 0.0, 0.0, 0.0, 0.0, 0.0, 0.0)",0.172494666442,0.399921467993,0.10489868456,0.00308199342618,0.000152195181635,0.00625192719308,"(0.0, 0.0, 0.0, 0.0, 0.0, 0.0, 0.0, 0.0, 0.0, 0.0, 0.0, 0.0, 0.0, 0.0, 0.0, 0.0, 0.0, 0.0, 0.0, 0.0, 0.0, 0.0, 0.0, 0.0, 0.0, 0.0, 0.0, 0.0, 0.0, 0.0, 0.0, 0.0, 0.0, 0.0, 0.0, 0.0)"
1970/01/01/01:00:12.381000,84,12,379000000,map,map,0.65123754853,1.87896381735,-0.512580004363,9.32271208064e-05,-0.000464386921408,-0.694906251091,-0.719100285962,"(0.21398868309356053, 0.0, 0.0, 0.0, 0.0, 0.0, 0.0, 0.07532511384505838, 0.0, 0.0, 0.0, 0.0, 0.0, 0.0, 9.901984595343782e-05, 0.0, 0.0, 0.0, 0.0, 0.0, 0.0, 0.0, 0.0, 0.0, 0.0, 0.0, 0.0, 0.0, 0.0, 0.0, 0.0, 0.0, 0.0, 0.0, 0.0, 0.0)",0.170190785554,0.399929321194,0.0829178716311,0.00308199342618,0.000152195181635,0.00625192719308,"(0.0, 0.0, 0.0, 0.0, 0.0, 0.0, 0.0, 0.0, 0.0, 0.0, 0.0, 0.0, 0.0, 0.0, 0.0, 0.0, 0.0, 0.0, 0.0, 0.0, 0.0, 0.0, 0.0, 0.0, 0.0, 0.0, 0.0, 0.0, 0.0, 0.0, 0.0, 0.0, 0.0, 0.0, 0.0, 0.0)"
1970/01/01/01:00:12.428000,85,12,399000000,map,map,0.650474840111,1.87994899716,-0.522853517265,0.000201381439106,-0.000405299149197,-0.694903020272,-0.719103348194,"(0.2345930602670861, 0.0, 0.0, 0.0, 0.0, 0.0, 0.0, 0.09555003232875407, 0.0, 0.0, 0.0, 0.0, 0.0, 0.0, 9.950526633808008e-05, 0.0, 0.0, 0.0, 0.0, 0.0, 0.0, 0.0, 0.0, 0.0, 0.0, 0.0, 0.0, 0.0, 0.0, 0.0, 0.0, 0.0, 0.0, 0.0, 0.0, 0.0)",0.16797929702,0.399936389074,0.0850665351562,-0.00676206298865,-0.00165073813944,0.00167854785715,"(0.0, 0.0, 0.0, 0.0, 0.0, 0.0, 0.0, 0.0, 0.0, 0.0, 0.0, 0.0, 0.0, 0.0, 0.0, 0.0, 0.0, 0.0, 0.0, 0.0, 0.0, 0.0, 0.0, 0.0, 0.0, 0.0, 0.0, 0.0, 0.0, 0.0, 0.0, 0.0, 0.0, 0.0, 0.0, 0.0)"
1970/01/01/01:00:12.428000,86,12,419000000,map,map,0.715539532401,1.83311789098,-0.521724172634,0.000243053790864,-0.000378169271172,-0.694889435816,-0.719116595475,"(0.18924940276709887, 0.0, 0.0, 0.0, 0.0, 0.0, 0.0, 0.042886442826916255, 0.0, 0.0, 0.0, 0.0, 0.0, 0.0, 9.90199034048538e-05, 0.0, 0.0, 0.0, 0.0, 0.0, 0.0, 0.0, 0.0, 0.0, 0.0, 0.0, 0.0, 0.0, 0.0, 0.0, 0.0, 0.0, 0.0, 0.0, 0.0, 0.0)",0.165822296374,0.399942750167,0.0668990154195,-0.000421923867756,-0.00863159250419,-0.00180009754936,"(0.0, 0.0, 0.0, 0.0, 0.0, 0.0, 0.0, 0.0, 0.0, 0.0, 0.0, 0.0, 0.0, 0.0, 0.0, 0.0, 0.0, 0.0, 0.0, 0.0, 0.0, 0.0, 0.0, 0.0, 0.0, 0.0, 0.0, 0.0, 0.0, 0.0, 0.0, 0.0, 0.0, 0.0, 0.0, 0.0)"
1970/01/01/01:00:12.471000,87,12,440000000,map,map,0.715202124274,1.83357943889,-0.536073192901,0.000272030320297,-0.000363667056116,-0.69492005155,-0.719086906972,"(0.19951252523559393, 0.0, 0.0, 0.0, 0.0, 0.0, 0.0, 0.052950293910884884, 0.0, 0.0, 0.0, 0.0, 0.0, 0.0, 9.901986116885335e-05, 0.0, 0.0, 0.0, 0.0, 0.0, 0.0, 0.0, 0.0, 0.0, 0.0, 0.0, 0.0, 0.0, 0.0, 0.0, 0.0, 0.0, 0.0, 0.0, 0.0, 0.0)",0.16637554523,0.399948761399,0.0506373232135,-0.00484360810477,-0.00104388535752,0.00778095263663,"(0.0, 0.0, 0.0, 0.0, 0.0, 0.0, 0.0, 0.0, 0.0, 0.0, 0.0, 0.0, 0.0, 0.0, 0.0, 0.0, 0.0, 0.0, 0.0, 0.0, 0.0, 0.0, 0.0, 0.0, 0.0, 0.0, 0.0, 0.0, 0.0, 0.0, 0.0, 0.0, 0.0, 0.0, 0.0, 0.0)"
1970/01/01/01:00:12.471000,88,12,459000000,map,map,0.714864846347,1.83404111789,-0.510574506919,0.000201017768191,-0.000418956405345,-0.694955253388,-0.719052969539,"(0.2097901670119408, 0.0, 0.0, 0.0, 0.0, 0.0, 0.0, 0.06302804074387428, 0.0, 0.0, 0.0, 0.0, 0.0, 0.0, 9.901986496086691e-05, 0.0, 0.0, 0.0, 0.0, 0.0, 0.0, 0.0, 0.0, 0.0, 0.0, 0.0, 0.0, 0.0, 0.0, 0.0, 0.0, 0.0, 0.0, 0.0, 0.0, 0.0)",0.166678397377,0.399953629067,0.0140704107655,0.002714328478,0.0095827197044,0.00266531195999,"(0.0, 0.0, 0.0, 0.0, 0.0, 0.0, 0.0, 0.0, 0.0, 0.0, 0.0, 0.0, 0.0, 0.0, 0.0, 0.0, 0.0, 0.0, 0.0, 0.0, 0.0, 0.0, 0.0, 0.0, 0.0, 0.0, 0.0, 0.0, 0.0, 0.0, 0.0, 0.0, 0.0, 0.0, 0.0, 0.0)"
