time,.header.seq,.header.stamp.secs,.header.stamp.nsecs,.header.frame_id,.child_frame_id,.pose.pose.position.x,.pose.pose.position.y,.pose.pose.position.z,.pose.pose.orientation.x,.pose.pose.orientation.y,.pose.pose.orientation.z,.pose.pose.orientation.w,.pose.covariance,.twist.twist.linear.x,.twist.twist.linear.y,.twist.twist.linear.z,.twist.twist.angular.x,.twist.twist.angular.y,.twist.twist.angular.z,.twist.covariance
1970/01/01/01:00:11.050000,1,11,48000000,map,map,0.801,1.674,-0.611985996343,0.000229832856467,-3.81307765674e-05,-0.674769558983,-0.738028459336,"(122.8132960004, 0.0, 0.0, 0.0, 0.0, 0.0, 0.0, 122.8132960004, 0.0, 0.0, 0.0, 0.0, 0.0, 0.0, 0.010100036898266126, 0.0, 0.0, 0.0, 0.0, 0.0, 0.0, 0.0, 0.0, 0.0, 0.0, 0.0, 0.0, 0.0, 0.0, 0.0, 0.0, 0.0, 0.0, 0.0, 0.0, 0.0)",0.0,0.0,0.0,9.51761596163e-05,-0.00630467916082,0.00623281355035,"(0.0, 0.0, 0.0, 0.0, 0.0, 0.0, 0.0, 0.0, 0.0, 0.0, 0.0, 0.0, 0.0, 0.0, 0.0, 0.0, 0.0, 0.0, 0.0, 0.0, 0.0, 0.0, 0.0, 0.0, 0.0, 0.0, 0.0, 0.0, 0.0, 0.0, 0.0, 0.0, 0.0, 0.0, 0.0, 0.0)"
1970/01/01/01:00:11.072000,2,11,70000000,map,map,0.8085,1.6665,-0.593052536458,0.000335598325143,-2.9929561668e-05,-0.674772277455,-0.738025993745,"(123.15460105140002, 0.0, 0.0, 0.0, 0.0, 0.0, 0.0, 123.15460105140002, 0.0, 0.0, 0.0, 0.0, 0.0, 0.0, 9.950495989111622e-05, 0.0, 0.0, 0.0, 0.0, 0.0, 0.0, 0.0, 0.0, 0.0, 0.0, 0.0, 0.0, 0.0, 0.0, 0.0, 0.0, 0.0, 0.0, 0.0, 0.0, 0.0)",0.0,0.0,0.0,-0.00230173979073,-0.00843433559399,0.00312504710752,"(0.0, 0.0, 0.0, 0.0, 0.0, 0.0, 0.0, 0.0, 0.0, 0.0, 0.0, 0.0, 0.0, 0.0, 0.0, 0.0, 0.0, 0.0, 0.0, 0.0, 0.0, 0.0, 0.0, 0.0, 0.0, 0.0, 0.0, 0.0, 0.0, 0.0, 0.0, 0.0, 0.0, 0.0, 0.0, 0.0)"
1970/01/01/01:00:11.099000,3,11,97000000,map,map,0.828837108871,1.646,-0.61394027374,0.000330654765288,-0.00014221986875,-0.675519322442,-0.737342253325,"(124.08246486220004, 0.0, 0.0, 0.0, 0.0, 0.0, 0.0, 124.08246486220004, 0.0, 0.0, 0.0, 0.0, 0.0, 0.0, 0.010099235732851932, 0.0, 0.0, 0.0, 0.0, 0.0, 0.0, 0.0, 0.0, 0.0, 0.0, 0.0, 0.0, 0.0, 0.0, 0.0, 0.0, 0.0, 0.0, 0.0, 0.0, 0.0)",0.043659,0.054,-0.20936820703,0.000173078765651,0.00127388344111,0.0879118616864,"(0.0, 0.0, 0.0, 0.0, 0.0, 0.0, 0.0, 0.0, 0.0, 0.0, 0.0, 0.0, 0.0, 0.0, 0.0, 0.0, 0.0, 0.0, 0.0, 0.0, 0.0, 0.0, 0.0, 0.0, 0.0, 0.0, 0.0, 0.0, 0.0, 0.0, 0.0, 0.0, 0.0, 0.0, 0.0, 0.0)"
1970/01/01/01:00:11.108000,4,11,108000000,map,map,0.0470165794296,2.04758919608,-0.603813844493,0.000330654765288,-0.00014221986875,-0.675519322442,-0.737342253325,"(0.7487044509439007, 0.0, 0.0, 0.0, 0.0, 0.0, 0.0, 0.03065565372634541, 0.0, 0.0, 0.0, 0.0, 0.0, 0.0, 9.901375241020682e-05, 0.0, 0.0, 0.0, 0.0, 0.0, 0.0, 0.0, 0.0, 0.0, 0.0, 0.0, 0.0, 0.0, 0.0, 0.0, 0.0, 0.0, 0.0, 0.0, 0.0, 0.0)",0.0594921713952,0.07303,-0.290782955185,0.000173078765651,0.00127388344111,0.0879118616864,"(0.0, 0.0, 0.0, 0.0, 0.0, 0.0, 0.0, 0.0, 0.0, 0.0, 0.0, 0.0, 0.0, 0.0, 0.0, 0.0, 0.0, 0.0, 0.0, 0.0, 0.0, 0.0, 0.0, 0.0, 0.0, 0.0, 0.0, 0.0, 0.0, 0.0, 0.0, 0.0, 0.0, 0.0, 0.0, 0.0)"
1970/01/01/01:00:11.129000,5,11,128000000,map,map,0.0549292171276,2.03876555159,-0.598946255054,0.000317313589925,-0.000123512028975,-0.676638998254,-0.736314879111,"(0.7612531247975681, 0.0, 0.0, 0.0, 0.0, 0.0, 0.0, 0.04076309526666459, 0.0, 0.0, 0.0, 0.0, 0.0, 0.0, 9.901953363492036e-05, 0.0, 0.0, 0.0, 0.0, 0.0, 0.0, 0.0, 0.0, 0.0, 0.0, 0.0, 0.0, 0.0, 0.0, 0.0, 0.0, 0.0, 0.0, 0.0, 0.0, 0.0)",0.0554044074728,0.105727,-0.401811021174,0.00534556978321,-0.0010036622045,0.165091143508,"(0.0, 0.0, 0.0, 0.0, 0.0, 0.0, 0.0, 0.0, 0.0, 0.0, 0.0, 0.0, 0.0, 0.0, 0.0, 0.0, 0.0, 0.0, 0.0, 0.0, 0.0, 0.0, 0.0, 0.0, 0.0, 0.0, 0.0, 0.0, 0.0, 0.0, 0.0, 0.0, 0.0, 0.0, 0.0, 0.0)"
1970/01/01/01:00:11.149000,6,11,148000000,map,map,0.0644481485319,2.02805068639,-0.596514604968,0.000328261789472,-0.000110984228107,-0.677916803773,-0.735138647497,"(0.774352848307982, 0.0, 0.0, 0.0, 0.0, 0.0, 0.0, 0.050902118693996315, 0.0, 0.0, 0.0, 0.0, 0.0, 0.0, 9.901954880813027e-05, 0.0, 0.0, 0.0, 0.0, 0.0, 0.0, 0.0, 0.0, 0.0, 0.0, 0.0, 0.0, 0.0, 0.0, 0.0, 0.0, 0.0, 0.0, 0.0, 0.0, 0.0)",0.0519943317135,0.1351543,-0.472828059728,-0.000972404238351,-0.00109694929657,0.177515716434,"(0.0, 0.0, 0.0, 0.0, 0.0, 0.0, 0.0, 0.0, 0.0, 0.0, 0.0, 0.0, 0.0, 0.0, 0.0, 0.0, 0.0, 0.0, 0.0, 0.0, 0.0, 0.0, 0.0, 0.0, 0.0, 0.0, 0.0, 0.0, 0.0, 0.0, 0.0, 0.0, 0.0, 0.0, 0.0, 0.0)"
1970/01/01/01:00:11.169000,7,11,169000000,map,map,0.0714583977148,2.02012274234,-0.590501051393,0.000400307844865,-0.000113610410997,-0.67920328364,-0.733950116906,"(0.7866542056588305, 0.0, 0.0, 0.0, 0.0, 0.0, 0.0, 0.06101123072287298, 0.0, 0.0, 0.0, 0.0, 0.0, 0.0, 9.901953585371461e-05, 0.0, 0.0, 0.0, 0.0, 0.0, 0.0, 0.0, 0.0, 0.0, 0.0, 0.0, 0.0, 0.0, 0.0, 0.0, 0.0, 0.0, 0.0, 0.0, 0.0, 0.0)",0.0491250655377,0.1629630985,-0.5,-0.00635340281552,-0.00494054013646,0.176509921986,"(0.0, 0.0, 0.0, 0.0, 0.0, 0.0, 0.0, 0.0, 0.0, 0.0, 0.0, 0.0, 0.0, 0.0, 0.0, 0.0, 0.0, 0.0, 0.0, 0.0, 0.0, 0.0, 0.0, 0.0, 0.0, 0.0, 0.0, 0.0, 0.0, 0.0, 0.0, 0.0, 0.0, 0.0, 0.0, 0.0)"
1970/01/01/01:00:11.192000,8,11,189000000,map,map,0.0797740458079,2.01079404056,-0.580443893046,0.00038337686107,-5.49654688075e-05,-0.680404250186,-0.732836900098,"(0.7993729298716211, 0.0, 0.0, 0.0, 0.0, 0.0, 0.0, 0.0711465967337578, 0.0, 0.0, 0.0, 0.0, 0.0, 0.0, 9.901954805151486e-05, 0.0, 0.0, 0.0, 0.0, 0.0, 0.0, 0.0, 0.0, 0.0, 0.0, 0.0, 0.0, 0.0, 0.0, 0.0, 0.0, 0.0, 0.0, 0.0, 0.0, 0.0)",0.0469160924308,0.18666678865,-0.5,0.0065307321754,-0.00209408020532,0.165794210933,"(0.0, 0.0, 0.0, 0.0, 0.0, 0.0, 0.0, 0.0, 0.0, 0.0, 0.0, 0.0, 0.0, 0.0, 0.0, 0.0, 0.0, 0.0, 0.0, 0.0, 0.0, 0.0, 0.0, 0.0, 0.0, 0.0, 0.0, 0.0, 0.0, 0.0, 0.0, 0.0, 0.0, 0.0, 0.0, 0.0)"
1970/01/01/01:00:11.212000,9,11,210000000,map,map,0.0881364627836,2.00150783121,-0.598805153798,0.000446224675469,-2.20257413525e-05,-0.681606531186,-0.731718744207,"(0.8121038875725181, 0.0, 0.0, 0.0, 0.0, 0.0, 0.0, 0.08128960589933297, 0.0, 0.0, 0.0, 0.0, 0.0, 0.0, 9.901955205967768e-05, 0.0, 0.0, 0.0, 0.0, 0.0, 0.0, 0.0, 0.0, 0.0, 0.0, 0.0, 0.0, 0.0, 0.0, 0.0, 0.0, 0.0, 0.0, 0.0, 0.0, 0.0)",0.0451366050096,0.209066775842,-0.472629254477,-0.0018318574127,-0.00580776984693,0.166011062998,"(0.0, 0.0, 0.0, 0.0, 0.0, 0.0, 0.0, 0.0, 0.0, 0.0, 0.0, 0.0, 0.0, 0.0, 0.0, 0.0, 0.0, 0.0, 0.0, 0.0, 0.0, 0.0, 0.0, 0.0, 0.0, 0.0, 0.0, 0.0, 0.0, 0.0, 0.0, 0.0, 0.0, 0.0, 0.0, 0.0)"
1970/01/01/01:00:11.231000,10,11,228000000,map,map,0.0965313452307,1.99223486904,-0.60809202954,0.000490206928682,7.91823626649e-06,-0.682668990017,-0.730727682138,"(0.824847158761521, 0.0, 0.0, 0.0, 0.0, 0.0, 0.0, 0.09144033821959849, 0.0, 0.0, 0.0, 0.0, 0.0, 0.0, 9.901955598064783e-05, 0.0, 0.0, 0.0, 0.0, 0.0, 0.0, 0.0, 0.0, 0.0, 0.0, 0.0, 0.0, 0.0, 0.0, 0.0, 0.0, 0.0, 0.0, 0.0, 0.0, 0.0)",0.0440370623903,0.226250766016,-0.46588724078,-0.000252057980177,-0.00789642978531,0.145081983172,"(0.0, 0.0, 0.0, 0.0, 0.0, 0.0, 0.0, 0.0, 0.0, 0.0, 0.0, 0.0, 0.0, 0.0, 0.0, 0.0, 0.0, 0.0, 0.0, 0.0, 0.0, 0.0, 0.0, 0.0, 0.0, 0.0, 0.0, 0.0, 0.0, 0.0, 0.0, 0.0, 0.0, 0.0, 0.0, 0.0)"
1970/01/01/01:00:11.261000,11,11,248000000,map,map,0.394432562347,1.99507284601,-0.606729366983,0.000438615440633,5.04207811298e-05,-0.683667878229,-0.729793278604,"(0.2714588958878186, 0.0, 0.0, 0.0, 0.0, 0.0, 0.0, 0.056298803945552076, 0.0, 0.0, 0.0, 0.0, 0.0, 0.0, 9.901394140446168e-05, 0.0, 0.0, 0.0, 0.0, 0.0, 0.0, 0.0, 0.0, 0.0, 0.0, 0.0, 0.0, 0.0, 0.0, 0.0, 0.0, 0.0, 0.0, 0.0, 0.0, 0.0)",0.0432285995731,0.243625689414,-0.461043765792,0.00649945310453,0.00178946351063,0.140183385495,"(0.0, 0.0, 0.0, 0.0, 0.0, 0.0, 0.0, 0.0, 0.0, 0.0, 0.0, 0.0, 0.0, 0.0, 0.0, 0.0, 0.0, 0.0, 0.0, 0.0, 0.0, 0.0, 0.0, 0.0, 0.0, 0.0, 0.0, 0.0, 0.0, 0.0, 0.0, 0.0, 0.0, 0.0, 0.0, 0.0)"
1970/01/01/01:00:11.287000,12,11,272000000,map,map,0.401539067343,1.98773176563,-0.578966944271,0.000473687380859,3.66730471401e-05,-0.684558938998,-0.728957430207,"(0.2821742783375658, 0.0, 0.0, 0.0, 0.0, 0.0, 0.0, 0.06636995006519096, 0.0, 0.0, 0.0, 0.0, 0.0, 0.0, 9.901954548615417e-05, 0.0, 0.0, 0.0, 0.0, 0.0, 0.0, 0.0, 0.0, 0.0, 0.0, 0.0, 0.0, 0.0, 0.0, 0.0, 0.0, 0.0, 0.0, 0.0, 0.0, 0.0)",0.0427954345084,0.262390606685,-0.435072330056,-0.0038647924241,-0.0040225236631,0.118547184614,"(0.0, 0.0, 0.0, 0.0, 0.0, 0.0, 0.0, 0.0, 0.0, 0.0, 0.0, 0.0, 0.0, 0.0, 0.0, 0.0, 0.0, 0.0, 0.0, 0.0, 0.0, 0.0, 0.0, 0.0, 0.0, 0.0, 0.0, 0.0, 0.0, 0.0, 0.0, 0.0, 0.0, 0.0, 0.0, 0.0)"
1970/01/01/01:00:11.313000,13,11,290000000,map,map,0.410816379647,1.97812861773,-0.584795056865,0.000490340530899,0.000104218928348,-0.685386170999,-0.728179678606,"(0.2931224950646226, 0.0, 0.0, 0.0, 0.0, 0.0, 0.0, 0.07647100670987386, 0.0, 0.0, 0.0, 0.0, 0.0, 0.0, 9.901957303356372e-05, 0.0, 0.0, 0.0, 0.0, 0.0, 0.0, 0.0, 0.0, 0.0, 0.0, 0.0, 0.0, 0.0, 0.0, 0.0, 0.0, 0.0, 0.0, 0.0, 0.0, 0.0)",0.0530907862834,0.274775452083,-0.361998065802,0.00613157213184,-0.00283157103781,0.115593172329,"(0.0, 0.0, 0.0, 0.0, 0.0, 0.0, 0.0, 0.0, 0.0, 0.0, 0.0, 0.0, 0.0, 0.0, 0.0, 0.0, 0.0, 0.0, 0.0, 0.0, 0.0, 0.0, 0.0, 0.0, 0.0, 0.0, 0.0, 0.0, 0.0, 0.0, 0.0, 0.0, 0.0, 0.0, 0.0, 0.0)"
1970/01/01/01:00:11.313000,14,11,308000000,map,map,0.419180432203,1.96940239695,-0.598646350406,0.000592385912519,-6.49010018269e-06,-0.686204769481,-0.727408200301,"(0.30398946225453055, 0.0, 0.0, 0.0, 0.0, 0.0, 0.0, 0.0865700134085752, 0.0, 0.0, 0.0, 0.0, 0.0, 0.0, 9.901956609466809e-05, 0.0, 0.0, 0.0, 0.0, 0.0, 0.0, 0.0, 0.0, 0.0, 0.0, 0.0, 0.0, 0.0, 0.0, 0.0, 0.0, 0.0, 0.0, 0.0, 0.0, 0.0)",0.0627658082,0.286045661396,-0.299072385093,-0.0184984636551,0.000709208092927,0.117528171155,"(0.0, 0.0, 0.0, 0.0, 0.0, 0.0, 0.0, 0.0, 0.0, 0.0, 0.0, 0.0, 0.0, 0.0, 0.0, 0.0, 0.0, 0.0, 0.0, 0.0, 0.0, 0.0, 0.0, 0.0, 0.0, 0.0, 0.0, 0.0, 0.0, 0.0, 0.0, 0.0, 0.0, 0.0, 0.0, 0.0)"
1970/01/01/01:00:11.345000,15,11,329000000,map,map,0.427103957902,1.96110671236,-0.589647534605,0.00064275267242,8.99298090352e-06,-0.686919781546,-0.726733059154,"(0.314818803584624, 0.0, 0.0, 0.0, 0.0, 0.0, 0.0, 0.09667051424393316, 0.0, 0.0, 0.0, 0.0, 0.0, 0.0, 0.010099542330342643, 0.0, 0.0, 0.0, 0.0, 0.0, 0.0, 0.0, 0.0, 0.0, 0.0, 0.0, 0.0, 0.0, 0.0, 0.0, 0.0, 0.0, 0.0, 0.0, 0.0, 0.0)",0.073348610041,0.298010866949,-0.251710308505,-0.000943469441007,-0.0057688029099,0.0915109697933,"(0.0, 0.0, 0.0, 0.0, 0.0, 0.0, 0.0, 0.0, 0.0, 0.0, 0.0, 0.0, 0.0, 0.0, 0.0, 0.0, 0.0, 0.0, 0.0, 0.0, 0.0, 0.0, 0.0, 0.0, 0.0, 0.0, 0.0, 0.0, 0.0, 0.0, 0.0, 0.0, 0.0, 0.0, 0.0, 0.0)"
1970/01/01/01:00:11.351000,16,11,348000000,map,map,0.438068364203,1.94960531026,-0.574278480741,0.000633471928146,5.24546958427e-05,-0.687575994807,-0.726112249246,"(0.32598370360270673, 0.0, 0.0, 0.0, 0.0, 0.0, 0.0, 0.10682103910040001, 0.0, 0.0, 0.0, 0.0, 0.0, 0.0, 0.010100085158339496, 0.0, 0.0, 0.0, 0.0, 0.0, 0.0, 0.0, 0.0, 0.0, 0.0, 0.0, 0.0, 0.0, 0.0, 0.0, 0.0, 0.0, 0.0, 0.0, 0.0, 0.0)",0.0821691666792,0.307699834589,-0.193665418608,0.00731072438186,-0.00149601504873,0.0905443174221,"(0.0, 0.0, 0.0, 0.0, 0.0, 0.0, 0.0, 0.0, 0.0, 0.0, 0.0, 0.0, 0.0, 0.0, 0.0, 0.0, 0.0, 0.0, 0.0, 0.0, 0.0, 0.0, 0.0, 0.0, 0.0, 0.0, 0.0, 0.0, 0.0, 0.0, 0.0, 0.0, 0.0, 0.0, 0.0, 0.0)"
1970/01/01/01:00:11.388000,17,11,368000000,map,map,0.445467246549,1.94180978874,-0.575637383777,0.000583157131523,6.51702230546e-05,-0.688206885714,-0.725514317175,"(0.3367845534364618, 0.0, 0.0, 0.0, 0.0, 0.0, 0.0, 0.11693072122756087, 0.0, 0.0, 0.0, 0.0, 0.0, 0.0, 0.010099548789915988, 0.0, 0.0, 0.0, 0.0, 0.0, 0.0, 0.0, 0.0, 0.0, 0.0, 0.0, 0.0, 0.0, 0.0, 0.0, 0.0, 0.0, 0.0, 0.0, 0.0, 0.0)",0.090954738785,0.31692985113,-0.110588596275,0.00628027589274,0.0046276355926,0.087257627441,"(0.0, 0.0, 0.0, 0.0, 0.0, 0.0, 0.0, 0.0, 0.0, 0.0, 0.0, 0.0, 0.0, 0.0, 0.0, 0.0, 0.0, 0.0, 0.0, 0.0, 0.0, 0.0, 0.0, 0.0, 0.0, 0.0, 0.0, 0.0, 0.0, 0.0, 0.0, 0.0, 0.0, 0.0, 0.0, 0.0)"
1970/01/01/01:00:11.423000,18,11,388000000,map,map,0.45419113157,1.93259582683,-0.573550687252,0.000600096624948,0.000127833037895,-0.688772948182,-0.72497683027,"(0.3477358490362293, 0.0, 0.0, 0.0, 0.0, 0.0, 0.0, 0.12706743504148252, 0.0, 0.0, 0.0, 0.0, 0.0, 0.0, 9.950498799310046e-05, 0.0, 0.0, 0.0, 0.0, 0.0, 0.0, 0.0, 0.0, 0.0, 0.0, 0.0, 0.0, 0.0, 0.0, 0.0, 0.0, 0.0, 0.0, 0.0, 0.0, 0.0)",0.0990919736407,0.325236866017,-0.0399364628484,0.00257819936751,-0.00612315326544,0.0774845137789,"(0.0, 0.0, 0.0, 0.0, 0.0, 0.0, 0.0, 0.0, 0.0, 0.0, 0.0, 0.0, 0.0, 0.0, 0.0, 0.0, 0.0, 0.0, 0.0, 0.0, 0.0, 0.0, 0.0, 0.0, 0.0, 0.0, 0.0, 0.0, 0.0, 0.0, 0.0, 0.0, 0.0, 0.0, 0.0, 0.0)"
1970/01/01/01:00:11.423000,19,11,408000000,map,map,0.454924600737,1.95791420823,-0.561611923737,0.00060993811987,8.86360160304e-05,-0.689349305019,-0.724428880409,"(0.21907796420025802, 0.0, 0.0, 0.0, 0.0, 0.0, 0.0, 0.03810546650864715, 0.0, 0.0, 0.0, 0.0, 0.0, 0.0, 9.900963988060011e-05, 0.0, 0.0, 0.0, 0.0, 0.0, 0.0, 0.0, 0.0, 0.0, 0.0, 0.0, 0.0, 0.0, 0.0, 0.0, 0.0, 0.0, 0.0, 0.0, 0.0, 0.0)",0.106691676621,0.332713179415,0.0237493579767,-0.00228775348169,0.00284911266765,0.0733111771165,"(0.0, 0.0, 0.0, 0.0, 0.0, 0.0, 0.0, 0.0, 0.0, 0.0, 0.0, 0.0, 0.0, 0.0, 0.0, 0.0, 0.0, 0.0, 0.0, 0.0, 0.0, 0.0, 0.0, 0.0, 0.0, 0.0, 0.0, 0.0, 0.0, 0.0, 0.0, 0.0, 0.0, 0.0, 0.0, 0.0)"
1970/01/01/01:00:11.465000,20,11,428000000,map,map,0.463685778641,1.94874242565,-0.580640264786,0.000615666777966,0.000116479051453,-0.689802594374,-0.723997254534,"(0.22967365347452312, 0.0, 0.0, 0.0, 0.0, 0.0, 0.0, 0.04815352616800642, 0.0, 0.0, 0.0, 0.0, 0.0, 0.0, 9.901959419879688e-05, 0.0, 0.0, 0.0, 0.0, 0.0, 0.0, 0.0, 0.0, 0.0, 0.0, 0.0, 0.0, 0.0, 0.0, 0.0, 0.0, 0.0, 0.0, 0.0, 0.0, 0.0)",0.11348147449,0.339441861474,0.0959271692571,-0.000361377615451,-0.00203824251703,0.0640148169439,"(0.0, 0.0, 0.0, 0.0, 0.0, 0.0, 0.0, 0.0, 0.0, 0.0, 0.0, 0.0, 0.0, 0.0, 0.0, 0.0, 0.0, 0.0, 0.0, 0.0, 0.0, 0.0, 0.0, 0.0, 0.0, 0.0, 0.0, 0.0, 0.0, 0.0, 0.0, 0.0, 0.0, 0.0, 0.0, 0.0)"
1970/01/01/01:00:11.465000,21,11,448000000,map,map,0.473362588146,1.93871917177,-0.588203186276,0.000649114870912,9.88747161888e-05,-0.690243838951,-0.723576493325,"(0.24033998483604435, 0.0, 0.0, 0.0, 0.0, 0.0, 0.0, 0.058216208298495664, 0.0, 0.0, 0.0, 0.0, 0.0, 0.0, 9.901961684389298e-05, 0.0, 0.0, 0.0, 0.0, 0.0, 0.0, 0.0, 0.0, 0.0, 0.0, 0.0, 0.0, 0.0, 0.0, 0.0, 0.0, 0.0, 0.0, 0.0, 0.0, 0.0)",0.119857386348,0.345497675326,0.121163871267,-0.00562787974859,-0.000584234080677,0.0652207623954,"(0.0, 0.0, 0.0, 0.0, 0.0, 0.0, 0.0, 0.0, 0.0, 0.0, 0.0, 0.0, 0.0, 0.0, 0.0, 0.0, 0.0, 0.0, 0.0, 0.0, 0.0, 0.0, 0.0, 0.0, 0.0, 0.0, 0.0, 0.0, 0.0, 0.0, 0.0, 0.0, 0.0, 0.0, 0.0, 0.0)"
1970/01/01/01:00:11.506000,22,11,468000000,map,map,0.481280905378,1.93053764372,-0.569220927066,0.000653866825184,0.000112802294568,-0.690719800677,-0.723122279373,"(0.2508938601421199, 0.0, 0.0, 0.0, 0.0, 0.0, 0.0, 0.06827519284136233, 0.0, 0.0, 0.0, 0.0, 0.0, 0.0, 9.90195863012721e-05, 0.0, 0.0, 0.0, 0.0, 0.0, 0.0, 0.0, 0.0, 0.0, 0.0, 0.0, 0.0, 0.0, 0.0, 0.0, 0.0, 0.0, 0.0, 0.0, 0.0, 0.0)",0.12589199422,0.350947907794,0.125550791418,-0.00010536957274,0.00400236109927,0.0655346764679,"(0.0, 0.0, 0.0, 0.0, 0.0, 0.0, 0.0, 0.0, 0.0, 0.0, 0.0, 0.0, 0.0, 0.0, 0.0, 0.0, 0.0, 0.0, 0.0, 0.0, 0.0, 0.0, 0.0, 0.0, 0.0, 0.0, 0.0, 0.0, 0.0, 0.0, 0.0, 0.0, 0.0, 0.0, 0.0, 0.0)"
1970/01/01/01:00:11.506000,23,11,488000000,map,map,0.490114238673,1.92143677222,-0.569435660241,0.000736564066261,0.000147711800674,-0.691261346851,-0.722604504022,"(0.2615185371112403, 0.0, 0.0, 0.0, 0.0, 0.0, 0.0, 0.0783489399153777, 0.0, 0.0, 0.0, 0.0, 0.0, 0.0, 9.901960672614595e-05, 0.0, 0.0, 0.0, 0.0, 0.0, 0.0, 0.0, 0.0, 0.0, 0.0, 0.0, 0.0, 0.0, 0.0, 0.0, 0.0, 0.0, 0.0, 0.0, 0.0, 0.0)",0.131543988086,0.355853117014,0.156658630511,0.000978271775759,-0.0153764117614,0.0664949732396,"(0.0, 0.0, 0.0, 0.0, 0.0, 0.0, 0.0, 0.0, 0.0, 0.0, 0.0, 0.0, 0.0, 0.0, 0.0, 0.0, 0.0, 0.0, 0.0, 0.0, 0.0, 0.0, 0.0, 0.0, 0.0, 0.0, 0.0, 0.0, 0.0, 0.0, 0.0, 0.0, 0.0, 0.0, 0.0, 0.0)"
1970/01/01/01:00:11.547000,24,11,508000000,map,map,0.498981275446,1.9123779054,-0.554925249941,0.000721714340356,0.000175325024643,-0.691564527571,-0.722314304531,"(0.27215303930390783, 0.0, 0.0, 0.0, 0.0, 0.0, 0.0, 0.08843140561365857, 0.0, 0.0, 0.0, 0.0, 0.0, 0.0, 9.901961080875553e-05, 0.0, 0.0, 0.0, 0.0, 0.0, 0.0, 0.0, 0.0, 0.0, 0.0, 0.0, 0.0, 0.0, 0.0, 0.0, 0.0, 0.0, 0.0, 0.0, 0.0, 0.0)",0.136883402301,0.360267805313,0.17700198678,0.00176840559912,-0.00476914697129,0.050231990509,"(0.0, 0.0, 0.0, 0.0, 0.0, 0.0, 0.0, 0.0, 0.0, 0.0, 0.0, 0.0, 0.0, 0.0, 0.0, 0.0, 0.0, 0.0, 0.0, 0.0, 0.0, 0.0, 0.0, 0.0, 0.0, 0.0, 0.0, 0.0, 0.0, 0.0, 0.0, 0.0, 0.0, 0.0, 0.0, 0.0)"
1970/01/01/01:00:11.547000,25,11,528000000,map,map,0.507856327591,1.90335353074,-0.55414295246,0.000795720255074,0.00016774929326,-0.691979143242,-0.721917053361,"(0.2827974467201225, 0.0, 0.0, 0.0, 0.0, 0.0, 0.0, 0.09852266993620495, 0.0, 0.0, 0.0, 0.0, 0.0, 0.0, 9.901961472193166e-05, 0.0, 0.0, 0.0, 0.0, 0.0, 0.0, 0.0, 0.0, 0.0, 0.0, 0.0, 0.0, 0.0, 0.0, 0.0, 0.0, 0.0, 0.0, 0.0, 0.0, 0.0)",0.141938321375,0.364241024782,0.212238734612,-0.00433108179909,-0.00115145200699,0.0549454575364,"(0.0, 0.0, 0.0, 0.0, 0.0, 0.0, 0.0, 0.0, 0.0, 0.0, 0.0, 0.0, 0.0, 0.0, 0.0, 0.0, 0.0, 0.0, 0.0, 0.0, 0.0, 0.0, 0.0, 0.0, 0.0, 0.0, 0.0, 0.0, 0.0, 0.0, 0.0, 0.0, 0.0, 0.0, 0.0, 0.0)"
1970/01/01/01:00:11.589000,26,11,548000000,map,map,0.515993166921,1.96825089717,-0.549847425034,0.000759252015276,0.000134172434283,-0.69232101477,-0.721589258881,"(0.1943431805608028, 0.0, 0.0, 0.0, 0.0, 0.0, 0.0, 0.031718376662774356, 0.0, 0.0, 0.0, 0.0, 0.0, 0.0, 9.900920591728423e-05, 0.0, 0.0, 0.0, 0.0, 0.0, 0.0, 0.0, 0.0, 0.0, 0.0, 0.0, 0.0, 0.0, 0.0, 0.0, 0.0, 0.0, 0.0, 0.0, 0.0, 0.0)",0.146733243906,0.367816922303,0.235831895788,0.00503498852324,0.00403910233166,0.0464695909159,"(0.0, 0.0, 0.0, 0.0, 0.0, 0.0, 0.0, 0.0, 0.0, 0.0, 0.0, 0.0, 0.0, 0.0, 0.0, 0.0, 0.0, 0.0, 0.0, 0.0, 0.0, 0.0, 0.0, 0.0, 0.0, 0.0, 0.0, 0.0, 0.0, 0.0, 0.0, 0.0, 0.0, 0.0, 0.0, 0.0)"
1970/01/01/01:00:11.589000,27,11,568000000,map,map,0.525347315359,1.95880887026,-0.553360811827,0.000749393933263,8.00773658095e-05,-0.692647259036,-0.721276080138,"(0.20480773880054998, 0.0, 0.0, 0.0, 0.0, 0.0, 0.0, 0.04175714883058455, 0.0, 0.0, 0.0, 0.0, 0.0, 0.0, 9.901963249442264e-05, 0.0, 0.0, 0.0, 0.0, 0.0, 0.0, 0.0, 0.0, 0.0, 0.0, 0.0, 0.0, 0.0, 0.0, 0.0, 0.0, 0.0, 0.0, 0.0, 0.0, 0.0)",0.1512605971,0.371035230073,0.254791012617,-0.0028592337886,0.00176000337653,0.0429195810696,"(0.0, 0.0, 0.0, 0.0, 0.0, 0.0, 0.0, 0.0, 0.0, 0.0, 0.0, 0.0, 0.0, 0.0, 0.0, 0.0, 0.0, 0.0, 0.0, 0.0, 0.0, 0.0, 0.0, 0.0, 0.0, 0.0, 0.0, 0.0, 0.0, 0.0, 0.0, 0.0, 0.0, 0.0, 0.0, 0.0)"
1970/01/01/01:00:11.590000,28,11,588000000,map,map,0.534204212844,1.94982496545,-0.550496480203,0.000707906473021,-5.58886761794e-05,-0.69290762251,-0.721026000495,"(0.215260315160155, 0.0, 0.0, 0.0, 0.0, 0.0, 0.0, 0.05180332265530176, 0.0, 0.0, 0.0, 0.0, 0.0, 0.0, 9.901962655603201e-05, 0.0, 0.0, 0.0, 0.0, 0.0, 0.0, 0.0, 0.0, 0.0, 0.0, 0.0, 0.0, 0.0, 0.0, 0.0, 0.0, 0.0, 0.0, 0.0, 0.0, 0.0)",0.155591994317,0.373931707066,0.256241598232,-0.00758367423259,0.0131092765618,0.0336477503124,"(0.0, 0.0, 0.0, 0.0, 0.0, 0.0, 0.0, 0.0, 0.0, 0.0, 0.0, 0.0, 0.0, 0.0, 0.0, 0.0, 0.0, 0.0, 0.0, 0.0, 0.0, 0.0, 0.0, 0.0, 0.0, 0.0, 0.0, 0.0, 0.0, 0.0, 0.0, 0.0, 0.0, 0.0, 0.0, 0.0)"
1970/01/01/01:00:11.632000,29,11,608000000,map,map,0.543067570551,1.94083438902,-0.554057469905,0.000650860096176,-1.00046699037e-05,-0.693088863178,-0.720851924791,"(0.22572286507390077, 0.0, 0.0, 0.0, 0.0, 0.0, 0.0, 0.06185858114779794, 0.0, 0.0, 0.0, 0.0, 0.0, 0.0, 9.901963036032192e-05, 0.0, 0.0, 0.0, 0.0, 0.0, 0.0, 0.0, 0.0, 0.0, 0.0, 0.0, 0.0, 0.0, 0.0, 0.0, 0.0, 0.0, 0.0, 0.0, 0.0, 0.0)",0.159723519234,0.376538536359,0.25368291901,0.0100513334718,-0.00020456040649,0.0254096162611,"(0.0, 0.0, 0.0, 0.0, 0.0, 0.0, 0.0, 0.0, 0.0, 0.0, 0.0, 0.0, 0.0, 0.0, 0.0, 0.0, 0.0, 0.0, 0.0, 0.0, 0.0, 0.0, 0.0, 0.0, 0.0, 0.0, 0.0, 0.0, 0.0, 0.0, 0.0, 0.0, 0.0, 0.0, 0.0, 0.0)"
1970/01/01/01:00:11.632000,30,11,630000000,map,map,0.551891469051,1.93191294265,-0.544059280352,0.000627088923764,-8.62035172539e-05,-0.69331711207,-0.72063235815,"(0.23619546854178222, 0.0, 0.0, 0.0, 0.0, 0.0, 0.0, 0.07192300430614341, 0.0, 0.0, 0.0, 0.0, 0.0, 0.0, 9.901963426638607e-05, 0.0, 0.0, 0.0, 0.0, 0.0, 0.0, 0.0, 0.0, 0.0, 0.0, 0.0, 0.0, 0.0, 0.0, 0.0, 0.0, 0.0, 0.0, 0.0, 0.0, 0.0)",0.164066795685,0.37911929736,0.235507274906,-0.00546840423648,0.00968326722677,0.0311971779495,"(0.0, 0.0, 0.0, 0.0, 0.0, 0.0, 0.0, 0.0, 0.0, 0.0, 0.0, 0.0, 0.0, 0.0, 0.0, 0.0, 0.0, 0.0, 0.0, 0.0, 0.0, 0.0, 0.0, 0.0, 0.0, 0.0, 0.0, 0.0, 0.0, 0.0, 0.0, 0.0, 0.0, 0.0, 0.0, 0.0)"
1970/01/01/01:00:11.650000,31,11,649000000,map,map,0.561563776913,1.92216969289,-0.525155698207,0.000614554064122,-6.30320525141e-05,-0.693612174254,-0.72034833844,"(0.24672703881147848, 0.0, 0.0, 0.0, 0.0, 0.0, 0.0, 0.08200454956937919, 0.0, 0.0, 0.0, 0.0, 0.0, 0.0, 9.901966407000838e-05, 0.0, 0.0, 0.0, 0.0, 0.0, 0.0, 0.0, 0.0, 0.0, 0.0, 0.0, 0.0, 0.0, 0.0, 0.0, 0.0, 0.0, 0.0, 0.0, 0.0, 0.0)",0.167606975184,0.381102964111,0.230257345218,0.0050260897506,-0.00293560343895,0.0414879239988,"(0.0, 0.0, 0.0, 0.0, 0.0, 0.0, 0.0, 0.0, 0.0, 0.0, 0.0, 0.0, 0.0, 0.0, 0.0, 0.0, 0.0, 0.0, 0.0, 0.0, 0.0, 0.0, 0.0, 0.0, 0.0, 0.0, 0.0, 0.0, 0.0, 0.0, 0.0, 0.0, 0.0, 0.0, 0.0, 0.0)"
1970/01/01/01:00:11.669000,32,11,668000000,map,map,0.569477041282,1.91420557321,-0.540891501581,0.000619732755235,-8.8030875366e-05,-0.693883750107,-0.720086877831,"(0.2571711485399521, 0.0, 0.0, 0.0, 0.0, 0.0, 0.0, 0.09207965702038183, 0.0, 0.0, 0.0, 0.0, 0.0, 0.0, 9.901961810354268e-05, 0.0, 0.0, 0.0, 0.0, 0.0, 0.0, 0.0, 0.0, 0.0, 0.0, 0.0, 0.0, 0.0, 0.0, 0.0, 0.0, 0.0, 0.0, 0.0, 0.0, 0.0)",0.171059929103,0.38289818252,0.248850730047,-0.00321083150062,0.00420665535134,0.0307269940491,"(0.0, 0.0, 0.0, 0.0, 0.0, 0.0, 0.0, 0.0, 0.0, 0.0, 0.0, 0.0, 0.0, 0.0, 0.0, 0.0, 0.0, 0.0, 0.0, 0.0, 0.0, 0.0, 0.0, 0.0, 0.0, 0.0, 0.0, 0.0, 0.0, 0.0, 0.0, 0.0, 0.0, 0.0, 0.0, 0.0)"
1970/01/01/01:00:11.709000,33,11,688000000,map,map,0.726867799131,1.90213762061,-0.544615996171,0.00061948812653,-3.9934097805e-05,-0.694043884424,-0.719932391192,"(0.1812812802532398, 0.0, 0.0, 0.0, 0.0, 0.0, 0.0, 0.028549420780744593, 0.0, 0.0, 0.0, 0.0, 0.0, 0.0, 9.900868705787955e-05, 0.0, 0.0, 0.0, 0.0, 0.0, 0.0, 0.0, 0.0, 0.0, 0.0, 0.0, 0.0, 0.0, 0.0, 0.0, 0.0, 0.0, 0.0, 0.0, 0.0, 0.0)",0.174538471321,0.384608364268,0.231186215557,0.00527058925903,-0.00528925239871,0.02522301721,"(0.0, 0.0, 0.0, 0.0, 0.0, 0.0, 0.0, 0.0, 0.0, 0.0, 0.0, 0.0, 0.0, 0.0, 0.0, 0.0, 0.0, 0.0, 0.0, 0.0, 0.0, 0.0, 0.0, 0.0, 0.0, 0.0, 0.0, 0.0, 0.0, 0.0, 0.0, 0.0, 0.0, 0.0, 0.0, 0.0)"
1970/01/01/01:00:11.709000,34,11,708000000,map,map,0.73584998611,1.89330340446,-0.548170162711,0.000616127491588,-1.85705435347e-05,-0.694208500794,-0.719773843968,"(0.1916311440650051, 0.0, 0.0, 0.0, 0.0, 0.0, 0.0, 0.03858228157112438, 0.0, 0.0, 0.0, 0.0, 0.0, 0.0, 9.901964882856775e-05, 0.0, 0.0, 0.0, 0.0, 0.0, 0.0, 0.0, 0.0, 0.0, 0.0, 0.0, 0.0, 0.0, 0.0, 0.0, 0.0, 0.0, 0.0, 0.0, 0.0, 0.0)",0.183827941687,0.386147527841,0.202552088648,0.00328356761521,-0.00369634915265,0.0195628556362,"(0.0, 0.0, 0.0, 0.0, 0.0, 0.0, 0.0, 0.0, 0.0, 0.0, 0.0, 0.0, 0.0, 0.0, 0.0, 0.0, 0.0, 0.0, 0.0, 0.0, 0.0, 0.0, 0.0, 0.0, 0.0, 0.0, 0.0, 0.0, 0.0, 0.0, 0.0, 0.0, 0.0, 0.0, 0.0, 0.0)"
1970/01/01/01:00:11.753000,35,11,729000000,map,map,0.74482238114,1.88444937267,-0.528369112226,0.000564850149848,-5.33985135995e-05,-0.694401172478,-0.719588000074,"(0.2019913048194862, 0.0, 0.0, 0.0, 0.0, 0.0, 0.0, 0.048624697092364055, 0.0, 0.0, 0.0, 0.0, 0.0, 0.0, 9.901965378626998e-05, 0.0, 0.0, 0.0, 0.0, 0.0, 0.0, 0.0, 0.0, 0.0, 0.0, 0.0, 0.0, 0.0, 0.0, 0.0, 0.0, 0.0, 0.0, 0.0, 0.0, 0.0)",0.192837130721,0.387602037418,0.164188113054,0.000571966940357,0.00561074793231,0.0198548995922,"(0.0, 0.0, 0.0, 0.0, 0.0, 0.0, 0.0, 0.0, 0.0, 0.0, 0.0, 0.0, 0.0, 0.0, 0.0, 0.0, 0.0, 0.0, 0.0, 0.0, 0.0, 0.0, 0.0, 0.0, 0.0, 0.0, 0.0, 0.0, 0.0, 0.0, 0.0, 0.0, 0.0, 0.0, 0.0, 0.0)"
1970/01/01/01:00:11.753000,36,11,749000000,map,map,0.754765978647,1.87478711393,-0.519319347767,0.000551429486104,-0.000164440992026,-0.694629269905,-0.719367826254,"(0.21239946918849076, 0.0, 0.0, 0.0, 0.0, 0.0, 0.0, 0.05868245846996914, 0.0, 0.0, 0.0, 0.0, 0.0, 0.0, 0.010100830267258241, 0.0, 0.0, 0.0, 0.0, 0.0, 0.0, 0.0, 0.0, 0.0, 0.0, 0.0, 0.0, 0.0, 0.0, 0.0, 0.0, 0.0, 0.0, 0.0, 0.0, 0.0)",0.200720871949,0.388841833676,0.142282202829,-0.00574438845837,0.0102720627194,0.0376519288474,"(0.0, 0.0, 0.0, 0.0, 0.0, 0.0, 0.0, 0.0, 0.0, 0.0, 0.0, 0.0, 0.0, 0.0, 0.0, 0.0, 0.0, 0.0, 0.0, 0.0, 0.0, 0.0, 0.0, 0.0, 0.0, 0.0, 0.0, 0.0, 0.0, 0.0, 0.0, 0.0, 0.0, 0.0, 0.0, 0.0)"
1970/01/01/01:00:11.800000,37,11,768000000,map,map,0.762949900193,1.8668995334,-0.524076202555,0.000496997314871,-0.000192408152799,-0.694831807903,-0.719172116046,"(0.2227428294792912, 0.0, 0.0, 0.0, 0.0, 0.0, 0.0, 0.06873843716738234, 0.0, 0.0, 0.0, 0.0, 0.0, 0.0, 0.01010027187790917, 0.0, 0.0, 0.0, 0.0, 0.0, 0.0, 0.0, 0.0, 0.0, 0.0, 0.0, 0.0, 0.0, 0.0, 0.0, 0.0, 0.0, 0.0, 0.0, 0.0, 0.0)",0.207692771404,0.389901859477,0.152769527301,0.00408660894109,0.0079911975347,0.0148767151292,"(0.0, 0.0, 0.0, 0.0, 0.0, 0.0, 0.0, 0.0, 0.0, 0.0, 0.0, 0.0, 0.0, 0.0, 0.0, 0.0, 0.0, 0.0, 0.0, 0.0, 0.0, 0.0, 0.0, 0.0, 0.0, 0.0, 0.0, 0.0, 0.0, 0.0, 0.0, 0.0, 0.0, 0.0, 0.0, 0.0)"
1970/01/01/01:00:11.800000,38,11,788000000,map,map,0.772078577993,1.85811656487,-0.543547284102,0.000551573264892,-0.000210592809832,-0.694970447327,-0.719038028481,"(0.23313435298461252, 0.0, 0.0, 0.0, 0.0, 0.0, 0.0, 0.07880992131899785, 0.0, 0.0, 0.0, 0.0, 0.0, 0.0, 0.010100596779495595, 0.0, 0.0, 0.0, 0.0, 0.0, 0.0, 0.0, 0.0, 0.0, 0.0, 0.0, 0.0, 0.0, 0.0, 0.0, 0.0, 0.0, 0.0, 0.0, 0.0, 0.0)",0.214509231989,0.390911673529,0.149277656922,2.73373451683e-05,-0.00497562688893,0.0198250766867,"(0.0, 0.0, 0.0, 0.0, 0.0, 0.0, 0.0, 0.0, 0.0, 0.0, 0.0, 0.0, 0.0, 0.0, 0.0, 0.0, 0.0, 0.0, 0.0, 0.0, 0.0, 0.0, 0.0, 0.0, 0.0, 0.0, 0.0, 0.0, 0.0, 0.0, 0.0, 0.0, 0.0, 0.0, 0.0, 0.0)"
1970/01/01/01:00:11.843000,39,11,808000000,map,map,0.781175019282,1.84930132334,-0.518674113757,0.000474440467663,-0.000238738786018,-0.69524419901,-0.718773464811,"(0.24353649340687966, 0.0, 0.0, 0.0, 0.0, 0.0, 0.0, 0.08889125768001753, 0.0, 0.0, 0.0, 0.0, 0.0, 0.0, 0.010100640262833215, 0.0, 0.0, 0.0, 0.0, 0.0, 0.0, 0.0, 0.0, 0.0, 0.0, 0.0, 0.0, 0.0, 0.0, 0.0, 0.0, 0.0, 0.0, 0.0, 0.0, 0.0)",0.220843039411,0.391820506176,0.108940040466,0.0039388314537,0.0113531691661,0.0305081513823,"(0.0, 0.0, 0.0, 0.0, 0.0, 0.0, 0.0, 0.0, 0.0, 0.0, 0.0, 0.0, 0.0, 0.0, 0.0, 0.0, 0.0, 0.0, 0.0, 0.0, 0.0, 0.0, 0.0, 0.0, 0.0, 0.0, 0.0, 0.0, 0.0, 0.0, 0.0, 0.0, 0.0, 0.0, 0.0, 0.0)"
1970/01/01/01:00:11.843000,40,11,828000000,map,map,0.742053553043,1.91219571921,-0.52132607959,0.00045498821535,-0.000258205690946,-0.69536274229,-0.718658883335,"(0.17565371769920823, 0.0, 0.0, 0.0, 0.0, 0.0, 0.0, 0.023888198385146303, 0.0, 0.0, 0.0, 0.0, 0.0, 0.0, 9.949460169499425e-05, 0.0, 0.0, 0.0, 0.0, 0.0, 0.0, 0.0, 0.0, 0.0, 0.0, 0.0, 0.0, 0.0, 0.0, 0.0, 0.0, 0.0, 0.0, 0.0, 0.0, 0.0)",0.226735716356,0.392638455559,0.113149309311,0.000903035874455,0.00253502837242,0.0157500556177,"(0.0, 0.0, 0.0, 0.0, 0.0, 0.0, 0.0, 0.0, 0.0, 0.0, 0.0, 0.0, 0.0, 0.0, 0.0, 0.0, 0.0, 0.0, 0.0, 0.0, 0.0, 0.0, 0.0, 0.0, 0.0, 0.0, 0.0, 0.0, 0.0, 0.0, 0.0, 0.0, 0.0, 0.0, 0.0, 0.0)"
1970/01/01/01:00:11.886000,41,11,848000000,map,map,0.752070508869,1.90245304321,-0.554084670751,0.000406510330879,-0.000282353648569,-0.695568534815,-0.718459581425,"(0.1859764249959417, 0.0, 0.0, 0.0, 0.0, 0.0, 0.0, 0.03391971440732946, 0.0, 0.0, 0.0, 0.0, 0.0, 0.0, 9.901975678467132e-05, 0.0, 0.0, 0.0, 0.0, 0.0, 0.0, 0.0, 0.0, 0.0, 0.0, 0.0, 0.0, 0.0, 0.0, 0.0, 0.0, 0.0, 0.0, 0.0, 0.0, 0.0)",0.230297592526,0.393374610003,0.108465446649,-0.00134158333403,0.000970344199534,0.024135500814,"(0.0, 0.0, 0.0, 0.0, 0.0, 0.0, 0.0, 0.0, 0.0, 0.0, 0.0, 0.0, 0.0, 0.0, 0.0, 0.0, 0.0, 0.0, 0.0, 0.0, 0.0, 0.0, 0.0, 0.0, 0.0, 0.0, 0.0, 0.0, 0.0, 0.0, 0.0, 0.0, 0.0, 0.0, 0.0, 0.0)"
1970/01/01/01:00:11.886000,42,11,869000000,map,map,0.760256752853,1.89457046762,-0.529309064885,0.000386167141161,-0.000352323188365,-0.69580517093,-0.718230363155,"(0.1962501279124346, 0.0, 0.0, 0.0, 0.0, 0.0, 0.0, 0.043954566541104655, 0.0, 0.0, 0.0, 0.0, 0.0, 0.0, 9.901964982515505e-05, 0.0, 0.0, 0.0, 0.0, 0.0, 0.0, 0.0, 0.0, 0.0, 0.0, 0.0, 0.0, 0.0, 0.0, 0.0, 0.0, 0.0, 0.0, 0.0, 0.0, 0.0)",0.233893819649,0.394070275952,0.0432432416568,-0.000354913086618,0.00748695951348,0.0237274273233,"(0.0, 0.0, 0.0, 0.0, 0.0, 0.0, 0.0, 0.0, 0.0, 0.0, 0.0, 0.0, 0.0, 0.0, 0.0, 0.0, 0.0, 0.0, 0.0, 0.0, 0.0, 0.0, 0.0, 0.0, 0.0, 0.0, 0.0, 0.0, 0.0, 0.0, 0.0, 0.0, 0.0, 0.0, 0.0, 0.0)"
1970/01/01/01:00:11.930000,43,11,889000000,map,map,0.769432829593,1.88580801347,-0.52940271699,0.000327565059673,-0.000424201280181,-0.695968406991,-0.718072184716,"(0.2065645301579211, 0.0, 0.0, 0.0, 0.0, 0.0, 0.0, 0.054002922892826856, 0.0, 0.0, 0.0, 0.0, 0.0, 0.0, 9.901968463570372e-05, 0.0, 0.0, 0.0, 0.0, 0.0, 0.0, 0.0, 0.0, 0.0, 0.0, 0.0, 0.0, 0.0, 0.0, 0.0, 0.0, 0.0, 0.0, 0.0, 0.0, 0.0)",0.237093174931,0.394663248357,0.0316676827583,0.000273077552727,0.00654806287137,0.0166326428422,"(0.0, 0.0, 0.0, 0.0, 0.0, 0.0, 0.0, 0.0, 0.0, 0.0, 0.0, 0.0, 0.0, 0.0, 0.0, 0.0, 0.0, 0.0, 0.0, 0.0, 0.0, 0.0, 0.0, 0.0, 0.0, 0.0, 0.0, 0.0, 0.0, 0.0, 0.0, 0.0, 0.0, 0.0, 0.0, 0.0)"
1970/01/01/01:00:11.930000,44,11,908000000,map,map,0.778641758294,1.87704776502,-0.522476311728,0.000298353260069,-0.000464612534641,-0.696090807366,-0.717953661851,"(0.21688983965996672, 0.0, 0.0, 0.0, 0.0, 0.0, 0.0, 0.0640614958299918, 0.0, 0.0, 0.0, 0.0, 0.0, 0.0, 9.901968884516252e-05, 0.0, 0.0, 0.0, 0.0, 0.0, 0.0, 0.0, 0.0, 0.0, 0.0, 0.0, 0.0, 0.0, 0.0, 0.0, 0.0, 0.0, 0.0, 0.0, 0.0, 0.0)",0.239999555311,0.395170239763,0.0213526061771,-0.00161217639053,0.00579159087857,0.0166370367792,"(0.0, 0.0, 0.0, 0.0, 0.0, 0.0, 0.0, 0.0, 0.0, 0.0, 0.0, 0.0, 0.0, 0.0, 0.0, 0.0, 0.0, 0.0, 0.0, 0.0, 0.0, 0.0, 0.0, 0.0, 0.0, 0.0, 0.0, 0.0, 0.0, 0.0, 0.0, 0.0, 0.0, 0.0, 0.0, 0.0)"
1970/01/01/01:00:11.930000,45,11,929000000,map,map,0.787890516523,1.86823905752,-0.523512147556,0.000295090609347,-0.000405280035971,-0.696292840919,-0.717757781738,"(0.22722613641857153, 0.0, 0.0, 0.0, 0.0, 0.0, 0.0, 0.07413036535259934, 0.0, 0.0, 0.0, 0.0, 0.0, 0.0, 9.901969273748316e-05, 0.0, 0.0, 0.0, 0.0, 0.0, 0.0, 0.0, 0.0, 0.0, 0.0, 0.0, 0.0, 0.0, 0.0, 0.0, 0.0, 0.0, 0.0, 0.0, 0.0, 0.0)",0.243104275179,0.395677364588,0.0231861568996,0.002474598054,-0.00558810193802,0.0197278790507,"(0.0, 0.0, 0.0, 0.0, 0.0, 0.0, 0.0, 0.0, 0.0, 0.0, 0.0, 0.0, 0.0, 0.0, 0.0, 0.0, 0.0, 0.0, 0.0, 0.0, 0.0, 0.0, 0.0, 0.0, 0.0, 0.0, 0.0, 0.0, 0.0, 0.0, 0.0, 0.0, 0.0, 0.0, 0.0, 0.0)"
1970/01/01/01:00:11.974000,46,11,949000000,map,map,0.797052913053,1.85936475308,-0.519980547712,0.00031507465693,-0.00041673745506,-0.69636767199,-0.717685142303,"(0.23757350043373554, 0.0, 0.0, 0.0, 0.0, 0.0, 0.0, 0.08420961146064954, 0.0, 0.0, 0.0, 0.0, 0.0, 0.0, 9.901969662527195e-05, 0.0, 0.0, 0.0, 0.0, 0.0, 0.0, 0.0, 0.0, 0.0, 0.0, 0.0, 0.0, 0.0, 0.0, 0.0, 0.0, 0.0, 0.0, 0.0, 0.0, 0.0)",0.24591902996,0.396109628129,0.0220919512751,-0.0024169830766,-0.000937601798605,0.00857809484898,"(0.0, 0.0, 0.0, 0.0, 0.0, 0.0, 0.0, 0.0, 0.0, 0.0, 0.0, 0.0, 0.0, 0.0, 0.0, 0.0, 0.0, 0.0, 0.0, 0.0, 0.0, 0.0, 0.0, 0.0, 0.0, 0.0, 0.0, 0.0, 0.0, 0.0, 0.0, 0.0, 0.0, 0.0, 0.0, 0.0)"
1970/01/01/01:00:11.974000,47,11,968000000,map,map,0.82272074913,1.98132166943,-0.545180844646,0.000212370895438,-0.00033876936615,-0.696490230415,-0.7175662928,"(0.17389695007554223, 0.0, 0.0, 0.0, 0.0, 0.0, 0.0, 0.023414073131973915, 0.0, 0.0, 0.0, 0.0, 0.0, 0.0, 9.900953006849996e-05, 0.0, 0.0, 0.0, 0.0, 0.0, 0.0, 0.0, 0.0, 0.0, 0.0, 0.0, 0.0, 0.0, 0.0, 0.0, 0.0, 0.0, 0.0, 0.0, 0.0, 0.0)",0.248489057116,0.396479213457,0.0261178264515,0.0163405117209,0.00113316558039,0.010827870964,"(0.0, 0.0, 0.0, 0.0, 0.0, 0.0, 0.0, 0.0, 0.0, 0.0, 0.0, 0.0, 0.0, 0.0, 0.0, 0.0, 0.0, 0.0, 0.0, 0.0, 0.0, 0.0, 0.0, 0.0, 0.0, 0.0, 0.0, 0.0, 0.0, 0.0, 0.0, 0.0, 0.0, 0.0, 0.0, 0.0)"
1970/01/01/01:00:11.989000,48,11,989000000,map,map,0.831917644841,1.97256103801,-0.527178175969,0.000258899019981,-0.000360386851067,-0.69660096665,-0.717458675432,"(0.18415777049829485, 0.0, 0.0, 0.0, 0.0, 0.0, 0.0, 0.03344286189887767, 0.0, 0.0, 0.0, 0.0, 0.0, 0.0, 9.901970341861254e-05, 0.0, 0.0, 0.0, 0.0, 0.0, 0.0, 0.0, 0.0, 0.0, 0.0, 0.0, 0.0, 0.0, 0.0, 0.0, 0.0, 0.0, 0.0, 0.0, 0.0, 0.0)",0.251941566325,0.396848896044,-0.0151130328388,-0.00727051536499,-0.00391089629467,0.0163117056049,"(0.0, 0.0, 0.0, 0.0, 0.0, 0.0, 0.0, 0.0, 0.0, 0.0, 0.0, 0.0, 0.0, 0.0, 0.0, 0.0, 0.0, 0.0, 0.0, 0.0, 0.0, 0.0, 0.0, 0.0, 0.0, 0.0, 0.0, 0.0, 0.0, 0.0, 0.0, 0.0, 0.0, 0.0, 0.0, 0.0)"
1970/01/01/01:00:12.009000,49,12,8000000,map,map,0.841099727812,1.96383429773,-0.518467591121,0.000224659701243,-0.000472120230145,-0.696627288015,-0.71743311271,"(0.19442981810192128, 0.0, 0.0, 0.0, 0.0, 0.0, 0.0, 0.04348225028663757, 0.0, 0.0, 0.0, 0.0, 0.0, 0.0, 9.901970827952724e-05, 0.0, 0.0, 0.0, 0.0, 0.0, 0.0, 0.0, 0.0, 0.0, 0.0, 0.0, 0.0, 0.0, 0.0, 0.0, 0.0, 0.0, 0.0, 0.0, 0.0, 0.0)",0.254888464527,0.39714825092,-0.0169474726836,-0.00600237854177,0.010062685526,-0.00351346937254,"(0.0, 0.0, 0.0, 0.0, 0.0, 0.0, 0.0, 0.0, 0.0, 0.0, 0.0, 0.0, 0.0, 0.0, 0.0, 0.0, 0.0, 0.0, 0.0, 0.0, 0.0, 0.0, 0.0, 0.0, 0.0, 0.0, 0.0, 0.0, 0.0, 0.0, 0.0, 0.0, 0.0, 0.0, 0.0, 0.0)"
1970/01/01/01:00:12.054000,50,12,28000000,map,map,0.850266954874,1.95513532597,-0.537855770212,0.000197605571272,-0.000486683581798,-0.696711775983,-0.717350984966,"(0.2047131728440376, 0.0, 0.0, 0.0, 0.0, 0.0, 0.0, 0.053532299262701415, 0.0, 0.0, 0.0, 0.0, 0.0, 0.0, 9.901971216133034e-05, 0.0, 0.0, 0.0, 0.0, 0.0, 0.0, 0.0, 0.0, 0.0, 0.0, 0.0, 0.0, 0.0, 0.0, 0.0, 0.0, 0.0, 0.0, 0.0, 0.0, 0.0)",0.257871580544,0.397433425828,-0.00351535323902,0.00447308496742,0.0021620398756,0.012748245086,"(0.0, 0.0, 0.0, 0.0, 0.0, 0.0, 0.0, 0.0, 0.0, 0.0, 0.0, 0.0, 0.0, 0.0, 0.0, 0.0, 0.0, 0.0, 0.0, 0.0, 0.0, 0.0, 0.0, 0.0, 0.0, 0.0, 0.0, 0.0, 0.0, 0.0, 0.0, 0.0, 0.0, 0.0, 0.0, 0.0)"
1970/01/01/01:00:12.054000,51,12,48000000,map,map,0.860393742979,1.94554011562,-0.538608943387,0.000161929601676,-0.000465179160741,-0.696766584667,-0.717297777862,"(0.2150380174053167, 0.0, 0.0, 0.0, 0.0, 0.0, 0.0, 0.06359976071375176, 0.0, 0.0, 0.0, 0.0, 0.0, 0.0, 9.901975811704505e-05, 0.0, 0.0, 0.0, 0.0, 0.0, 0.0, 0.0, 0.0, 0.0, 0.0, 0.0, 0.0, 0.0, 0.0, 0.0, 0.0, 0.0, 0.0, 0.0, 0.0, 0.0)",0.260719163269,0.397690083245,-0.0245183737459,0.0023045420704,-0.00344540567918,0.00570605842246,"(0.0, 0.0, 0.0, 0.0, 0.0, 0.0, 0.0, 0.0, 0.0, 0.0, 0.0, 0.0, 0.0, 0.0, 0.0, 0.0, 0.0, 0.0, 0.0, 0.0, 0.0, 0.0, 0.0, 0.0, 0.0, 0.0, 0.0, 0.0, 0.0, 0.0, 0.0, 0.0, 0.0, 0.0, 0.0, 0.0)"
1970/01/01/01:00:12.096000,52,12,70000000,map,map,0.868645094328,1.9376431281,-0.560601099756,0.000107682090439,-0.000486243272766,-0.696840888902,-0.717225665263,"(0.22531411614372782, 0.0, 0.0, 0.0, 0.0, 0.0, 0.0, 0.07366469137425787, 0.0, 0.0, 0.0, 0.0, 0.0, 0.0, 9.901968142922398e-05, 0.0, 0.0, 0.0, 0.0, 0.0, 0.0, 0.0, 0.0, 0.0, 0.0, 0.0, 0.0, 0.0, 0.0, 0.0, 0.0, 0.0, 0.0, 0.0, 0.0, 0.0)",0.263756921853,0.397944174088,-0.0442529529946,0.00232792363095,0.0068058835656,0.0097099922811,"(0.0, 0.0, 0.0, 0.0, 0.0, 0.0, 0.0, 0.0, 0.0, 0.0, 0.0, 0.0, 0.0, 0.0, 0.0, 0.0, 0.0, 0.0, 0.0, 0.0, 0.0, 0.0, 0.0, 0.0, 0.0, 0.0, 0.0, 0.0, 0.0, 0.0, 0.0, 0.0, 0.0, 0.0, 0.0, 0.0)"
1970/01/01/01:00:12.096000,53,12,88000000,map,map,0.877837256332,1.92888815599,-0.533632924132,6.08292828736e-05,-0.000521201696382,-0.696902078224,-0.717166161816,"(0.23563186430130176, 0.0, 0.0, 0.0, 0.0, 0.0, 0.0, 0.08374719410975034, 0.0, 0.0, 0.0, 0.0, 0.0, 0.0, 9.901972339965254e-05, 0.0, 0.0, 0.0, 0.0, 0.0, 0.0, 0.0, 0.0, 0.0, 0.0, 0.0, 0.0, 0.0, 0.0, 0.0, 0.0, 0.0, 0.0, 0.0, 0.0, 0.0)",0.266059521493,0.39812919842,-0.0890263308798,-0.00224108619243,0.00718783725755,0.00607211509763,"(0.0, 0.0, 0.0, 0.0, 0.0, 0.0, 0.0, 0.0, 0.0, 0.0, 0.0, 0.0, 0.0, 0.0, 0.0, 0.0, 0.0, 0.0, 0.0, 0.0, 0.0, 0.0, 0.0, 0.0, 0.0, 0.0, 0.0, 0.0, 0.0, 0.0, 0.0, 0.0, 0.0, 0.0, 0.0, 0.0)"
1970/01/01/01:00:12.136000,54,12,108000000,map,map,0.824222106288,1.98744384187,-0.535102303774,0.000102798489003,-0.000450540693856,-0.69699261624,-0.717078236904,"(0.16753524742610307, 0.0, 0.0, 0.0, 0.0, 0.0, 0.0, 0.02420907634200168, 0.0, 0.0, 0.0, 0.0, 0.0, 0.0, 9.90081441508136e-05, 0.0, 0.0, 0.0, 0.0, 0.0, 0.0, 0.0, 0.0, 0.0, 0.0, 0.0, 0.0, 0.0, 0.0, 0.0, 0.0, 0.0, 0.0, 0.0, 0.0, 0.0)",0.26856548707,0.398316278578,-0.0835453049897,0.00210125029751,-0.00708442784004,0.0141188268371,"(0.0, 0.0, 0.0, 0.0, 0.0, 0.0, 0.0, 0.0, 0.0, 0.0, 0.0, 0.0, 0.0, 0.0, 0.0, 0.0, 0.0, 0.0, 0.0, 0.0, 0.0, 0.0, 0.0, 0.0, 0.0, 0.0, 0.0, 0.0, 0.0, 0.0, 0.0, 0.0, 0.0, 0.0, 0.0, 0.0)"
1970/01/01/01:00:12.136000,55,12,128000000,map,map,0.833396296311,1.97879901582,-0.529329975536,3.68471498444e-05,-0.000476189726512,-0.697065780535,-0.717007011364,"(0.17776931891830167, 0.0, 0.0, 0.0, 0.0, 0.0, 0.0, 0.03423998243837749, 0.0, 0.0, 0.0, 0.0, 0.0, 0.0, 0.010101275567083314, 0.0, 0.0, 0.0, 0.0, 0.0, 0.0, 0.0, 0.0, 0.0, 0.0, 0.0, 0.0, 0.0, 0.0, 0.0, 0.0, 0.0, 0.0, 0.0, 0.0, 0.0)",0.26846340247,0.39848465072,-0.0786419059851,0.00303381027042,0.00799502421246,0.0134062280821,"(0.0, 0.0, 0.0, 0.0, 0.0, 0.0, 0.0, 0.0, 0.0, 0.0, 0.0, 0.0, 0.0, 0.0, 0.0, 0.0, 0.0, 0.0, 0.0, 0.0, 0.0, 0.0, 0.0, 0.0, 0.0, 0.0, 0.0, 0.0, 0.0, 0.0, 0.0, 0.0, 0.0, 0.0, 0.0, 0.0)"
1970/01/01/01:00:12.177000,56,12,148000000,map,map,0.843435924525,1.96917643138,-0.550683755792,-4.16018206124e-05,-0.000481498027416,-0.69710328662,-0.716970516803,"(0.18804032929588432, 0.0, 0.0, 0.0, 0.0, 0.0, 0.0, 0.0442867800193672, 0.0, 0.0, 0.0, 0.0, 0.0, 0.0, 0.010101807223975892, 0.0, 0.0, 0.0, 0.0, 0.0, 0.0, 0.0, 0.0, 0.0, 0.0, 0.0, 0.0, 0.0, 0.0, 0.0, 0.0, 0.0, 0.0, 0.0, 0.0, 0.0)",0.268523641542,0.398636185648,-0.0623137962181,0.00484169757821,0.00575239469913,0.00410007003757,"(0.0, 0.0, 0.0, 0.0, 0.0, 0.0, 0.0, 0.0, 0.0, 0.0, 0.0, 0.0, 0.0, 0.0, 0.0, 0.0, 0.0, 0.0, 0.0, 0.0, 0.0, 0.0, 0.0, 0.0, 0.0, 0.0, 0.0, 0.0, 0.0, 0.0, 0.0, 0.0, 0.0, 0.0, 0.0, 0.0)"
1970/01/01/01:00:12.177000,57,12,168000000,map,map,0.851577556259,1.96135423397,-0.544297466077,1.68535945263e-06,-0.000618932870612,-0.697127517107,-0.716946876373,"(0.19827267649474145, 0.0, 0.0, 0.0, 0.0, 0.0, 0.0, 0.05433514823559626, 0.0, 0.0, 0.0, 0.0, 0.0, 0.0, 0.010100929589386819, 0.0, 0.0, 0.0, 0.0, 0.0, 0.0, 0.0, 0.0, 0.0, 0.0, 0.0, 0.0, 0.0, 0.0, 0.0, 0.0, 0.0, 0.0, 0.0, 0.0, 0.0)",0.268764671113,0.398772567083,-0.0822195452986,-0.00998106006423,0.00605065739055,0.00057883153447,"(0.0, 0.0, 0.0, 0.0, 0.0, 0.0, 0.0, 0.0, 0.0, 0.0, 0.0, 0.0, 0.0, 0.0, 0.0, 0.0, 0.0, 0.0, 0.0, 0.0, 0.0, 0.0, 0.0, 0.0, 0.0, 0.0, 0.0, 0.0, 0.0, 0.0, 0.0, 0.0, 0.0, 0.0, 0.0, 0.0)"
1970/01/01/01:00:12.225000,58,12,188000000,map,map,0.860631976362,1.95268026184,-0.544163993286,4.36950660697e-05,-0.000546913496561,-0.697142016281,-0.71693288296,"(0.2085421225171033, 0.0, 0.0, 0.0, 0.0, 0.0, 0.0, 0.06439959127328669, 0.0, 0.0, 0.0, 0.0, 0.0, 0.0, 0.010101403455386447, 0.0, 0.0, 0.0, 0.0, 0.0, 0.0, 0.0, 0.0, 0.0, 0.0, 0.0, 0.0, 0.0, 0.0, 0.0, 0.0, 0.0, 0.0, 0.0, 0.0, 0.0)",0.269092444083,0.398895310375,-0.0854232018303,0.00355420054149,-0.00777593158625,0.00424981949241,"(0.0, 0.0, 0.0, 0.0, 0.0, 0.0, 0.0, 0.0, 0.0, 0.0, 0.0, 0.0, 0.0, 0.0, 0.0, 0.0, 0.0, 0.0, 0.0, 0.0, 0.0, 0.0, 0.0, 0.0, 0.0, 0.0, 0.0, 0.0, 0.0, 0.0, 0.0, 0.0, 0.0, 0.0, 0.0, 0.0)"
1970/01/01/01:00:12.225000,59,12,208000000,map,map,0.86969711964,1.94403016844,-0.525534004486,6.79884231174e-05,-0.000485696742563,-0.697177810151,-0.716898100615,"(0.2188235227163497, 0.0, 0.0, 0.0, 0.0, 0.0, 0.0, 0.07447537596643203, 0.0, 0.0, 0.0, 0.0, 0.0, 0.0, 0.010101448162860864, 0.0, 0.0, 0.0, 0.0, 0.0, 0.0, 0.0, 0.0, 0.0, 0.0, 0.0, 0.0, 0.0, 0.0, 0.0, 0.0, 0.0, 0.0, 0.0, 0.0, 0.0)",0.269534604823,0.399005779338,-0.0850230208942,6.86253596043e-05,-0.0109521686974,0.0105211405142,"(0.0, 0.0, 0.0, 0.0, 0.0, 0.0, 0.0, 0.0, 0.0, 0.0, 0.0, 0.0, 0.0, 0.0, 0.0, 0.0, 0.0, 0.0, 0.0, 0.0, 0.0, 0.0, 0.0, 0.0, 0.0, 0.0, 0.0, 0.0, 0.0, 0.0, 0.0, 0.0, 0.0, 0.0, 0.0, 0.0)"
1970/01/01/01:00:12.269000,60,12,229000000,map,map,0.878736492078,1.93528165428,-0.540808955794,2.43995267702e-05,-0.0004234132082,-0.697212333688,-0.716864672896,"(0.2291169570924806, 0.0, 0.0, 0.0, 0.0, 0.0, 0.0, 0.08456258231503207, 0.0, 0.0, 0.0, 0.0, 0.0, 0.0, 0.010101488424387713, 0.0, 0.0, 0.0, 0.0, 0.0, 0.0, 0.0, 0.0, 0.0, 0.0, 0.0, 0.0, 0.0, 0.0, 0.0, 0.0, 0.0, 0.0, 0.0, 0.0, 0.0)",0.270107145087,0.399110172507,-0.0490945764433,0.00688079076607,-0.00167531025649,0.00455228477276,"(0.0, 0.0, 0.0, 0.0, 0.0, 0.0, 0.0, 0.0, 0.0, 0.0, 0.0, 0.0, 0.0, 0.0, 0.0, 0.0, 0.0, 0.0, 0.0, 0.0, 0.0, 0.0, 0.0, 0.0, 0.0, 0.0, 0.0, 0.0, 0.0, 0.0, 0.0, 0.0, 0.0, 0.0, 0.0, 0.0)"
1970/01/01/01:00:12.269000,61,12,248000000,map,map,0.88864043789,1.92572329092,-0.524556717284,3.14006780707e-05,-0.000387058793704,-0.69720431064,-0.716872443063,"(0.23945372898052616, 0.0, 0.0, 0.0, 0.0, 0.0, 0.0, 0.0946717959105423, 0.0, 0.0, 0.0, 0.0, 0.0, 0.0, 0.010102050213397527, 0.0, 0.0, 0.0, 0.0, 0.0, 0.0, 0.0, 0.0, 0.0, 0.0, 0.0, 0.0, 0.0, 0.0, 0.0, 0.0, 0.0, 0.0, 0.0, 0.0, 0.0)",0.27069917392,0.399194706119,-0.0447726171801,0.00235788829884,-0.00436467372705,0.00153863035473,"(0.0, 0.0, 0.0, 0.0, 0.0, 0.0, 0.0, 0.0, 0.0, 0.0, 0.0, 0.0, 0.0, 0.0, 0.0, 0.0, 0.0, 0.0, 0.0, 0.0, 0.0, 0.0, 0.0, 0.0, 0.0, 0.0, 0.0, 0.0, 0.0, 0.0, 0.0, 0.0, 0.0, 0.0, 0.0, 0.0)"
1970/01/01/01:00:12.316000,62,12,268000000,map,map,0.811214957497,1.87947174686,-0.542502000352,6.75045884095e-05,-0.000372344738257,-0.697220529933,-0.716856729532,"(0.17562436423810557, 0.0, 0.0, 0.0, 0.0, 0.0, 0.0, 0.034815676203772745, 0.0, 0.0, 0.0, 0.0, 0.0, 0.0, 9.950222484276886e-05, 0.0, 0.0, 0.0, 0.0, 0.0, 0.0, 0.0, 0.0, 0.0, 0.0, 0.0, 0.0, 0.0, 0.0, 0.0, 0.0, 0.0, 0.0, 0.0, 0.0, 0.0)",0.271454035684,0.399275235507,-0.0124458524585,0.000849617343849,-0.00193545114651,0.00797349351281,"(0.0, 0.0, 0.0, 0.0, 0.0, 0.0, 0.0, 0.0, 0.0, 0.0, 0.0, 0.0, 0.0, 0.0, 0.0, 0.0, 0.0, 0.0, 0.0, 0.0, 0.0, 0.0, 0.0, 0.0, 0.0, 0.0, 0.0, 0.0, 0.0, 0.0, 0.0, 0.0, 0.0, 0.0, 0.0, 0.0)"
1970/01/01/01:00:12.316000,63,12,288000000,map,map,0.820286660028,1.87078812549,-0.545844329444,1.10654410497e-05,-0.000366295585071,-0.697205146992,-0.716871606711,"(0.18585757123339725, 0.0, 0.0, 0.0, 0.0, 0.0, 0.0, 0.044859447757290456, 0.0, 0.0, 0.0, 0.0, 0.0, 0.0, 9.901980880229485e-05, 0.0, 0.0, 0.0, 0.0, 0.0, 0.0, 0.0, 0.0, 0.0, 0.0, 0.0, 0.0, 0.0, 0.0, 0.0, 0.0, 0.0, 0.0, 0.0, 0.0, 0.0)",0.268819832717,0.399347711956,-0.0150008252206,0.00412959689491,0.00387074019602,-0.000921067832457,"(0.0, 0.0, 0.0, 0.0, 0.0, 0.0, 0.0, 0.0, 0.0, 0.0, 0.0, 0.0, 0.0, 0.0, 0.0, 0.0, 0.0, 0.0, 0.0, 0.0, 0.0, 0.0, 0.0, 0.0, 0.0, 0.0, 0.0, 0.0, 0.0, 0.0, 0.0, 0.0, 0.0, 0.0, 0.0, 0.0)"
1970/01/01/01:00:12.316000,64,12,308000000,map,map,0.829380427211,1.86212234448,-0.520290127708,4.88768029513e-05,-0.000410892754219,-0.697196065004,-0.716880520111,"(0.19610306925070847, 0.0, 0.0, 0.0, 0.0, 0.0, 0.0, 0.05491492350080747, 0.0, 0.0, 0.0, 0.0, 0.0, 0.0, 9.901976632800925e-05, 0.0, 0.0, 0.0, 0.0, 0.0, 0.0, 0.0, 0.0, 0.0, 0.0, 0.0, 0.0, 0.0, 0.0, 0.0, 0.0, 0.0, 0.0, 0.0, 0.0, 0.0)",0.266594754919,0.399412940761,-0.0222004901692,-0.00482612712054,0.00199153952482,0.0044831347414,"(0.0, 0.0, 0.0, 0.0, 0.0, 0.0, 0.0, 0.0, 0.0, 0.0, 0.0, 0.0, 0.0, 0.0, 0.0, 0.0, 0.0, 0.0, 0.0, 0.0, 0.0, 0.0, 0.0, 0.0, 0.0, 0.0, 0.0, 0.0, 0.0, 0.0, 0.0, 0.0, 0.0, 0.0, 0.0, 0.0)"
1970/01/01/01:00:12.359000,65,12,328000000,map,map,0.83845818384,1.85348973028,-0.54295103497,8.35739696132e-05,-0.000433692943913,-0.697217013964,-0.71685999262,"(0.20636093827021434, 0.0, 0.0, 0.0, 0.0, 0.0, 0.0, 0.06498217724625609, 0.0, 0.0, 0.0, 0.0, 0.0, 0.0, 9.901977017875254e-05, 0.0, 0.0, 0.0, 0.0, 0.0, 0.0, 0.0, 0.0, 0.0, 0.0, 0.0, 0.0, 0.0, 0.0, 0.0, 0.0, 0.0, 0.0, 0.0, 0.0, 0.0)",0.264740879722,0.399471646685,0.0151301416056,-0.00691388368491,-0.00544668219209,0.00621485109938,"(0.0, 0.0, 0.0, 0.0, 0.0, 0.0, 0.0, 0.0, 0.0, 0.0, 0.0, 0.0, 0.0, 0.0, 0.0, 0.0, 0.0, 0.0, 0.0, 0.0, 0.0, 0.0, 0.0, 0.0, 0.0, 0.0, 0.0, 0.0, 0.0, 0.0, 0.0, 0.0, 0.0, 0.0, 0.0, 0.0)"
1970/01/01/01:00:12.359000,66,12,348000000,map,map,0.848394650478,1.84402686397,-0.530793256929,1.93042650144e-05,-0.00046692548701,-0.697213393945,-0.716863444052,"(0.21665897729920144, 0.0, 0.0, 0.0, 0.0, 0.0, 0.0, 0.07506985455715905, 0.0, 0.0, 0.0, 0.0, 0.0, 0.0, 9.901982815308128e-05, 0.0, 0.0, 0.0, 0.0, 0.0, 0.0, 0.0, 0.0, 0.0, 0.0, 0.0, 0.0, 0.0, 0.0, 0.0, 0.0, 0.0, 0.0, 0.0, 0.0, 0.0)",0.263222226506,0.399524482016,0.00796648459422,0.00161623372022,0.00840914853098,-0.000271420692906,"(0.0, 0.0, 0.0, 0.0, 0.0, 0.0, 0.0, 0.0, 0.0, 0.0, 0.0, 0.0, 0.0, 0.0, 0.0, 0.0, 0.0, 0.0, 0.0, 0.0, 0.0, 0.0, 0.0, 0.0, 0.0, 0.0, 0.0, 0.0, 0.0, 0.0, 0.0, 0.0, 0.0, 0.0, 0.0, 0.0)"
1970/01/01/01:00:12.369000,67,12,368000000,map,map,0.856518193685,1.8362339904,-0.534077179624,8.7288839763e-06,-0.000443869535092,-0.697224651763,-0.716852607702,"(0.22691410171579923, 0.0, 0.0, 0.0, 0.0, 0.0, 0.0, 0.0851523311395445, 0.0, 0.0, 0.0, 0.0, 0.0, 0.0, 9.901972858200915e-05, 0.0, 0.0, 0.0, 0.0, 0.0, 0.0, 0.0, 0.0, 0.0, 0.0, 0.0, 0.0, 0.0, 0.0, 0.0, 0.0, 0.0, 0.0, 0.0, 0.0, 0.0)",0.262041104573,0.399572033815,0.0219941843337,0.00242606549741,-9.47115426736e-05,0.00248525942005,"(0.0, 0.0, 0.0, 0.0, 0.0, 0.0, 0.0, 0.0, 0.0, 0.0, 0.0, 0.0, 0.0, 0.0, 0.0, 0.0, 0.0, 0.0, 0.0, 0.0, 0.0, 0.0, 0.0, 0.0, 0.0, 0.0, 0.0, 0.0, 0.0, 0.0, 0.0, 0.0, 0.0, 0.0, 0.0, 0.0)"
1970/01/01/01:00:12.389000,68,12,389000000,map,map,0.866004769495,1.8272066441,-0.526737891694,-5.64113341433e-06,-0.000454533716741,-0.697201963588,-0.716874705821,"(0.23722466053198968, 0.0, 0.0, 0.0, 0.0, 0.0, 0.0, 0.09526086039728794, 0.0, 0.0, 0.0, 0.0, 0.0, 0.0, 9.901980840051132e-05, 0.0, 0.0, 0.0, 0.0, 0.0, 0.0, 0.0, 0.0, 0.0, 0.0, 0.0, 0.0, 0.0, 0.0, 0.0, 0.0, 0.0, 0.0, 0.0, 0.0, 0.0)",0.261045026491,0.399616970264,0.0277517604376,0.00139831598918,0.00337724520149,-0.0034747951115,"(0.0, 0.0, 0.0, 0.0, 0.0, 0.0, 0.0, 0.0, 0.0, 0.0, 0.0, 0.0, 0.0, 0.0, 0.0, 0.0, 0.0, 0.0, 0.0, 0.0, 0.0, 0.0, 0.0, 0.0, 0.0, 0.0, 0.0, 0.0, 0.0, 0.0, 0.0, 0.0, 0.0, 0.0, 0.0, 0.0)"
1970/01/01/01:00:12.430000,69,12,409000000,map,map,0.795030488723,1.85186667815,-0.518816911197,8.41022869447e-05,-0.00047903830194,-0.697187255655,-0.716888907992,"(0.1772218131350434, 0.0, 0.0, 0.0, 0.0, 0.0, 0.0, 0.024842025370727678, 0.0, 0.0, 0.0, 0.0, 0.0, 0.0, 9.900994413266433e-05, 0.0, 0.0, 0.0, 0.0, 0.0, 0.0, 0.0, 0.0, 0.0, 0.0, 0.0, 0.0, 0.0, 0.0, 0.0, 0.0, 0.0, 0.0, 0.0, 0.0, 0.0)",0.260389821486,0.399653358089,0.0427562890943,-0.00683533731462,-0.00511379297949,0.00479281553338,"(0.0, 0.0, 0.0, 0.0, 0.0, 0.0, 0.0, 0.0, 0.0, 0.0, 0.0, 0.0, 0.0, 0.0, 0.0, 0.0, 0.0, 0.0, 0.0, 0.0, 0.0, 0.0, 0.0, 0.0, 0.0, 0.0, 0.0, 0.0, 0.0, 0.0, 0.0, 0.0, 0.0, 0.0, 0.0, 0.0)"
1970/01/01/01:00:12.430000,70,12,428000000,map,map,0.804043214447,1.84320018488,-0.531526286571,0.000113056276663,-0.000407559006414,-0.69716915951,-0.716906582668,"(0.18745338000479644, 0.0, 0.0, 0.0, 0.0, 0.0, 0.0, 0.03487657639391522, 0.0, 0.0, 0.0, 0.0, 0.0, 0.0, 9.901978821634173e-05, 0.0, 0.0, 0.0, 0.0, 0.0, 0.0, 0.0, 0.0, 0.0, 0.0, 0.0, 0.0, 0.0, 0.0, 0.0, 0.0, 0.0, 0.0, 0.0, 0.0, 0.0)",0.256728287056,0.39968802228,0.0678724524686,0.00316747865912,-0.00429891430014,-0.00193419255669,"(0.0, 0.0, 0.0, 0.0, 0.0, 0.0, 0.0, 0.0, 0.0, 0.0, 0.0, 0.0, 0.0, 0.0, 0.0, 0.0, 0.0, 0.0, 0.0, 0.0, 0.0, 0.0, 0.0, 0.0, 0.0, 0.0, 0.0, 0.0, 0.0, 0.0, 0.0, 0.0, 0.0, 0.0, 0.0, 0.0)"
1970/01/01/01:00:12.472000,71,12,449000000,map,map,0.813884949756,1.83369981691,-0.51213620146,6.42149630867e-05,-0.000420742316312,-0.697163908276,-0.716911749609,"(0.19772288315681258, 0.0, 0.0, 0.0, 0.0, 0.0, 0.0, 0.0449287059242833, 0.0, 0.0, 0.0, 0.0, 0.0, 0.0, 9.901985137563488e-05, 0.0, 0.0, 0.0, 0.0, 0.0, 0.0, 0.0, 0.0, 0.0, 0.0, 0.0, 0.0, 0.0, 0.0, 0.0, 0.0, 0.0, 0.0, 0.0, 0.0, 0.0)",0.25342794405,0.399720779941,0.0652321526806,0.00176946944117,0.0071897375106,-0.000668494822646,"(0.0, 0.0, 0.0, 0.0, 0.0, 0.0, 0.0, 0.0, 0.0, 0.0, 0.0, 0.0, 0.0, 0.0, 0.0, 0.0, 0.0, 0.0, 0.0, 0.0, 0.0, 0.0, 0.0, 0.0, 0.0, 0.0, 0.0, 0.0, 0.0, 0.0, 0.0, 0.0, 0.0, 0.0, 0.0, 0.0)"
1970/01/01/01:00:12.472000,72,12,470000000,map,map,0.821890319938,1.82596060821,-0.532343266208,5.4549711139e-06,-0.000415967333561,-0.697120411411,-0.716954066362,"(0.20795496896957252, 0.0, 0.0, 0.0, 0.0, 0.0, 0.0, 0.05498240990318199, 0.0, 0.0, 0.0, 0.0, 0.0, 0.0, 9.901974421786008e-05, 0.0, 0.0, 0.0, 0.0, 0.0, 0.0, 0.0, 0.0, 0.0, 0.0, 0.0, 0.0, 0.0, 0.0, 0.0, 0.0, 0.0, 0.0, 0.0, 0.0, 0.0)",0.250661055593,0.399750098047,0.0945846521643,0.00559293944273,0.00574727478759,-0.00694811540806,"(0.0, 0.0, 0.0, 0.0, 0.0, 0.0, 0.0, 0.0, 0.0, 0.0, 0.0, 0.0, 0.0, 0.0, 0.0, 0.0, 0.0, 0.0, 0.0, 0.0, 0.0, 0.0, 0.0, 0.0, 0.0, 0.0, 0.0, 0.0, 0.0, 0.0, 0.0, 0.0, 0.0, 0.0, 0.0, 0.0)"
1970/01/01/01:00:12.514000,73,12,488000000,map,map,0.831649025012,1.81648817101,-0.532462151347,-9.05169220426e-05,-0.000440363382393,-0.697095083131,-0.716978635999,"(0.21825288349318886, 0.0, 0.0, 0.0, 0.0, 0.0, 0.0, 0.06506165356324298, 0.0, 0.0, 0.0, 0.0, 0.0, 0.0, 9.90198600505854e-05, 0.0, 0.0, 0.0, 0.0, 0.0, 0.0, 0.0, 0.0, 0.0, 0.0, 0.0, 0.0, 0.0, 0.0, 0.0, 0.0, 0.0, 0.0, 0.0, 0.0, 0.0)",0.248635058678,0.399772589223,0.0820950775967,0.00135923837225,0.0104460602264,-0.000200309699193,"(0.0, 0.0, 0.0, 0.0, 0.0, 0.0, 0.0, 0.0, 0.0, 0.0, 0.0, 0.0, 0.0, 0.0, 0.0, 0.0, 0.0, 0.0, 0.0, 0.0, 0.0, 0.0, 0.0, 0.0, 0.0, 0.0, 0.0, 0.0, 0.0, 0.0, 0.0, 0.0, 0.0, 0.0, 0.0, 0.0)"
1970/01/01/01:00:12.514000,74,12,508000000,map,map,0.839631455771,1.80864422338,-0.518091878932,-0.000105796687802,-0.00043018651339,-0.697113622476,-0.716960602416,"(0.22850835897361926, 0.0, 0.0, 0.0, 0.0, 0.0, 0.0, 0.07513768582808045, 0.0, 0.0, 0.0, 0.0, 0.0, 0.0, 9.901975045429626e-05, 0.0, 0.0, 0.0, 0.0, 0.0, 0.0, 0.0, 0.0, 0.0, 0.0, 0.0, 0.0, 0.0, 0.0, 0.0, 0.0, 0.0, 0.0, 0.0, 0.0, 0.0)",0.246796422929,0.3997953303,0.0676800059726,0.00331255313905,-0.00103493878366,0.00645313500909,"(0.0, 0.0, 0.0, 0.0, 0.0, 0.0, 0.0, 0.0, 0.0, 0.0, 0.0, 0.0, 0.0, 0.0, 0.0, 0.0, 0.0, 0.0, 0.0, 0.0, 0.0, 0.0, 0.0, 0.0, 0.0, 0.0, 0.0, 0.0, 0.0, 0.0, 0.0, 0.0, 0.0, 0.0, 0.0, 0.0)"
1970/01/01/01:00:12.561000,75,12,529000000,map,map,0.848512254246,1.79996144245,-0.5279110844,-4.65662686756e-05,-0.000358982149907,-0.697073372236,-0.716999841132,"(0.23880468116536802, 0.0, 0.0, 0.0, 0.0, 0.0, 0.0, 0.08523406649547682, 0.0, 0.0, 0.0, 0.0, 0.0, 0.0, 9.901980804670941e-05, 0.0, 0.0, 0.0, 0.0, 0.0, 0.0, 0.0, 0.0, 0.0, 0.0, 0.0, 0.0, 0.0, 0.0, 0.0, 0.0, 0.0, 0.0, 0.0, 0.0, 0.0)",0.245185320789,0.399816820619,0.0778459948182,0.00219503817266,-0.0118114036862,-0.0062394204803,"(0.0, 0.0, 0.0, 0.0, 0.0, 0.0, 0.0, 0.0, 0.0, 0.0, 0.0, 0.0, 0.0, 0.0, 0.0, 0.0, 0.0, 0.0, 0.0, 0.0, 0.0, 0.0, 0.0, 0.0, 0.0, 0.0, 0.0, 0.0, 0.0, 0.0, 0.0, 0.0, 0.0, 0.0, 0.0, 0.0)"
1970/01/01/01:00:12.561000,76,12,548000000,map,map,0.892895650769,1.8059476795,-0.526403685583,5.47826712587e-06,-0.000376460795778,-0.697065477604,-0.717007398589,"(0.19627581371263447, 0.0, 0.0, 0.0, 0.0, 0.0, 0.0, 0.02875199275358257, 0.0, 0.0, 0.0, 0.0, 0.0, 0.0, 9.901420402384862e-05, 0.0, 0.0, 0.0, 0.0, 0.0, 0.0, 0.0, 0.0, 0.0, 0.0, 0.0, 0.0, 0.0, 0.0, 0.0, 0.0, 0.0, 0.0, 0.0, 0.0, 0.0)",0.244021238448,0.39983422266,0.067314820847,-0.00513044120612,-0.00207758150042,-0.00347021165983,"(0.0, 0.0, 0.0, 0.0, 0.0, 0.0, 0.0, 0.0, 0.0, 0.0, 0.0, 0.0, 0.0, 0.0, 0.0, 0.0, 0.0, 0.0, 0.0, 0.0, 0.0, 0.0, 0.0, 0.0, 0.0, 0.0, 0.0, 0.0, 0.0, 0.0, 0.0, 0.0, 0.0, 0.0, 0.0, 0.0)"
1970/01/01/01:00:12.603000,77,12,569000000,map,map,0.90050360513,1.79853779292,-0.540395888409,4.30696340028e-05,-0.00033030822682,-0.697037375534,-0.717034826309,"(0.2064936198983147, 0.0, 0.0, 0.0, 0.0, 0.0, 0.0, 0.03878664168995149, 0.0, 0.0, 0.0, 0.0, 0.0, 0.0, 9.901973321243292e-05, 0.0, 0.0, 0.0, 0.0, 0.0, 0.0, 0.0, 0.0, 0.0, 0.0, 0.0, 0.0, 0.0, 0.0, 0.0, 0.0, 0.0, 0.0, 0.0, 0.0, 0.0)",0.244525294537,0.399851629281,0.0579362173832,0.00335635749391,-0.00775101861198,-0.000510399764151,"(0.0, 0.0, 0.0, 0.0, 0.0, 0.0, 0.0, 0.0, 0.0, 0.0, 0.0, 0.0, 0.0, 0.0, 0.0, 0.0, 0.0, 0.0, 0.0, 0.0, 0.0, 0.0, 0.0, 0.0, 0.0, 0.0, 0.0, 0.0, 0.0, 0.0, 0.0, 0.0, 0.0, 0.0, 0.0, 0.0)"
1970/01/01/01:00:12.603000,78,12,589000000,map,map,0.909437756555,1.78990108279,-0.534326217555,5.95544847627e-05,-0.000339617823576,-0.697062838158,-0.717009953741,"(0.21676218512341958, 0.0, 0.0, 0.0, 0.0, 0.0, 0.0, 0.0488391810876567, 0.0, 0.0, 0.0, 0.0, 0.0, 0.0, 0.010102199597923134, 0.0, 0.0, 0.0, 0.0, 0.0, 0.0, 0.0, 0.0, 0.0, 0.0, 0.0, 0.0, 0.0, 0.0, 0.0, 0.0, 0.0, 0.0, 0.0, 0.0, 0.0)",0.24505428268,0.399866466353,0.0252035780029,-0.00534863753053,-0.00109441728144,0.00422172059393,"(0.0, 0.0, 0.0, 0.0, 0.0, 0.0, 0.0, 0.0, 0.0, 0.0, 0.0, 0.0, 0.0, 0.0, 0.0, 0.0, 0.0, 0.0, 0.0, 0.0, 0.0, 0.0, 0.0, 0.0, 0.0, 0.0, 0.0, 0.0, 0.0, 0.0, 0.0, 0.0, 0.0, 0.0, 0.0, 0.0)"
1970/01/01/01:00:12.646000,79,12,608000000,map,map,0.918387251901,1.78126343332,-0.508588026373,8.43965946098e-07,-0.000392561180023,-0.697057904342,-0.717014803263,"(0.22704414151931676, 0.0, 0.0, 0.0, 0.0, 0.0, 0.0, 0.0589045148366983, 0.0, 0.0, 0.0, 0.0, 0.0, 0.0, 0.010102248388184762, 0.0, 0.0, 0.0, 0.0, 0.0, 0.0, 0.0, 0.0, 0.0, 0.0, 0.0, 0.0, 0.0, 0.0, 0.0, 0.0, 0.0, 0.0, 0.0, 0.0, 0.0)",0.245660226073,0.399879152049,0.0081024373755,0.00214577780581,0.00956101003782,-0.000947580133174,"(0.0, 0.0, 0.0, 0.0, 0.0, 0.0, 0.0, 0.0, 0.0, 0.0, 0.0, 0.0, 0.0, 0.0, 0.0, 0.0, 0.0, 0.0, 0.0, 0.0, 0.0, 0.0, 0.0, 0.0, 0.0, 0.0, 0.0, 0.0, 0.0, 0.0, 0.0, 0.0, 0.0, 0.0, 0.0, 0.0)"
1970/01/01/01:00:12.646000,80,12,628000000,map,map,0.927315371123,1.77263635108,-0.513466406736,8.50238891144e-05,-0.000356908619626,-0.697056072272,-0.71701655104,"(0.23733956908710468, 0.0, 0.0, 0.0, 0.0, 0.0, 0.0, 0.06898272293920232, 0.0, 0.0, 0.0, 0.0, 0.0, 0.0, 9.950524074834817e-05, 0.0, 0.0, 0.0, 0.0, 0.0, 0.0, 0.0, 0.0, 0.0, 0.0, 0.0, 0.0, 0.0, 0.0, 0.0, 0.0, 0.0, 0.0, 0.0, 0.0, 0.0)",0.246409205444,0.399891236844,0.0356203368419,-0.00164931689739,-0.00287541461412,0.0020628226942,"(0.0, 0.0, 0.0, 0.0, 0.0, 0.0, 0.0, 0.0, 0.0, 0.0, 0.0, 0.0, 0.0, 0.0, 0.0, 0.0, 0.0, 0.0, 0.0, 0.0, 0.0, 0.0, 0.0, 0.0, 0.0, 0.0, 0.0, 0.0, 0.0, 0.0, 0.0, 0.0, 0.0, 0.0, 0.0, 0.0)"
1970/01/01/01:00:12.693000,81,12,648000000,map,map,0.937130124875,1.76317040626,-0.512089285431,5.51863384618e-05,-0.000318567510116,-0.697060591204,-0.717012200695,"(0.24768019321457124, 0.0, 0.0, 0.0, 0.0, 0.0, 0.0, 0.07908371632898371, 0.0, 0.0, 0.0, 0.0, 0.0, 0.0, 0.010053837042645796, 0.0, 0.0, 0.0, 0.0, 0.0, 0.0, 0.0, 0.0, 0.0, 0.0, 0.0, 0.0, 0.0, 0.0, 0.0, 0.0, 0.0, 0.0, 0.0, 0.0, 0.0)",0.247243883465,0.39990211316,0.0492339412302,0.0052821855309,0.00138978014863,0.000372435154238,"(0.0, 0.0, 0.0, 0.0, 0.0, 0.0, 0.0, 0.0, 0.0, 0.0, 0.0, 0.0, 0.0, 0.0, 0.0, 0.0, 0.0, 0.0, 0.0, 0.0, 0.0, 0.0, 0.0, 0.0, 0.0, 0.0, 0.0, 0.0, 0.0, 0.0, 0.0, 0.0, 0.0, 0.0, 0.0, 0.0)"
1970/01/01/01:00:12.693000,82,12,668000000,map,map,0.945143862891,1.75543351111,-0.54872983566,8.93961204492e-05,-0.000418492584216,-0.697007096975,-0.717064177637,"(0.257971150136706, 0.0, 0.0, 0.0, 0.0, 0.0, 0.0, 0.08917807460141855, 0.0, 0.0, 0.0, 0.0, 0.0, 0.0, 9.950404084627263e-05, 0.0, 0.0, 0.0, 0.0, 0.0, 0.0, 0.0, 0.0, 0.0, 0.0, 0.0, 0.0, 0.0, 0.0, 0.0, 0.0, 0.0, 0.0, 0.0, 0.0, 0.0)",0.24819055647,0.399911901844,0.0612326823548,-0.0107354969066,0.00498394357352,-0.00975059915295,"(0.0, 0.0, 0.0, 0.0, 0.0, 0.0, 0.0, 0.0, 0.0, 0.0, 0.0, 0.0, 0.0, 0.0, 0.0, 0.0, 0.0, 0.0, 0.0, 0.0, 0.0, 0.0, 0.0, 0.0, 0.0, 0.0, 0.0, 0.0, 0.0, 0.0, 0.0, 0.0, 0.0, 0.0, 0.0, 0.0)"
1970/01/01/01:00:12.693000,83,12,688000000,map,map,0.864398074929,1.84340926613,-0.533575250386,0.000182895415643,-0.000356572885404,-0.696980525363,-0.7170900749,"(0.21466290927324486, 0.0, 0.0, 0.0, 0.0, 0.0, 0.0, 0.029607696690466215, 0.0, 0.0, 0.0, 0.0, 0.0, 0.0, 9.901216861991227e-05, 0.0, 0.0, 0.0, 0.0, 0.0, 0.0, 0.0, 0.0, 0.0, 0.0, 0.0, 0.0, 0.0, 0.0, 0.0, 0.0, 0.0, 0.0, 0.0, 0.0, 0.0)",0.249165316588,0.399920711659,0.00812296016392,0.00158619808561,-0.0094930105303,-4.47555480336e-05,"(0.0, 0.0, 0.0, 0.0, 0.0, 0.0, 0.0, 0.0, 0.0, 0.0, 0.0, 0.0, 0.0, 0.0, 0.0, 0.0, 0.0, 0.0, 0.0, 0.0, 0.0, 0.0, 0.0, 0.0, 0.0, 0.0, 0.0, 0.0, 0.0, 0.0, 0.0, 0.0, 0.0, 0.0, 0.0, 0.0)"
1970/01/01/01:00:12.735000,84,12,708000000,map,map,0.873275810977,1.8348433143,-0.534436297141,9.34495956627e-05,-0.000337870139059,-0.696984969221,-0.717085715336,"(0.22494436311589971, 0.0, 0.0, 0.0, 0.0, 0.0, 0.0, 0.03965115678979106, 0.0, 0.0, 0.0, 0.0, 0.0, 0.0, 9.901984225596691e-05, 0.0, 0.0, 0.0, 0.0, 0.0, 0.0, 0.0, 0.0, 0.0, 0.0, 0.0, 0.0, 0.0, 0.0, 0.0, 0.0, 0.0, 0.0, 0.0, 0.0, 0.0)",0.246614216731,0.399928640494,-0.0111482648773,0.00968263479056,0.00481549721508,-0.00170087680687,"(0.0, 0.0, 0.0, 0.0, 0.0, 0.0, 0.0, 0.0, 0.0, 0.0, 0.0, 0.0, 0.0, 0.0, 0.0, 0.0, 0.0, 0.0, 0.0, 0.0, 0.0, 0.0, 0.0, 0.0, 0.0, 0.0, 0.0, 0.0, 0.0, 0.0, 0.0, 0.0, 0.0, 0.0, 0.0, 0.0)"
1970/01/01/01:00:12.735000,85,12,728000000,map,map,0.882128491231,1.82624787532,-0.52397209809,9.64754224613e-05,-0.000275879595264,-0.696983538204,-0.717087062059,"(0.23523965058702498, 0.0, 0.0, 0.0, 0.0, 0.0, 0.0, 0.04970786129590795, 0.0, 0.0, 0.0, 0.0, 0.0, 0.0, 9.901984680224945e-05, 0.0, 0.0, 0.0, 0.0, 0.0, 0.0, 0.0, 0.0, 0.0, 0.0, 0.0, 0.0, 0.0, 0.0, 0.0, 0.0, 0.0, 0.0, 0.0, 0.0, 0.0)",0.244474004048,0.399935776444,-0.0282710881733,0.00828447189649,-0.00466694779724,-0.00220379369546,"(0.0, 0.0, 0.0, 0.0, 0.0, 0.0, 0.0, 0.0, 0.0, 0.0, 0.0, 0.0, 0.0, 0.0, 0.0, 0.0, 0.0, 0.0, 0.0, 0.0, 0.0, 0.0, 0.0, 0.0, 0.0, 0.0, 0.0, 0.0, 0.0, 0.0, 0.0, 0.0, 0.0, 0.0, 0.0, 0.0)"
1970/01/01/01:00:12.750000,86,12,748000000,map,map,0.891011068031,1.81771549252,-0.535080848419,6.97116694587e-05,-0.000275812557491,-0.696977467082,-0.717092964594,"(0.24554884533936056, 0.0, 0.0, 0.0, 0.0, 0.0, 0.0, 0.059777865865455374, 0.0, 0.0, 0.0, 0.0, 0.0, 0.0, 9.901985060836319e-05, 0.0, 0.0, 0.0, 0.0, 0.0, 0.0, 0.0, 0.0, 0.0, 0.0, 0.0, 0.0, 0.0, 0.0, 0.0, 0.0, 0.0, 0.0, 0.0, 0.0, 0.0)",0.24270462847,0.3999421988,-0.0241574062299,-0.00691437926237,0.000184104874978,-0.00205023240937,"(0.0, 0.0, 0.0, 0.0, 0.0, 0.0, 0.0, 0.0, 0.0, 0.0, 0.0, 0.0, 0.0, 0.0, 0.0, 0.0, 0.0, 0.0, 0.0, 0.0, 0.0, 0.0, 0.0, 0.0, 0.0, 0.0, 0.0, 0.0, 0.0, 0.0, 0.0, 0.0, 0.0, 0.0, 0.0, 0.0)"
1970/01/01/01:00:12.769000,87,12,768000000,map,map,0.899920316702,1.80916104931,-0.534685070282,0.000115604010438,-0.000305393903461,-0.696959291254,-0.717110718954,"(0.25587202737229053, 0.0, 0.0, 0.0, 0.0, 0.0, 0.0, 0.06986125049606273, 0.0, 0.0, 0.0, 0.0, 0.0, 0.0, 9.901985441177086e-05, 0.0, 0.0, 0.0, 0.0, 0.0, 0.0, 0.0, 0.0, 0.0, 0.0, 0.0, 0.0, 0.0, 0.0, 0.0, 0.0, 0.0, 0.0, 0.0, 0.0, 0.0)",0.241271914319,0.39994797892,-0.038438674951,0.000465021769091,0.00396321622667,-0.00397719977816,"(0.0, 0.0, 0.0, 0.0, 0.0, 0.0, 0.0, 0.0, 0.0, 0.0, 0.0, 0.0, 0.0, 0.0, 0.0, 0.0, 0.0, 0.0, 0.0, 0.0, 0.0, 0.0, 0.0, 0.0, 0.0, 0.0, 0.0, 0.0, 0.0, 0.0, 0.0, 0.0, 0.0, 0.0, 0.0, 0.0)"
1970/01/01/01:00:12.810000,88,12,788000000,map,map,0.908829900118,1.8005838174,-0.512380339288,9.99460034671e-05,-0.000352051123307,-0.696997955719,-0.717072981719,"(0.26620927668581496, 0.0, 0.0, 0.0, 0.0, 0.0, 0.0, 0.07995809518772952, 0.0, 0.0, 0.0, 0.0, 0.0, 0.0, 9.901985821252144e-05, 0.0, 0.0, 0.0, 0.0, 0.0, 0.0, 0.0, 0.0, 0.0, 0.0, 0.0, 0.0, 0.0, 0.0, 0.0, 0.0, 0.0, 0.0, 0.0, 0.0, 0.0)",0.240144677827,0.399953181028,-0.0483988128241,-0.00159793703205,0.0032298256225,0.00581840226854,"(0.0, 0.0, 0.0, 0.0, 0.0, 0.0, 0.0, 0.0, 0.0, 0.0, 0.0, 0.0, 0.0, 0.0, 0.0, 0.0, 0.0, 0.0, 0.0, 0.0, 0.0, 0.0, 0.0, 0.0, 0.0, 0.0, 0.0, 0.0, 0.0, 0.0, 0.0, 0.0, 0.0, 0.0, 0.0, 0.0)"
