time,.header.seq,.header.stamp.secs,.header.stamp.nsecs,.header.frame_id,.child_frame_id,.pose.pose.position.x,.pose.pose.position.y,.pose.pose.position.z,.pose.pose.orientation.x,.pose.pose.orientation.y,.pose.pose.orientation.z,.pose.pose.orientation.w,.pose.covariance,.twist.twist.linear.x,.twist.twist.linear.y,.twist.twist.linear.z,.twist.twist.angular.x,.twist.twist.angular.y,.twist.twist.angular.z,.twist.covariance
1970/01/01/01:00:10.598000,1,10,596000000,map,map,0.8,1.675,-0.609125924053,0.000197844604999,5.76145098576e-05,-0.674720477423,-0.738073326225,"(3.499999999999969, 0.0, 0.0, 0.0, 0.0, 0.0, 0.0, 3.499999999999969, 0.0, 0.0, 0.0, 0.0, 0.0, 0.0, 9.901951359278424e-05, 0.0, 0.0, 0.0, 0.0, 0.0, 0.0, 0.0, 0.0, 0.0, 0.0, 0.0, 0.0, 0.0, 0.0, 0.0, 0.0, 0.0, 0.0, 0.0, 0.0, 0.0)",0.0,0.0,0.0,0.00145120349142,0.00316212311591,0.00162416470093,"(0.0, 0.0, 0.0, 0.0, 0.0, 0.0, 0.0, 0.0, 0.0, 0.0, 0.0, 0.0, 0.0, 0.0, 0.0, 0.0, 0.0, 0.0, 0.0, 0.0, 0.0, 0.0, 0.0, 0.0, 0.0, 0.0, 0.0, 0.0, 0.0, 0.0, 0.0, 0.0, 0.0, 0.0, 0.0, 0.0)"
1970/01/01/01:00:10.617000,2,10,616000000,map,map,0.8,1.675,-0.609125924053,0.000267900752323,4.644791588e-05,-0.674744334094,-0.738051492589,"(3.5099999999999687, 0.0, 0.0, 0.0, 0.0, 0.0, 0.0, 3.5099999999999687, 0.0, 0.0, 0.0, 0.0, 0.0, 0.0, 0.010099019513592784, 0.0, 0.0, 0.0, 0.0, 0.0, 0.0, 0.0, 0.0, 0.0, 0.0, 0.0, 0.0, 0.0, 0.0, 0.0, 0.0, 0.0, 0.0, 0.0, 0.0, 0.0)",0.0,0.0,0.0,-0.00276012412011,-0.00149932939783,0.00587620121457,"(0.0, 0.0, 0.0, 0.0, 0.0, 0.0, 0.0, 0.0, 0.0, 0.0, 0.0, 0.0, 0.0, 0.0, 0.0, 0.0, 0.0, 0.0, 0.0, 0.0, 0.0, 0.0, 0.0, 0.0, 0.0, 0.0, 0.0, 0.0, 0.0, 0.0, 0.0, 0.0, 0.0, 0.0, 0.0, 0.0)"
1970/01/01/01:00:10.637000,3,10,636000000,map,map,0.8,1.675,-0.602666779942,0.000253509126441,8.42675301674e-05,-0.67491865346,-0.737892093208,"(3.5199999999999685, 0.0, 0.0, 0.0, 0.0, 0.0, 0.0, 3.5199999999999685, 0.0, 0.0, 0.0, 0.0, 0.0, 0.0, 9.95049264647074e-05, 0.0, 0.0, 0.0, 0.0, 0.0, 0.0, 0.0, 0.0, 0.0, 0.0, 0.0, 0.0, 0.0, 0.0, 0.0, 0.0, 0.0, 0.0, 0.0, 0.0, 0.0)",0.032,0.04,-0.181876540089,0.00798479357753,-0.00504806104561,0.0256132924246,"(0.0, 0.0, 0.0, 0.0, 0.0, 0.0, 0.0, 0.0, 0.0, 0.0, 0.0, 0.0, 0.0, 0.0, 0.0, 0.0, 0.0, 0.0, 0.0, 0.0, 0.0, 0.0, 0.0, 0.0, 0.0, 0.0, 0.0, 0.0, 0.0, 0.0, 0.0, 0.0, 0.0, 0.0, 0.0, 0.0)"
1970/01/01/01:00:10.657000,4,10,656000000,map,map,0.8,1.675,-0.606281040894,0.000255687221242,0.000123446318581,-0.675379932277,-0.737470010959,"(3.5299999999999683, 0.0, 0.0, 0.0, 0.0, 0.0, 0.0, 3.5299999999999683, 0.0, 0.0, 0.0, 0.0, 0.0, 0.0, 9.901956025590446e-05, 0.0, 0.0, 0.0, 0.0, 0.0, 0.0, 0.0, 0.0, 0.0, 0.0, 0.0, 0.0, 0.0, 0.0, 0.0, 0.0, 0.0, 0.0, 0.0, 0.0, 0.0)",0.0608,0.076,-0.316612531974,-0.00061365397222,-0.0058252676158,0.0961530068705,"(0.0, 0.0, 0.0, 0.0, 0.0, 0.0, 0.0, 0.0, 0.0, 0.0, 0.0, 0.0, 0.0, 0.0, 0.0, 0.0, 0.0, 0.0, 0.0, 0.0, 0.0, 0.0, 0.0, 0.0, 0.0, 0.0, 0.0, 0.0, 0.0, 0.0, 0.0, 0.0, 0.0, 0.0, 0.0, 0.0)"
1970/01/01/01:00:10.676000,5,10,676000000,map,map,0.8,1.675,-0.612914997954,0.000357276890063,0.0001075676992,-0.676633727264,-0.736319644339,"(3.539999999999968, 0.0, 0.0, 0.0, 0.0, 0.0, 0.0, 3.539999999999968, 0.0, 0.0, 0.0, 0.0, 0.0, 0.0, 9.901951359726997e-05, 0.0, 0.0, 0.0, 0.0, 0.0, 0.0, 0.0, 0.0, 0.0, 0.0, 0.0, 0.0, 0.0, 0.0, 0.0, 0.0, 0.0, 0.0, 0.0, 0.0, 0.0)",0.0866944,0.1084,-0.4243625424,-0.00288314244197,-0.00842146035024,0.159240690768,"(0.0, 0.0, 0.0, 0.0, 0.0, 0.0, 0.0, 0.0, 0.0, 0.0, 0.0, 0.0, 0.0, 0.0, 0.0, 0.0, 0.0, 0.0, 0.0, 0.0, 0.0, 0.0, 0.0, 0.0, 0.0, 0.0, 0.0, 0.0, 0.0, 0.0, 0.0, 0.0, 0.0, 0.0, 0.0, 0.0)"
1970/01/01/01:00:10.696000,6,10,696000000,map,map,0.8,1.675,-0.593028543177,0.000344480135502,1.89187180742e-05,-0.677630176227,-0.735402852919,"(3.549999999999968, 0.0, 0.0, 0.0, 0.0, 0.0, 0.0, 3.549999999999968, 0.0, 0.0, 0.0, 0.0, 0.0, 0.0, 9.90195135927845e-05, 0.0, 0.0, 0.0, 0.0, 0.0, 0.0, 0.0, 0.0, 0.0, 0.0, 0.0, 0.0, 0.0, 0.0, 0.0, 0.0, 0.0, 0.0, 0.0, 0.0, 0.0)",0.10995072,0.13756,-0.5,-0.00450283752621,0.00965774827203,0.174289428275,"(0.0, 0.0, 0.0, 0.0, 0.0, 0.0, 0.0, 0.0, 0.0, 0.0, 0.0, 0.0, 0.0, 0.0, 0.0, 0.0, 0.0, 0.0, 0.0, 0.0, 0.0, 0.0, 0.0, 0.0, 0.0, 0.0, 0.0, 0.0, 0.0, 0.0, 0.0, 0.0, 0.0, 0.0, 0.0, 0.0)"
1970/01/01/01:00:10.717000,7,10,716000000,map,map,0.8,1.675,-0.624032433443,0.000371254013626,1.49967459672e-05,-0.678858053535,-0.734269468845,"(3.5599999999999676, 0.0, 0.0, 0.0, 0.0, 0.0, 0.0, 3.5599999999999676, 0.0, 0.0, 0.0, 0.0, 0.0, 0.0, 9.901951359278314e-05, 0.0, 0.0, 0.0, 0.0, 0.0, 0.0, 0.0, 0.0, 0.0, 0.0, 0.0, 0.0, 0.0, 0.0, 0.0, 0.0, 0.0, 0.0, 0.0, 0.0, 0.0)",0.13081205248,0.163804,-0.5,0.00684325818371,0.000320825049135,0.169674522328,"(0.0, 0.0, 0.0, 0.0, 0.0, 0.0, 0.0, 0.0, 0.0, 0.0, 0.0, 0.0, 0.0, 0.0, 0.0, 0.0, 0.0, 0.0, 0.0, 0.0, 0.0, 0.0, 0.0, 0.0, 0.0, 0.0, 0.0, 0.0, 0.0, 0.0, 0.0, 0.0, 0.0, 0.0, 0.0, 0.0)"
1970/01/01/01:00:10.737000,8,10,736000000,map,map,0.187679004524,2.05549991829,-0.602929156968,0.000362729226998,4.95375803367e-05,-0.680294963408,-0.732938347563,"(0.6034979035081585, 0.0, 0.0, 0.0, 0.0, 0.0, 0.0, 0.029861427705643453, 0.0, 0.0, 0.0, 0.0, 0.0, 0.0, 9.901347252168363e-05, 0.0, 0.0, 0.0, 0.0, 0.0, 0.0, 0.0, 0.0, 0.0, 0.0, 0.0, 0.0, 0.0, 0.0, 0.0, 0.0, 0.0, 0.0, 0.0, 0.0, 0.0)",0.149499291136,0.1874236,-0.5,0.00515993307657,-0.000190601652804,0.16991761383,"(0.0, 0.0, 0.0, 0.0, 0.0, 0.0, 0.0, 0.0, 0.0, 0.0, 0.0, 0.0, 0.0, 0.0, 0.0, 0.0, 0.0, 0.0, 0.0, 0.0, 0.0, 0.0, 0.0, 0.0, 0.0, 0.0, 0.0, 0.0, 0.0, 0.0, 0.0, 0.0, 0.0, 0.0, 0.0, 0.0)"
1970/01/01/01:00:10.757000,9,10,756000000,map,map,0.187679071846,2.0555066455,-0.597595535695,0.000375204951402,5.79234346526e-05,-0.681154687994,-0.732139398732,"(0.6134979035065653, 0.0, 0.0, 0.0, 0.0, 0.0, 0.0, 0.03986141179730618, 0.0, 0.0, 0.0, 0.0, 0.0, 0.0, 9.901951301202316e-05, 0.0, 0.0, 0.0, 0.0, 0.0, 0.0, 0.0, 0.0, 0.0, 0.0, 0.0, 0.0, 0.0, 0.0, 0.0, 0.0, 0.0, 0.0, 0.0, 0.0, 0.0)",0.141720316465,0.20868124,-0.5,-0.000562798678597,-0.00160957601386,0.1516677774,"(0.0, 0.0, 0.0, 0.0, 0.0, 0.0, 0.0, 0.0, 0.0, 0.0, 0.0, 0.0, 0.0, 0.0, 0.0, 0.0, 0.0, 0.0, 0.0, 0.0, 0.0, 0.0, 0.0, 0.0, 0.0, 0.0, 0.0, 0.0, 0.0, 0.0, 0.0, 0.0, 0.0, 0.0, 0.0, 0.0)"
1970/01/01/01:00:10.777000,10,10,777000000,map,map,0.187679072201,2.05550668093,-0.594730210403,0.000453421229272,5.65055060088e-05,-0.682192137939,-0.731172839786,"(0.6234979035065652, 0.0, 0.0, 0.0, 0.0, 0.0, 0.0, 0.04986141179577683, 0.0, 0.0, 0.0, 0.0, 0.0, 0.0, 9.901951359272855e-05, 0.0, 0.0, 0.0, 0.0, 0.0, 0.0, 0.0, 0.0, 0.0, 0.0, 0.0, 0.0, 0.0, 0.0, 0.0, 0.0, 0.0, 0.0, 0.0, 0.0, 0.0)",0.134243608825,0.2287697098,-0.480992380959,-0.00744739659162,-0.0040851867088,0.145507026237,"(0.0, 0.0, 0.0, 0.0, 0.0, 0.0, 0.0, 0.0, 0.0, 0.0, 0.0, 0.0, 0.0, 0.0, 0.0, 0.0, 0.0, 0.0, 0.0, 0.0, 0.0, 0.0, 0.0, 0.0, 0.0, 0.0, 0.0, 0.0, 0.0, 0.0, 0.0, 0.0, 0.0, 0.0, 0.0, 0.0)"
1970/01/01/01:00:10.799000,11,10,799000000,map,map,0.187679072209,2.05550668172,-0.588234614332,0.000443335908246,0.000113585797896,-0.68310222801,-0.73032259824,"(0.6334979035065652, 0.0, 0.0, 0.0, 0.0, 0.0, 0.0, 0.059861411795776684, 0.0, 0.0, 0.0, 0.0, 0.0, 0.0, 9.901951359278482e-05, 0.0, 0.0, 0.0, 0.0, 0.0, 0.0, 0.0, 0.0, 0.0, 0.0, 0.0, 0.0, 0.0, 0.0, 0.0, 0.0, 0.0, 0.0, 0.0, 0.0, 0.0)",0.12710235577,0.247605041722,-0.440758217023,0.00331226073874,-0.00485112012456,0.121154013456,"(0.0, 0.0, 0.0, 0.0, 0.0, 0.0, 0.0, 0.0, 0.0, 0.0, 0.0, 0.0, 0.0, 0.0, 0.0, 0.0, 0.0, 0.0, 0.0, 0.0, 0.0, 0.0, 0.0, 0.0, 0.0, 0.0, 0.0, 0.0, 0.0, 0.0, 0.0, 0.0, 0.0, 0.0, 0.0, 0.0)"
1970/01/01/01:00:10.826000,12,10,823000000,map,map,0.187679072209,2.05550668173,-0.57774387311,0.000515581554074,0.000140543955295,-0.68391930262,-0.729557532841,"(0.6434979035065652, 0.0, 0.0, 0.0, 0.0, 0.0, 0.0, 0.06986141179577668, 0.0, 0.0, 0.0, 0.0, 0.0, 0.0, 9.901951359278314e-05, 0.0, 0.0, 0.0, 0.0, 0.0, 0.0, 0.0, 0.0, 0.0, 0.0, 0.0, 0.0, 0.0, 0.0, 0.0, 0.0, 0.0, 0.0, 0.0, 0.0, 0.0)",0.120027087009,0.265892436715,-0.372367744261,-0.0024454895814,-0.00588198532778,0.113759667247,"(0.0, 0.0, 0.0, 0.0, 0.0, 0.0, 0.0, 0.0, 0.0, 0.0, 0.0, 0.0, 0.0, 0.0, 0.0, 0.0, 0.0, 0.0, 0.0, 0.0, 0.0, 0.0, 0.0, 0.0, 0.0, 0.0, 0.0, 0.0, 0.0, 0.0, 0.0, 0.0, 0.0, 0.0, 0.0, 0.0)"
1970/01/01/01:00:10.849000,13,10,836000000,map,map,0.187679072209,2.05550668173,-0.59566294962,0.000571728770711,0.000158853921,-0.684499885995,-0.729012774287,"(0.6534979035065652, 0.0, 0.0, 0.0, 0.0, 0.0, 0.0, 0.07986141179577667, 0.0, 0.0, 0.0, 0.0, 0.0, 0.0, 9.901951359278424e-05, 0.0, 0.0, 0.0, 0.0, 0.0, 0.0, 0.0, 0.0, 0.0, 0.0, 0.0, 0.0, 0.0, 0.0, 0.0, 0.0, 0.0, 0.0, 0.0, 0.0, 0.0)",0.116575230363,0.274609428329,-0.321388983008,-0.0014539546175,-0.00772493569601,0.0787939676672,"(0.0, 0.0, 0.0, 0.0, 0.0, 0.0, 0.0, 0.0, 0.0, 0.0, 0.0, 0.0, 0.0, 0.0, 0.0, 0.0, 0.0, 0.0, 0.0, 0.0, 0.0, 0.0, 0.0, 0.0, 0.0, 0.0, 0.0, 0.0, 0.0, 0.0, 0.0, 0.0, 0.0, 0.0, 0.0, 0.0)"
1970/01/01/01:00:10.885000,14,10,856000000,map,map,0.187679072209,2.05550668173,-0.604513298859,0.000534556917265,0.000184083316748,-0.684922531958,-0.728615669315,"(0.6634979035065652, 0.0, 0.0, 0.0, 0.0, 0.0, 0.0, 0.08986141179577667, 0.0, 0.0, 0.0, 0.0, 0.0, 0.0, 9.901951359278424e-05, 0.0, 0.0, 0.0, 0.0, 0.0, 0.0, 0.0, 0.0, 0.0, 0.0, 0.0, 0.0, 0.0, 0.0, 0.0, 0.0, 0.0, 0.0, 0.0, 0.0, 0.0)",0.111547453255,0.287148485496,-0.274953031516,0.0047269680036,0.0022313412655,0.0615239275656,"(0.0, 0.0, 0.0, 0.0, 0.0, 0.0, 0.0, 0.0, 0.0, 0.0, 0.0, 0.0, 0.0, 0.0, 0.0, 0.0, 0.0, 0.0, 0.0, 0.0, 0.0, 0.0, 0.0, 0.0, 0.0, 0.0, 0.0, 0.0, 0.0, 0.0, 0.0, 0.0, 0.0, 0.0, 0.0, 0.0)"
1970/01/01/01:00:10.885000,15,10,877000000,map,map,0.356253433722,2.03065894858,-0.602731974083,0.00058547059838,0.000149039076551,-0.68516923195,-0.728383636426,"(0.26532873856229905, 0.0, 0.0, 0.0, 0.0, 0.0, 0.0, 0.05176714388053849, 0.0, 0.0, 0.0, 0.0, 0.0, 0.0, 9.901257433187193e-05, 0.0, 0.0, 0.0, 0.0, 0.0, 0.0, 0.0, 0.0, 0.0, 0.0, 0.0, 0.0, 0.0, 0.0, 0.0, 0.0, 0.0, 0.0, 0.0, 0.0, 0.0)",0.106698280696,0.298997894519,-0.240186329025,-0.00767727364297,-0.00331393145823,0.0309632578891,"(0.0, 0.0, 0.0, 0.0, 0.0, 0.0, 0.0, 0.0, 0.0, 0.0, 0.0, 0.0, 0.0, 0.0, 0.0, 0.0, 0.0, 0.0, 0.0, 0.0, 0.0, 0.0, 0.0, 0.0, 0.0, 0.0, 0.0, 0.0, 0.0, 0.0, 0.0, 0.0, 0.0, 0.0, 0.0, 0.0)"
1970/01/01/01:00:10.927000,16,10,896000000,map,map,0.35632672487,2.0306790433,-0.574512933606,0.000618452544711,0.000192247107798,-0.685322495013,-0.728239477082,"(0.27532867110665993, 0.0, 0.0, 0.0, 0.0, 0.0, 0.0, 0.06176713880970836, 0.0, 0.0, 0.0, 0.0, 0.0, 0.0, 9.9019512925676e-05, 0.0, 0.0, 0.0, 0.0, 0.0, 0.0, 0.0, 0.0, 0.0, 0.0, 0.0, 0.0, 0.0, 0.0, 0.0, 0.0, 0.0, 0.0, 0.0, 0.0, 0.0)",0.109088416357,0.30859309454,-0.203373795337,0.00378390058414,-0.00201189713919,0.0223951810206,"(0.0, 0.0, 0.0, 0.0, 0.0, 0.0, 0.0, 0.0, 0.0, 0.0, 0.0, 0.0, 0.0, 0.0, 0.0, 0.0, 0.0, 0.0, 0.0, 0.0, 0.0, 0.0, 0.0, 0.0, 0.0, 0.0, 0.0, 0.0, 0.0, 0.0, 0.0, 0.0, 0.0, 0.0, 0.0, 0.0)"
1970/01/01/01:00:10.927000,17,10,916000000,map,map,0.356326586519,2.03067900537,-0.579945834902,0.00076740030995,4.30823521436e-05,-0.685489374143,-0.728082291727,"(0.28532867110017507, 0.0, 0.0, 0.0, 0.0, 0.0, 0.0, 0.07176713880922088, 0.0, 0.0, 0.0, 0.0, 0.0, 0.0, 9.90195135927195e-05, 0.0, 0.0, 0.0, 0.0, 0.0, 0.0, 0.0, 0.0, 0.0, 0.0, 0.0, 0.0, 0.0, 0.0, 0.0, 0.0, 0.0, 0.0, 0.0, 0.0, 0.0)",0.111287176018,0.317733785086,-0.117348632066,-0.020318664733,-0.000984397073961,0.0240259869663,"(0.0, 0.0, 0.0, 0.0, 0.0, 0.0, 0.0, 0.0, 0.0, 0.0, 0.0, 0.0, 0.0, 0.0, 0.0, 0.0, 0.0, 0.0, 0.0, 0.0, 0.0, 0.0, 0.0, 0.0, 0.0, 0.0, 0.0, 0.0, 0.0, 0.0, 0.0, 0.0, 0.0, 0.0, 0.0, 0.0)"
1970/01/01/01:00:10.969000,18,10,936000000,map,map,0.356326583167,2.03067900445,-0.593373736967,0.000800410470798,4.68153528461e-05,-0.685538372488,-0.728036159368,"(0.29532867110017447, 0.0, 0.0, 0.0, 0.0, 0.0, 0.0, 0.08176713880922083, 0.0, 0.0, 0.0, 0.0, 0.0, 0.0, 9.901951359278472e-05, 0.0, 0.0, 0.0, 0.0, 0.0, 0.0, 0.0, 0.0, 0.0, 0.0, 0.0, 0.0, 0.0, 0.0, 0.0, 0.0, 0.0, 0.0, 0.0, 0.0, 0.0)",0.113178783447,0.325960406577,-0.0508042104311,-0.00302889370972,-0.00476995554702,0.00404985729971,"(0.0, 0.0, 0.0, 0.0, 0.0, 0.0, 0.0, 0.0, 0.0, 0.0, 0.0, 0.0, 0.0, 0.0, 0.0, 0.0, 0.0, 0.0, 0.0, 0.0, 0.0, 0.0, 0.0, 0.0, 0.0, 0.0, 0.0, 0.0, 0.0, 0.0, 0.0, 0.0, 0.0, 0.0, 0.0, 0.0)"
1970/01/01/01:00:10.969000,19,10,956000000,map,map,0.356326583197,2.03067900446,-0.581092579704,0.000801720274666,6.83312778519e-05,-0.685615553905,-0.727963445517,"(0.3053286711001745, 0.0, 0.0, 0.0, 0.0, 0.0, 0.0, 0.09176713880922083, 0.0, 0.0, 0.0, 0.0, 0.0, 0.0, 9.901951359278314e-05, 0.0, 0.0, 0.0, 0.0, 0.0, 0.0, 0.0, 0.0, 0.0, 0.0, 0.0, 0.0, 0.0, 0.0, 0.0, 0.0, 0.0, 0.0, 0.0, 0.0, 0.0)",0.114792200257,0.333364365919,-0.0160368888305,0.00574795668864,-0.000500108702114,0.0147264189228,"(0.0, 0.0, 0.0, 0.0, 0.0, 0.0, 0.0, 0.0, 0.0, 0.0, 0.0, 0.0, 0.0, 0.0, 0.0, 0.0, 0.0, 0.0, 0.0, 0.0, 0.0, 0.0, 0.0, 0.0, 0.0, 0.0, 0.0, 0.0, 0.0, 0.0, 0.0, 0.0, 0.0, 0.0, 0.0, 0.0)"
1970/01/01/01:00:11.012000,20,10,976000000,map,map,0.356326583197,2.03067900446,-0.578082174149,0.000757765186413,6.37762489673e-05,-0.6857739062,-0.727814365529,"(0.3153286711001745, 0.0, 0.0, 0.0, 0.0, 0.0, 0.0, 0.10176713880922082, 0.0, 0.0, 0.0, 0.0, 0.0, 0.0, 9.901951359278424e-05, 0.0, 0.0, 0.0, 0.0, 0.0, 0.0, 0.0, 0.0, 0.0, 0.0, 0.0, 0.0, 0.0, 0.0, 0.0, 0.0, 0.0, 0.0, 0.0, 0.0, 0.0)",0.116153732361,0.340027929327,0.0339390375698,0.00877782572575,0.00476113808338,0.0213708164209,"(0.0, 0.0, 0.0, 0.0, 0.0, 0.0, 0.0, 0.0, 0.0, 0.0, 0.0, 0.0, 0.0, 0.0, 0.0, 0.0, 0.0, 0.0, 0.0, 0.0, 0.0, 0.0, 0.0, 0.0, 0.0, 0.0, 0.0, 0.0, 0.0, 0.0, 0.0, 0.0, 0.0, 0.0, 0.0, 0.0)"
1970/01/01/01:00:11.012000,21,10,996000000,map,map,0.356326583197,2.03067900446,-0.567119714886,0.000777252074051,0.000114654018826,-0.685980438929,-0.727619633918,"(0.3253286711001745, 0.0, 0.0, 0.0, 0.0, 0.0, 0.0, 0.11176713880922082, 0.0, 0.0, 0.0, 0.0, 0.0, 0.0, 9.901951359278424e-05, 0.0, 0.0, 0.0, 0.0, 0.0, 0.0, 0.0, 0.0, 0.0, 0.0, 0.0, 0.0, 0.0, 0.0, 0.0, 0.0, 0.0, 0.0, 0.0, 0.0, 0.0)",0.117287277494,0.346025136395,0.0794716842432,0.0035176430057,-0.0083600186722,0.0286601009476,"(0.0, 0.0, 0.0, 0.0, 0.0, 0.0, 0.0, 0.0, 0.0, 0.0, 0.0, 0.0, 0.0, 0.0, 0.0, 0.0, 0.0, 0.0, 0.0, 0.0, 0.0, 0.0, 0.0, 0.0, 0.0, 0.0, 0.0, 0.0, 0.0, 0.0, 0.0, 0.0, 0.0, 0.0, 0.0, 0.0)"
1970/01/01/01:00:11.059000,22,11,16000000,map,map,0.380235381662,1.99061316141,-0.554741261881,0.000778812392365,8.00225831383e-05,-0.686377505706,-0.727245073558,"(0.19751498274041462, 0.0, 0.0, 0.0, 0.0, 0.0, 0.0, 0.04549045006741822, 0.0, 0.0, 0.0, 0.0, 0.0, 0.0, 9.90081302960674e-05, 0.0, 0.0, 0.0, 0.0, 0.0, 0.0, 0.0, 0.0, 0.0, 0.0, 0.0, 0.0, 0.0, 0.0, 0.0, 0.0, 0.0, 0.0, 0.0, 0.0, 0.0)",0.118214545128,0.351422622755,0.133037265767,-0.00439368093506,0.00390713041952,0.045368805008,"(0.0, 0.0, 0.0, 0.0, 0.0, 0.0, 0.0, 0.0, 0.0, 0.0, 0.0, 0.0, 0.0, 0.0, 0.0, 0.0, 0.0, 0.0, 0.0, 0.0, 0.0, 0.0, 0.0, 0.0, 0.0, 0.0, 0.0, 0.0, 0.0, 0.0, 0.0, 0.0, 0.0, 0.0, 0.0, 0.0)"
1970/01/01/01:00:11.059000,23,11,36000000,map,map,0.380235381662,1.99061316141,-0.554741261881,0.000786609703396,9.85871380339e-05,-0.686635611689,-0.727001381797,"(0.20751498274041463, 0.0, 0.0, 0.0, 0.0, 0.0, 0.0, 0.05549045006741822, 0.0, 0.0, 0.0, 0.0, 0.0, 0.0, 0.010099008130296067, 0.0, 0.0, 0.0, 0.0, 0.0, 0.0, 0.0, 0.0, 0.0, 0.0, 0.0, 0.0, 0.0, 0.0, 0.0, 0.0, 0.0, 0.0, 0.0, 0.0, 0.0)",0.119911608116,0.35628036048,0.193871429853,0.000616254513178,-0.00161170164168,0.0475895952991,"(0.0, 0.0, 0.0, 0.0, 0.0, 0.0, 0.0, 0.0, 0.0, 0.0, 0.0, 0.0, 0.0, 0.0, 0.0, 0.0, 0.0, 0.0, 0.0, 0.0, 0.0, 0.0, 0.0, 0.0, 0.0, 0.0, 0.0, 0.0, 0.0, 0.0, 0.0, 0.0, 0.0, 0.0, 0.0, 0.0)"
1970/01/01/01:00:11.059000,24,11,56000000,map,map,0.380231895941,1.99060057349,-0.573503397526,0.000812081320046,8.79489894725e-05,-0.687059042636,-0.726601215909,"(0.21751498205011116, 0.0, 0.0, 0.0, 0.0, 0.0, 0.0, 0.06549044106493278, 0.0, 0.0, 0.0, 0.0, 0.0, 0.0, 9.950492618570822e-05, 0.0, 0.0, 0.0, 0.0, 0.0, 0.0, 0.0, 0.0, 0.0, 0.0, 0.0, 0.0, 0.0, 0.0, 0.0, 0.0, 0.0, 0.0, 0.0, 0.0, 0.0)",0.121344393168,0.360652324432,0.238104185596,-0.00177016188152,-0.000443403326419,0.0686503115841,"(0.0, 0.0, 0.0, 0.0, 0.0, 0.0, 0.0, 0.0, 0.0, 0.0, 0.0, 0.0, 0.0, 0.0, 0.0, 0.0, 0.0, 0.0, 0.0, 0.0, 0.0, 0.0, 0.0, 0.0, 0.0, 0.0, 0.0, 0.0, 0.0, 0.0, 0.0, 0.0, 0.0, 0.0, 0.0, 0.0)"
1970/01/01/01:00:11.103000,25,11,76000000,map,map,0.380231882876,1.99060052631,-0.580640974433,0.00078980576395,8.1008794698e-05,-0.687718355007,-0.725977222598,"(0.22751498205007767, 0.0, 0.0, 0.0, 0.0, 0.0, 0.0, 0.0754904410644958, 0.0, 0.0, 0.0, 0.0, 0.0, 0.0, 9.901956025587804e-05, 0.0, 0.0, 0.0, 0.0, 0.0, 0.0, 0.0, 0.0, 0.0, 0.0, 0.0, 0.0, 0.0, 0.0, 0.0, 0.0, 0.0, 0.0, 0.0, 0.0, 0.0)",0.122537831,0.364587091989,0.235757783122,0.00219353243951,0.00396188271469,0.0786919088984,"(0.0, 0.0, 0.0, 0.0, 0.0, 0.0, 0.0, 0.0, 0.0, 0.0, 0.0, 0.0, 0.0, 0.0, 0.0, 0.0, 0.0, 0.0, 0.0, 0.0, 0.0, 0.0, 0.0, 0.0, 0.0, 0.0, 0.0, 0.0, 0.0, 0.0, 0.0, 0.0, 0.0, 0.0, 0.0, 0.0)"
1970/01/01/01:00:11.103000,26,11,97000000,map,map,0.380231883222,1.99060052756,-0.561340112912,0.000853711252277,0.000150562701588,-0.688218705271,-0.725502834793,"(0.23751498205007768, 0.0, 0.0, 0.0, 0.0, 0.0, 0.0, 0.08549044106449576, 0.0, 0.0, 0.0, 0.0, 0.0, 0.0, 9.901951359727084e-05, 0.0, 0.0, 0.0, 0.0, 0.0, 0.0, 0.0, 0.0, 0.0, 0.0, 0.0, 0.0, 0.0, 0.0, 0.0, 0.0, 0.0, 0.0, 0.0, 0.0, 0.0)",0.123563699912,0.36830544733,0.212962398959,0.00351981264453,-0.0155507926016,0.0890840012569,"(0.0, 0.0, 0.0, 0.0, 0.0, 0.0, 0.0, 0.0, 0.0, 0.0, 0.0, 0.0, 0.0, 0.0, 0.0, 0.0, 0.0, 0.0, 0.0, 0.0, 0.0, 0.0, 0.0, 0.0, 0.0, 0.0, 0.0, 0.0, 0.0, 0.0, 0.0, 0.0, 0.0, 0.0, 0.0, 0.0)"
1970/01/01/01:00:11.117000,27,11,116000000,map,map,0.380231883222,1.99060052756,-0.561365657063,0.000852763833105,0.00021822701791,-0.688920774302,-0.72483608482,"(0.2475149820500777, 0.0, 0.0, 0.0, 0.0, 0.0, 0.0, 0.09549044106449575, 0.0, 0.0, 0.0, 0.0, 0.0, 0.0, 9.901951359278451e-05, 0.0, 0.0, 0.0, 0.0, 0.0, 0.0, 0.0, 0.0, 0.0, 0.0, 0.0, 0.0, 0.0, 0.0, 0.0, 0.0, 0.0, 0.0, 0.0, 0.0, 0.0)",0.1242966243,0.371316429833,0.219389877874,0.00464071772607,-0.00501511974813,0.0783976833454,"(0.0, 0.0, 0.0, 0.0, 0.0, 0.0, 0.0, 0.0, 0.0, 0.0, 0.0, 0.0, 0.0, 0.0, 0.0, 0.0, 0.0, 0.0, 0.0, 0.0, 0.0, 0.0, 0.0, 0.0, 0.0, 0.0, 0.0, 0.0, 0.0, 0.0, 0.0, 0.0, 0.0, 0.0, 0.0, 0.0)"
1970/01/01/01:00:11.136000,28,11,136000000,map,map,0.380231883222,1.99060052756,-0.546756673107,0.000906624624369,0.00022525920312,-0.689420272409,-0.724361031886,"(0.25751498205007767, 0.0, 0.0, 0.0, 0.0, 0.0, 0.0, 0.10549044106449575, 0.0, 0.0, 0.0, 0.0, 0.0, 0.0, 9.901951359278314e-05, 0.0, 0.0, 0.0, 0.0, 0.0, 0.0, 0.0, 0.0, 0.0, 0.0, 0.0, 0.0, 0.0, 0.0, 0.0, 0.0, 0.0, 0.0, 0.0, 0.0, 0.0)",0.124900922806,0.37418478685,0.218083766486,-0.00250257523177,-0.00663706551651,0.0864878900777,"(0.0, 0.0, 0.0, 0.0, 0.0, 0.0, 0.0, 0.0, 0.0, 0.0, 0.0, 0.0, 0.0, 0.0, 0.0, 0.0, 0.0, 0.0, 0.0, 0.0, 0.0, 0.0, 0.0, 0.0, 0.0, 0.0, 0.0, 0.0, 0.0, 0.0, 0.0, 0.0, 0.0, 0.0, 0.0, 0.0)"
1970/01/01/01:00:11.178000,29,11,157000000,map,map,0.380231883222,1.99060052756,-0.546005619456,0.000855061227359,0.000211946334881,-0.689961833071,-0.723845349389,"(0.2675149820500777, 0.0, 0.0, 0.0, 0.0, 0.0, 0.0, 0.11549044106449574, 0.0, 0.0, 0.0, 0.0, 0.0, 0.0, 9.901951359278424e-05, 0.0, 0.0, 0.0, 0.0, 0.0, 0.0, 0.0, 0.0, 0.0, 0.0, 0.0, 0.0, 0.0, 0.0, 0.0, 0.0, 0.0, 0.0, 0.0, 0.0, 0.0)",0.125367575729,0.376895384231,0.234873709117,0.00605565502029,0.00582505412491,0.0741538905413,"(0.0, 0.0, 0.0, 0.0, 0.0, 0.0, 0.0, 0.0, 0.0, 0.0, 0.0, 0.0, 0.0, 0.0, 0.0, 0.0, 0.0, 0.0, 0.0, 0.0, 0.0, 0.0, 0.0, 0.0, 0.0, 0.0, 0.0, 0.0, 0.0, 0.0, 0.0, 0.0, 0.0, 0.0, 0.0, 0.0)"
1970/01/01/01:00:11.179000,30,11,176000000,map,map,0.426869212691,1.99483767276,-0.541854394773,0.000830366034685,0.000176458297424,-0.690457772403,-0.723372253649,"(0.18642371752629322, 0.0, 0.0, 0.0, 0.0, 0.0, 0.0, 0.051075696940617615, 0.0, 0.0, 0.0, 0.0, 0.0, 0.0, 9.901951249702463e-05, 0.0, 0.0, 0.0, 0.0, 0.0, 0.0, 0.0, 0.0, 0.0, 0.0, 0.0, 0.0, 0.0, 0.0, 0.0, 0.0, 0.0, 0.0, 0.0, 0.0, 0.0)",0.125645782552,0.379090322729,0.240812403538,-0.00513636981717,0.00225016202129,0.0660877903205,"(0.0, 0.0, 0.0, 0.0, 0.0, 0.0, 0.0, 0.0, 0.0, 0.0, 0.0, 0.0, 0.0, 0.0, 0.0, 0.0, 0.0, 0.0, 0.0, 0.0, 0.0, 0.0, 0.0, 0.0, 0.0, 0.0, 0.0, 0.0, 0.0, 0.0, 0.0, 0.0, 0.0, 0.0, 0.0, 0.0)"
1970/01/01/01:00:11.222000,31,11,200000000,map,map,0.426869202991,1.99483761814,-0.545714354222,0.000766368329547,5.68914130905e-05,-0.690889227057,-0.722960186545,"(0.19642371752623008, 0.0, 0.0, 0.0, 0.0, 0.0, 0.0, 0.06107569693861558, 0.0, 0.0, 0.0, 0.0, 0.0, 0.0, 9.901951359267969e-05, 0.0, 0.0, 0.0, 0.0, 0.0, 0.0, 0.0, 0.0, 0.0, 0.0, 0.0, 0.0, 0.0, 0.0, 0.0, 0.0, 0.0, 0.0, 0.0, 0.0, 0.0)",0.128088073465,0.381599484001,0.246265874039,-0.00119755654432,0.0104763963177,0.0393717640438,"(0.0, 0.0, 0.0, 0.0, 0.0, 0.0, 0.0, 0.0, 0.0, 0.0, 0.0, 0.0, 0.0, 0.0, 0.0, 0.0, 0.0, 0.0, 0.0, 0.0, 0.0, 0.0, 0.0, 0.0, 0.0, 0.0, 0.0, 0.0, 0.0, 0.0, 0.0, 0.0, 0.0, 0.0, 0.0, 0.0)"
1970/01/01/01:00:11.222000,32,11,216000000,map,map,0.426869203053,1.99483761849,-0.543226769767,0.000705866487351,0.000113688448521,-0.691103560904,-0.72275546218,"(0.2064237175262301, 0.0, 0.0, 0.0, 0.0, 0.0, 0.0, 0.07107569693861539, 0.0, 0.0, 0.0, 0.0, 0.0, 0.0, 9.901951359278434e-05, 0.0, 0.0, 0.0, 0.0, 0.0, 0.0, 0.0, 0.0, 0.0, 0.0, 0.0, 0.0, 0.0, 0.0, 0.0, 0.0, 0.0, 0.0, 0.0, 0.0, 0.0)",0.129424387862,0.383071525281,0.236176356247,0.012173918958,-5.10135561781e-05,0.0349078878447,"(0.0, 0.0, 0.0, 0.0, 0.0, 0.0, 0.0, 0.0, 0.0, 0.0, 0.0, 0.0, 0.0, 0.0, 0.0, 0.0, 0.0, 0.0, 0.0, 0.0, 0.0, 0.0, 0.0, 0.0, 0.0, 0.0, 0.0, 0.0, 0.0, 0.0, 0.0, 0.0, 0.0, 0.0, 0.0, 0.0)"
1970/01/01/01:00:11.266000,33,11,236000000,map,map,0.426869203052,1.99483761848,-0.54719968126,0.000671418620944,4.59320182863e-05,-0.691361835474,-0.722508482964,"(0.2164237175262301, 0.0, 0.0, 0.0, 0.0, 0.0, 0.0, 0.08107569693861538, 0.0, 0.0, 0.0, 0.0, 0.0, 0.0, 9.901951359278314e-05, 0.0, 0.0, 0.0, 0.0, 0.0, 0.0, 0.0, 0.0, 0.0, 0.0, 0.0, 0.0, 0.0, 0.0, 0.0, 0.0, 0.0, 0.0, 0.0, 0.0, 0.0)",0.130879173054,0.384764372753,0.223161246683,-0.00361942449578,0.0100370635232,0.0345236323034,"(0.0, 0.0, 0.0, 0.0, 0.0, 0.0, 0.0, 0.0, 0.0, 0.0, 0.0, 0.0, 0.0, 0.0, 0.0, 0.0, 0.0, 0.0, 0.0, 0.0, 0.0, 0.0, 0.0, 0.0, 0.0, 0.0, 0.0, 0.0, 0.0, 0.0, 0.0, 0.0, 0.0, 0.0, 0.0, 0.0)"
1970/01/01/01:00:11.266000,34,11,256000000,map,map,0.426869203052,1.99483761848,-0.53762197291,0.000656440314223,7.01870768549e-05,-0.691687292121,-0.722196934777,"(0.2264237175262301, 0.0, 0.0, 0.0, 0.0, 0.0, 0.0, 0.09107569693861538, 0.0, 0.0, 0.0, 0.0, 0.0, 0.0, 9.901951359278424e-05, 0.0, 0.0, 0.0, 0.0, 0.0, 0.0, 0.0, 0.0, 0.0, 0.0, 0.0, 0.0, 0.0, 0.0, 0.0, 0.0, 0.0, 0.0, 0.0, 0.0, 0.0)",0.132084940216,0.386287935478,0.198255094668,0.00366415606251,-0.00379179901763,0.0377894007196,"(0.0, 0.0, 0.0, 0.0, 0.0, 0.0, 0.0, 0.0, 0.0, 0.0, 0.0, 0.0, 0.0, 0.0, 0.0, 0.0, 0.0, 0.0, 0.0, 0.0, 0.0, 0.0, 0.0, 0.0, 0.0, 0.0, 0.0, 0.0, 0.0, 0.0, 0.0, 0.0, 0.0, 0.0, 0.0, 0.0)"
1970/01/01/01:00:11.310000,35,11,277000000,map,map,0.426869203052,1.99483761848,-0.519147412535,0.000639750368008,7.69665044514e-05,-0.691841107045,-0.722049526175,"(0.23642371752623012, 0.0, 0.0, 0.0, 0.0, 0.0, 0.0, 0.10107569693861537, 0.0, 0.0, 0.0, 0.0, 0.0, 0.0, 9.901951359278424e-05, 0.0, 0.0, 0.0, 0.0, 0.0, 0.0, 0.0, 0.0, 0.0, 0.0, 0.0, 0.0, 0.0, 0.0, 0.0, 0.0, 0.0, 0.0, 0.0, 0.0, 0.0)",0.133065427324,0.38765914193,0.186854312084,0.00167877253844,0.000466736873566,0.0261574217122,"(0.0, 0.0, 0.0, 0.0, 0.0, 0.0, 0.0, 0.0, 0.0, 0.0, 0.0, 0.0, 0.0, 0.0, 0.0, 0.0, 0.0, 0.0, 0.0, 0.0, 0.0, 0.0, 0.0, 0.0, 0.0, 0.0, 0.0, 0.0, 0.0, 0.0, 0.0, 0.0, 0.0, 0.0, 0.0, 0.0)"
1970/01/01/01:00:11.310000,36,11,297000000,map,map,0.426869203052,1.99483761848,-0.535282356179,0.000645601247848,0.000101562112849,-0.692022595326,-0.721875540033,"(0.24642371752623013, 0.0, 0.0, 0.0, 0.0, 0.0, 0.0, 0.11107569693861537, 0.0, 0.0, 0.0, 0.0, 0.0, 0.0, 9.901951359278424e-05, 0.0, 0.0, 0.0, 0.0, 0.0, 0.0, 0.0, 0.0, 0.0, 0.0, 0.0, 0.0, 0.0, 0.0, 0.0, 0.0, 0.0, 0.0, 0.0, 0.0, 0.0)",0.133881036291,0.388954932027,0.202669207056,0.00413330471825,-0.00696746620427,0.017263181318,"(0.0, 0.0, 0.0, 0.0, 0.0, 0.0, 0.0, 0.0, 0.0, 0.0, 0.0, 0.0, 0.0, 0.0, 0.0, 0.0, 0.0, 0.0, 0.0, 0.0, 0.0, 0.0, 0.0, 0.0, 0.0, 0.0, 0.0, 0.0, 0.0, 0.0, 0.0, 0.0, 0.0, 0.0, 0.0, 0.0)"
1970/01/01/01:00:11.357000,37,11,322000000,map,map,0.615832635429,1.90320023918,-0.539414100408,0.000628944352336,0.000132233000127,-0.692159619999,-0.721744163038,"(0.17064428291500233, 0.0, 0.0, 0.0, 0.0, 0.0, 0.0, 0.038216690606870635, 0.0, 0.0, 0.0, 0.0, 0.0, 0.0, 9.900789745437185e-05, 0.0, 0.0, 0.0, 0.0, 0.0, 0.0, 0.0, 0.0, 0.0, 0.0, 0.0, 0.0, 0.0, 0.0, 0.0, 0.0, 0.0, 0.0, 0.0, 0.0, 0.0)",0.134610329528,0.390335565524,0.175753397154,0.00657942568573,0.000540874003814,0.0237883771683,"(0.0, 0.0, 0.0, 0.0, 0.0, 0.0, 0.0, 0.0, 0.0, 0.0, 0.0, 0.0, 0.0, 0.0, 0.0, 0.0, 0.0, 0.0, 0.0, 0.0, 0.0, 0.0, 0.0, 0.0, 0.0, 0.0, 0.0, 0.0, 0.0, 0.0, 0.0, 0.0, 0.0, 0.0, 0.0, 0.0)"
1970/01/01/01:00:11.357000,38,11,336000000,map,map,0.615831752902,1.90319400967,-0.5433875545,0.000565091424092,9.14632093417e-05,-0.692408274551,-0.721505708023,"(0.18064428242169234, 0.0, 0.0, 0.0, 0.0, 0.0, 0.0, 0.048216666027491493, 0.0, 0.0, 0.0, 0.0, 0.0, 0.0, 9.901951247606135e-05, 0.0, 0.0, 0.0, 0.0, 0.0, 0.0, 0.0, 0.0, 0.0, 0.0, 0.0, 0.0, 0.0, 0.0, 0.0, 0.0, 0.0, 0.0, 0.0, 0.0, 0.0)",0.140164942595,0.391012075937,0.153717203522,0.00218491589024,0.00583025106477,0.0249719091172,"(0.0, 0.0, 0.0, 0.0, 0.0, 0.0, 0.0, 0.0, 0.0, 0.0, 0.0, 0.0, 0.0, 0.0, 0.0, 0.0, 0.0, 0.0, 0.0, 0.0, 0.0, 0.0, 0.0, 0.0, 0.0, 0.0, 0.0, 0.0, 0.0, 0.0, 0.0, 0.0, 0.0, 0.0, 0.0, 0.0)"
1970/01/01/01:00:11.357000,39,11,356000000,map,map,0.615831795148,1.90319430788,-0.523987947459,0.000547918970548,1.05579090299e-06,-0.692653911653,-0.721269933284,"(0.1906442824216449, 0.0, 0.0, 0.0, 0.0, 0.0, 0.0, 0.058216666025128545, 0.0, 0.0, 0.0, 0.0, 0.0, 0.0, 9.90195135926771e-05, 0.0, 0.0, 0.0, 0.0, 0.0, 0.0, 0.0, 0.0, 0.0, 0.0, 0.0, 0.0, 0.0, 0.0, 0.0, 0.0, 0.0, 0.0, 0.0, 0.0, 0.0)",0.147469225727,0.391910868344,0.115920829545,-0.00402301874131,0.0104621510095,0.046179646447,"(0.0, 0.0, 0.0, 0.0, 0.0, 0.0, 0.0, 0.0, 0.0, 0.0, 0.0, 0.0, 0.0, 0.0, 0.0, 0.0, 0.0, 0.0, 0.0, 0.0, 0.0, 0.0, 0.0, 0.0, 0.0, 0.0, 0.0, 0.0, 0.0, 0.0, 0.0, 0.0, 0.0, 0.0, 0.0, 0.0)"
1970/01/01/01:00:11.400000,40,11,376000000,map,map,0.615831795078,1.90319430738,-0.527310216389,0.000484841807735,-1.74315290696e-05,-0.692937001498,-0.720998054501,"(0.20064428242164492, 0.0, 0.0, 0.0, 0.0, 0.0, 0.0, 0.06821666602512833, 0.0, 0.0, 0.0, 0.0, 0.0, 0.0, 9.901951359278432e-05, 0.0, 0.0, 0.0, 0.0, 0.0, 0.0, 0.0, 0.0, 0.0, 0.0, 0.0, 0.0, 0.0, 0.0, 0.0, 0.0, 0.0, 0.0, 0.0, 0.0, 0.0)",0.153930950281,0.392719781509,0.11289250198,0.00877185556649,0.00543728568659,0.033064870056,"(0.0, 0.0, 0.0, 0.0, 0.0, 0.0, 0.0, 0.0, 0.0, 0.0, 0.0, 0.0, 0.0, 0.0, 0.0, 0.0, 0.0, 0.0, 0.0, 0.0, 0.0, 0.0, 0.0, 0.0, 0.0, 0.0, 0.0, 0.0, 0.0, 0.0, 0.0, 0.0, 0.0, 0.0, 0.0, 0.0)"
1970/01/01/01:00:11.400000,41,11,396000000,map,map,0.615831795073,1.90319430735,-0.547773792028,0.000523388043569,-6.71279112397e-06,-0.693279519716,-0.720668686099,"(0.21064428242164493, 0.0, 0.0, 0.0, 0.0, 0.0, 0.0, 0.07821666602512832, 0.0, 0.0, 0.0, 0.0, 0.0, 0.0, 9.901951359278314e-05, 0.0, 0.0, 0.0, 0.0, 0.0, 0.0, 0.0, 0.0, 0.0, 0.0, 0.0, 0.0, 0.0, 0.0, 0.0, 0.0, 0.0, 0.0, 0.0, 0.0, 0.0)",0.159628526997,0.393447803358,0.101068697392,0.00207459459401,-0.0049845354209,0.0409207962688,"(0.0, 0.0, 0.0, 0.0, 0.0, 0.0, 0.0, 0.0, 0.0, 0.0, 0.0, 0.0, 0.0, 0.0, 0.0, 0.0, 0.0, 0.0, 0.0, 0.0, 0.0, 0.0, 0.0, 0.0, 0.0, 0.0, 0.0, 0.0, 0.0, 0.0, 0.0, 0.0, 0.0, 0.0, 0.0, 0.0)"
1970/01/01/01:00:11.417000,42,11,417000000,map,map,0.615831795073,1.90319430735,-0.523142025582,0.000443740275153,-5.90509657477e-05,-0.693596681336,-0.72036340989,"(0.22064428242164494, 0.0, 0.0, 0.0, 0.0, 0.0, 0.0, 0.08821666602512832, 0.0, 0.0, 0.0, 0.0, 0.0, 0.0, 9.901951359278424e-05, 0.0, 0.0, 0.0, 0.0, 0.0, 0.0, 0.0, 0.0, 0.0, 0.0, 0.0, 0.0, 0.0, 0.0, 0.0, 0.0, 0.0, 0.0, 0.0, 0.0, 0.0)",0.164883434995,0.394135784006,0.0513742066017,0.00615803482877,0.0112944094891,0.0553513662226,"(0.0, 0.0, 0.0, 0.0, 0.0, 0.0, 0.0, 0.0, 0.0, 0.0, 0.0, 0.0, 0.0, 0.0, 0.0, 0.0, 0.0, 0.0, 0.0, 0.0, 0.0, 0.0, 0.0, 0.0, 0.0, 0.0, 0.0, 0.0, 0.0, 0.0, 0.0, 0.0, 0.0, 0.0, 0.0, 0.0)"
1970/01/01/01:00:11.437000,43,11,436000000,map,map,0.615831795073,1.90319430735,-0.518462250388,0.00041264279509,-4.580942611e-05,-0.69394252257,-0.720030297004,"(0.23064428242164495, 0.0, 0.0, 0.0, 0.0, 0.0, 0.0, 0.09821666602512831, 0.0, 0.0, 0.0, 0.0, 0.0, 0.0, 9.901951359278424e-05, 0.0, 0.0, 0.0, 0.0, 0.0, 0.0, 0.0, 0.0, 0.0, 0.0, 0.0, 0.0, 0.0, 0.0, 0.0, 0.0, 0.0, 0.0, 0.0, 0.0, 0.0)",0.16901127574,0.394692884525,0.0514942403937,0.00307698761738,0.00250908078031,0.0416452189888,"(0.0, 0.0, 0.0, 0.0, 0.0, 0.0, 0.0, 0.0, 0.0, 0.0, 0.0, 0.0, 0.0, 0.0, 0.0, 0.0, 0.0, 0.0, 0.0, 0.0, 0.0, 0.0, 0.0, 0.0, 0.0, 0.0, 0.0, 0.0, 0.0, 0.0, 0.0, 0.0, 0.0, 0.0, 0.0, 0.0)"
1970/01/01/01:00:11.480000,44,11,456000000,map,map,0.638461190171,1.91002006166,-0.52264879855,0.000353988015892,-5.75917237258e-05,-0.694331055927,-0.719655672107,"(0.16778591499969106, 0.0, 0.0, 0.0, 0.0, 0.0, 0.0, 0.02812453421168106, 0.0, 0.0, 0.0, 0.0, 0.0, 0.0, 0.009983925378925866, 0.0, 0.0, 0.0, 0.0, 0.0, 0.0, 0.0, 0.0, 0.0, 0.0, 0.0, 0.0, 0.0, 0.0, 0.0, 0.0, 0.0, 0.0, 0.0, 0.0, 0.0)",0.172818275776,0.395223596073,0.057769360443,0.00538389483211,0.00349677959131,0.0539738835519,"(0.0, 0.0, 0.0, 0.0, 0.0, 0.0, 0.0, 0.0, 0.0, 0.0, 0.0, 0.0, 0.0, 0.0, 0.0, 0.0, 0.0, 0.0, 0.0, 0.0, 0.0, 0.0, 0.0, 0.0, 0.0, 0.0, 0.0, 0.0, 0.0, 0.0, 0.0, 0.0, 0.0, 0.0, 0.0, 0.0)"
1970/01/01/01:00:11.480000,45,11,477000000,map,map,0.638916569991,1.90522522542,-0.551663097261,0.000343210574878,-0.000100597386303,-0.694678194494,-0.719320671833,"(0.17778348001387886, 0.0, 0.0, 0.0, 0.0, 0.0, 0.0, 0.03785457606904249, 0.0, 0.0, 0.0, 0.0, 0.0, 0.0, 0.010099008322689406, 0.0, 0.0, 0.0, 0.0, 0.0, 0.0, 0.0, 0.0, 0.0, 0.0, 0.0, 0.0, 0.0, 0.0, 0.0, 0.0, 0.0, 0.0, 0.0, 0.0, 0.0)",0.177224355933,0.395725118485,0.053911703587,-0.00156333546892,0.00523091106328,0.0401400134468,"(0.0, 0.0, 0.0, 0.0, 0.0, 0.0, 0.0, 0.0, 0.0, 0.0, 0.0, 0.0, 0.0, 0.0, 0.0, 0.0, 0.0, 0.0, 0.0, 0.0, 0.0, 0.0, 0.0, 0.0, 0.0, 0.0, 0.0, 0.0, 0.0, 0.0, 0.0, 0.0, 0.0, 0.0, 0.0, 0.0)"
1970/01/01/01:00:11.523000,46,11,496000000,map,map,0.63891280621,1.90526485544,-0.527202353163,0.000259344337552,-0.000179374679784,-0.695030714686,-0.718980121346,"(0.1877834797771186, 0.0, 0.0, 0.0, 0.0, 0.0, 0.0, 0.04785454982027826, 0.0, 0.0, 0.0, 0.0, 0.0, 0.0, 0.010099019512516943, 0.0, 0.0, 0.0, 0.0, 0.0, 0.0, 0.0, 0.0, 0.0, 0.0, 0.0, 0.0, 0.0, 0.0, 0.0, 0.0, 0.0, 0.0, 0.0, 0.0, 0.0)",0.180671627242,0.396131232229,0.00329425989694,0.00204889008417,0.00663868136249,0.0376792419948,"(0.0, 0.0, 0.0, 0.0, 0.0, 0.0, 0.0, 0.0, 0.0, 0.0, 0.0, 0.0, 0.0, 0.0, 0.0, 0.0, 0.0, 0.0, 0.0, 0.0, 0.0, 0.0, 0.0, 0.0, 0.0, 0.0, 0.0, 0.0, 0.0, 0.0, 0.0, 0.0, 0.0, 0.0, 0.0, 0.0)"
1970/01/01/01:00:11.523000,47,11,516000000,map,map,0.638912806561,1.90526485175,-0.527665244795,0.000219987601281,-0.000210523111513,-0.695308972131,-0.718710883326,"(0.1977834797771071, 0.0, 0.0, 0.0, 0.0, 0.0, 0.0, 0.05785454981900411, 0.0, 0.0, 0.0, 0.0, 0.0, 0.0, 9.950492646468309e-05, 0.0, 0.0, 0.0, 0.0, 0.0, 0.0, 0.0, 0.0, 0.0, 0.0, 0.0, 0.0, 0.0, 0.0, 0.0, 0.0, 0.0, 0.0, 0.0, 0.0, 0.0)",0.183820765691,0.396518109006,-0.000803068156035,7.05650997442e-05,0.00589616409017,0.0368545914173,"(0.0, 0.0, 0.0, 0.0, 0.0, 0.0, 0.0, 0.0, 0.0, 0.0, 0.0, 0.0, 0.0, 0.0, 0.0, 0.0, 0.0, 0.0, 0.0, 0.0, 0.0, 0.0, 0.0, 0.0, 0.0, 0.0, 0.0, 0.0, 0.0, 0.0, 0.0, 0.0, 0.0, 0.0, 0.0, 0.0)"
1970/01/01/01:00:11.566000,48,11,536000000,map,map,0.638912806512,1.90526485227,-0.521092109197,0.000206825752603,-0.000149601707652,-0.695621128813,-0.718408926181,"(0.20778347977710712, 0.0, 0.0, 0.0, 0.0, 0.0, 0.0, 0.06785454981900406, 0.0, 0.0, 0.0, 0.0, 0.0, 0.0, 9.901956025590422e-05, 0.0, 0.0, 0.0, 0.0, 0.0, 0.0, 0.0, 0.0, 0.0, 0.0, 0.0, 0.0, 0.0, 0.0, 0.0, 0.0, 0.0, 0.0, 0.0, 0.0, 0.0)",0.186510453007,0.396866298105,-0.00496222531449,0.00401581643126,-0.00548093803003,0.0391815650585,"(0.0, 0.0, 0.0, 0.0, 0.0, 0.0, 0.0, 0.0, 0.0, 0.0, 0.0, 0.0, 0.0, 0.0, 0.0, 0.0, 0.0, 0.0, 0.0, 0.0, 0.0, 0.0, 0.0, 0.0, 0.0, 0.0, 0.0, 0.0, 0.0, 0.0, 0.0, 0.0, 0.0, 0.0, 0.0, 0.0)"
1970/01/01/01:00:11.566000,49,11,556000000,map,map,0.638912806512,1.90526485227,-0.522479783587,0.000223243866565,-0.000147715901143,-0.695848069836,-0.718188981535,"(0.21778347977710713, 0.0, 0.0, 0.0, 0.0, 0.0, 0.0, 0.07785454981900405, 0.0, 0.0, 0.0, 0.0, 0.0, 0.0, 9.901951359726997e-05, 0.0, 0.0, 0.0, 0.0, 0.0, 0.0, 0.0, 0.0, 0.0, 0.0, 0.0, 0.0, 0.0, 0.0, 0.0, 0.0, 0.0, 0.0, 0.0, 0.0, 0.0)",0.188784114977,0.397179668295,0.00269244389456,-0.000938963167572,-0.000804340789177,0.0277884634623,"(0.0, 0.0, 0.0, 0.0, 0.0, 0.0, 0.0, 0.0, 0.0, 0.0, 0.0, 0.0, 0.0, 0.0, 0.0, 0.0, 0.0, 0.0, 0.0, 0.0, 0.0, 0.0, 0.0, 0.0, 0.0, 0.0, 0.0, 0.0, 0.0, 0.0, 0.0, 0.0, 0.0, 0.0, 0.0, 0.0)"
1970/01/01/01:00:11.609000,50,11,576000000,map,map,0.638912806512,1.90526485227,-0.519343588434,0.00011459445399,-6.33367399639e-05,-0.69610158774,-0.717943302946,"(0.22778347977710714, 0.0, 0.0, 0.0, 0.0, 0.0, 0.0, 0.08785454981900405, 0.0, 0.0, 0.0, 0.0, 0.0, 0.0, 9.90195135927845e-05, 0.0, 0.0, 0.0, 0.0, 0.0, 0.0, 0.0, 0.0, 0.0, 0.0, 0.0, 0.0, 0.0, 0.0, 0.0, 0.0, 0.0, 0.0, 0.0, 0.0, 0.0)",0.190681202388,0.397461701465,0.00666879612073,0.0177369982866,0.00126149123054,0.0301370128713,"(0.0, 0.0, 0.0, 0.0, 0.0, 0.0, 0.0, 0.0, 0.0, 0.0, 0.0, 0.0, 0.0, 0.0, 0.0, 0.0, 0.0, 0.0, 0.0, 0.0, 0.0, 0.0, 0.0, 0.0, 0.0, 0.0, 0.0, 0.0, 0.0, 0.0, 0.0, 0.0, 0.0, 0.0, 0.0, 0.0)"
1970/01/01/01:00:11.609000,51,11,596000000,map,map,0.723878525057,1.96243072864,-0.545014016269,0.000137065990102,-0.000105630298557,-0.696387629181,-0.717665943755,"(0.16601275580682706, 0.0, 0.0, 0.0, 0.0, 0.0, 0.0, 0.025881804071778196, 0.0, 0.0, 0.0, 0.0, 0.0, 0.0, 9.900867786217889e-05, 0.0, 0.0, 0.0, 0.0, 0.0, 0.0, 0.0, 0.0, 0.0, 0.0, 0.0, 0.0, 0.0, 0.0, 0.0, 0.0, 0.0, 0.0, 0.0, 0.0, 0.0)",0.192237553765,0.397715531319,0.0149871216943,-0.00767263742914,0.00253371446018,0.0361613511876,"(0.0, 0.0, 0.0, 0.0, 0.0, 0.0, 0.0, 0.0, 0.0, 0.0, 0.0, 0.0, 0.0, 0.0, 0.0, 0.0, 0.0, 0.0, 0.0, 0.0, 0.0, 0.0, 0.0, 0.0, 0.0, 0.0, 0.0, 0.0, 0.0, 0.0, 0.0, 0.0, 0.0, 0.0, 0.0, 0.0)"
1970/01/01/01:00:11.631000,52,11,616000000,map,map,0.723879304641,1.96245558898,-0.527613584513,0.000121457025403,-0.000214534337624,-0.696526998272,-0.717530536468,"(0.1760127557867544, 0.0, 0.0, 0.0, 0.0, 0.0, 0.0, 0.03588178365940515, 0.0, 0.0, 0.0, 0.0, 0.0, 0.0, 9.901951255108604e-05, 0.0, 0.0, 0.0, 0.0, 0.0, 0.0, 0.0, 0.0, 0.0, 0.0, 0.0, 0.0, 0.0, 0.0, 0.0, 0.0, 0.0, 0.0, 0.0, 0.0, 0.0)",0.196884353785,0.397943978187,-0.021364557442,-0.007342347888,0.010100167287,0.0126671796306,"(0.0, 0.0, 0.0, 0.0, 0.0, 0.0, 0.0, 0.0, 0.0, 0.0, 0.0, 0.0, 0.0, 0.0, 0.0, 0.0, 0.0, 0.0, 0.0, 0.0, 0.0, 0.0, 0.0, 0.0, 0.0, 0.0, 0.0, 0.0, 0.0, 0.0, 0.0, 0.0, 0.0, 0.0, 0.0, 0.0)"
1970/01/01/01:00:11.645000,53,11,645000000,map,map,0.723879308158,1.96245570116,-0.519605367339,8.39763917564e-05,-0.000195730921432,-0.696718104596,-0.717344993528,"(0.18601275578675247, 0.0, 0.0, 0.0, 0.0, 0.0, 0.0, 0.0458817836574428, 0.0, 0.0, 0.0, 0.0, 0.0, 0.0, 9.901951359268391e-05, 0.0, 0.0, 0.0, 0.0, 0.0, 0.0, 0.0, 0.0, 0.0, 0.0, 0.0, 0.0, 0.0, 0.0, 0.0, 0.0, 0.0, 0.0, 0.0, 0.0, 0.0)",0.202725477464,0.39824210135,-0.0222058393788,0.0056962322958,0.00235502210298,0.0327361440576,"(0.0, 0.0, 0.0, 0.0, 0.0, 0.0, 0.0, 0.0, 0.0, 0.0, 0.0, 0.0, 0.0, 0.0, 0.0, 0.0, 0.0, 0.0, 0.0, 0.0, 0.0, 0.0, 0.0, 0.0, 0.0, 0.0, 0.0, 0.0, 0.0, 0.0, 0.0, 0.0, 0.0, 0.0, 0.0, 0.0)"
1970/01/01/01:00:11.689000,54,11,656000000,map,map,0.723879308071,1.96245569839,-0.539800674864,4.33915645145e-05,-0.000169817159029,-0.696918146051,-0.717150768338,"(0.19601275578675248, 0.0, 0.0, 0.0, 0.0, 0.0, 0.0, 0.05588178365744261, 0.0, 0.0, 0.0, 0.0, 0.0, 0.0, 9.901951359278327e-05, 0.0, 0.0, 0.0, 0.0, 0.0, 0.0, 0.0, 0.0, 0.0, 0.0, 0.0, 0.0, 0.0, 0.0, 0.0, 0.0, 0.0, 0.0, 0.0, 0.0, 0.0)",0.204494202158,0.398338785776,-0.0145235984128,0.00354054538889,-0.00324188792998,0.0273324366129,"(0.0, 0.0, 0.0, 0.0, 0.0, 0.0, 0.0, 0.0, 0.0, 0.0, 0.0, 0.0, 0.0, 0.0, 0.0, 0.0, 0.0, 0.0, 0.0, 0.0, 0.0, 0.0, 0.0, 0.0, 0.0, 0.0, 0.0, 0.0, 0.0, 0.0, 0.0, 0.0, 0.0, 0.0, 0.0, 0.0)"
1970/01/01/01:00:11.689000,55,11,676000000,map,map,0.723879308071,1.96245569838,-0.541466965691,-1.58360094936e-05,-0.00018650703836,-0.697147681739,-0.71692763897,"(0.2060127557867525, 0.0, 0.0, 0.0, 0.0, 0.0, 0.0, 0.06588178365744261, 0.0, 0.0, 0.0, 0.0, 0.0, 0.0, 9.901951359278424e-05, 0.0, 0.0, 0.0, 0.0, 0.0, 0.0, 0.0, 0.0, 0.0, 0.0, 0.0, 0.0, 0.0, 0.0, 0.0, 0.0, 0.0, 0.0, 0.0, 0.0, 0.0)",0.207443993555,0.398504907198,-0.0353440745783,0.00356034230598,0.00701718540413,0.0327506619082,"(0.0, 0.0, 0.0, 0.0, 0.0, 0.0, 0.0, 0.0, 0.0, 0.0, 0.0, 0.0, 0.0, 0.0, 0.0, 0.0, 0.0, 0.0, 0.0, 0.0, 0.0, 0.0, 0.0, 0.0, 0.0, 0.0, 0.0, 0.0, 0.0, 0.0, 0.0, 0.0, 0.0, 0.0, 0.0, 0.0)"
1970/01/01/01:00:11.731000,56,11,700000000,map,map,0.723879308071,1.96245569838,-0.564463946358,-6.80329623345e-05,-0.000216949456999,-0.697380267147,-0.716701291296,"(0.2160127557867525, 0.0, 0.0, 0.0, 0.0, 0.0, 0.0, 0.07588178365744261, 0.0, 0.0, 0.0, 0.0, 0.0, 0.0, 9.901951359278424e-05, 0.0, 0.0, 0.0, 0.0, 0.0, 0.0, 0.0, 0.0, 0.0, 0.0, 0.0, 0.0, 0.0, 0.0, 0.0, 0.0, 0.0, 0.0, 0.0, 0.0, 0.0)",0.210433453831,0.398684318334,-0.0580833694146,-0.00094888032585,0.00742067440567,0.0322980872325,"(0.0, 0.0, 0.0, 0.0, 0.0, 0.0, 0.0, 0.0, 0.0, 0.0, 0.0, 0.0, 0.0, 0.0, 0.0, 0.0, 0.0, 0.0, 0.0, 0.0, 0.0, 0.0, 0.0, 0.0, 0.0, 0.0, 0.0, 0.0, 0.0, 0.0, 0.0, 0.0, 0.0, 0.0, 0.0, 0.0)"
1970/01/01/01:00:11.731000,57,11,716000000,map,map,0.723879308071,1.96245569838,-0.538663164134,-3.22364893834e-05,-0.000141412292533,-0.697662618105,-0.716426526771,"(0.2260127557867525, 0.0, 0.0, 0.0, 0.0, 0.0, 0.0, 0.0858817836574426, 0.0, 0.0, 0.0, 0.0, 0.0, 0.0, 9.901951359278424e-05, 0.0, 0.0, 0.0, 0.0, 0.0, 0.0, 0.0, 0.0, 0.0, 0.0, 0.0, 0.0, 0.0, 0.0, 0.0, 0.0, 0.0, 0.0, 0.0, 0.0, 0.0)",0.212027953538,0.398789572868,-0.0991362426344,0.00343653926695,-0.00429889678062,0.0375623792731,"(0.0, 0.0, 0.0, 0.0, 0.0, 0.0, 0.0, 0.0, 0.0, 0.0, 0.0, 0.0, 0.0, 0.0, 0.0, 0.0, 0.0, 0.0, 0.0, 0.0, 0.0, 0.0, 0.0, 0.0, 0.0, 0.0, 0.0, 0.0, 0.0, 0.0, 0.0, 0.0, 0.0, 0.0, 0.0, 0.0)"
1970/01/01/01:00:11.776000,58,11,736000000,map,map,0.732816114418,1.96044803122,-0.541435575145,-0.000104367466149,-0.000162908811055,-0.697930888723,-0.716165168237,"(0.16053160576536415, 0.0, 0.0, 0.0, 0.0, 0.0, 0.0, 0.02450584305259976, 0.0, 0.0, 0.0, 0.0, 0.0, 0.0, 9.900747347673117e-05, 0.0, 0.0, 0.0, 0.0, 0.0, 0.0, 0.0, 0.0, 0.0, 0.0, 0.0, 0.0, 0.0, 0.0, 0.0, 0.0, 0.0, 0.0, 0.0, 0.0, 0.0)",0.213726950792,0.398910615581,-0.0976915659575,0.00429828611264,0.00832056444793,0.0416247155628,"(0.0, 0.0, 0.0, 0.0, 0.0, 0.0, 0.0, 0.0, 0.0, 0.0, 0.0, 0.0, 0.0, 0.0, 0.0, 0.0, 0.0, 0.0, 0.0, 0.0, 0.0, 0.0, 0.0, 0.0, 0.0, 0.0, 0.0, 0.0, 0.0, 0.0, 0.0, 0.0, 0.0, 0.0, 0.0, 0.0)"
1970/01/01/01:00:11.776000,59,11,756000000,map,map,0.732817351501,1.96041201535,-0.564851057757,-0.000188535972831,-0.000164857161286,-0.69815717186,-0.715944448484,"(0.17053160573745216, 0.0, 0.0, 0.0, 0.0, 0.0, 0.0, 0.034505819394430225, 0.0, 0.0, 0.0, 0.0, 0.0, 0.0, 9.901951243530232e-05, 0.0, 0.0, 0.0, 0.0, 0.0, 0.0, 0.0, 0.0, 0.0, 0.0, 0.0, 0.0, 0.0, 0.0, 0.0, 0.0, 0.0, 0.0, 0.0, 0.0, 0.0)",0.215443898211,0.399019554023,-0.097851968213,0.00881289474189,0.00712532752984,0.0320515853415,"(0.0, 0.0, 0.0, 0.0, 0.0, 0.0, 0.0, 0.0, 0.0, 0.0, 0.0, 0.0, 0.0, 0.0, 0.0, 0.0, 0.0, 0.0, 0.0, 0.0, 0.0, 0.0, 0.0, 0.0, 0.0, 0.0, 0.0, 0.0, 0.0, 0.0, 0.0, 0.0, 0.0, 0.0, 0.0, 0.0)"
1970/01/01/01:00:11.819000,60,11,776000000,map,map,0.732817348469,1.96041210361,-0.558998620225,-0.000149985070591,-0.000299528726002,-0.698365952859,-0.7157408094,"(0.18053160573744947, 0.0, 0.0, 0.0, 0.0, 0.0, 0.0, 0.04450581939215584, 0.0, 0.0, 0.0, 0.0, 0.0, 0.0, 9.901951359267213e-05, 0.0, 0.0, 0.0, 0.0, 0.0, 0.0, 0.0, 0.0, 0.0, 0.0, 0.0, 0.0, 0.0, 0.0, 0.0, 0.0, 0.0, 0.0, 0.0, 0.0, 0.0)",0.216818218811,0.39911759862,-0.133749708838,-0.0154350026209,0.00981291379049,0.0300440968571,"(0.0, 0.0, 0.0, 0.0, 0.0, 0.0, 0.0, 0.0, 0.0, 0.0, 0.0, 0.0, 0.0, 0.0, 0.0, 0.0, 0.0, 0.0, 0.0, 0.0, 0.0, 0.0, 0.0, 0.0, 0.0, 0.0, 0.0, 0.0, 0.0, 0.0, 0.0, 0.0, 0.0, 0.0, 0.0, 0.0)"
1970/01/01/01:00:11.819000,61,11,796000000,map,map,0.732817348481,1.96041210326,-0.561395559563,-0.000116324324363,-0.000212044632938,-0.698586905078,-0.715525167683,"(0.19053160573744948, 0.0, 0.0, 0.0, 0.0, 0.0, 0.0, 0.05450581939215562, 0.0, 0.0, 0.0, 0.0, 0.0, 0.0, 9.901951359278428e-05, 0.0, 0.0, 0.0, 0.0, 0.0, 0.0, 0.0, 0.0, 0.0, 0.0, 0.0, 0.0, 0.0, 0.0, 0.0, 0.0, 0.0, 0.0, 0.0, 0.0, 0.0)",0.217882752111,0.399205838758,-0.149452106512,0.00604984148326,-0.00620631600642,0.0294822396074,"(0.0, 0.0, 0.0, 0.0, 0.0, 0.0, 0.0, 0.0, 0.0, 0.0, 0.0, 0.0, 0.0, 0.0, 0.0, 0.0, 0.0, 0.0, 0.0, 0.0, 0.0, 0.0, 0.0, 0.0, 0.0, 0.0, 0.0, 0.0, 0.0, 0.0, 0.0, 0.0, 0.0, 0.0, 0.0, 0.0)"
1970/01/01/01:00:11.819000,62,11,816000000,map,map,0.73281734848,1.96041210328,-0.544962078853,-9.0749470572e-05,-0.000163608283075,-0.69874311908,-0.715372746899,"(0.2005316057374495, 0.0, 0.0, 0.0, 0.0, 0.0, 0.0, 0.06450581939215562, 0.0, 0.0, 0.0, 0.0, 0.0, 0.0, 9.901951359278424e-05, 0.0, 0.0, 0.0, 0.0, 0.0, 0.0, 0.0, 0.0, 0.0, 0.0, 0.0, 0.0, 0.0, 0.0, 0.0, 0.0, 0.0, 0.0, 0.0, 0.0, 0.0)",0.218667377506,0.399285254883,-0.16155059992,0.000945620979418,-0.00710426880299,0.0301315518929,"(0.0, 0.0, 0.0, 0.0, 0.0, 0.0, 0.0, 0.0, 0.0, 0.0, 0.0, 0.0, 0.0, 0.0, 0.0, 0.0, 0.0, 0.0, 0.0, 0.0, 0.0, 0.0, 0.0, 0.0, 0.0, 0.0, 0.0, 0.0, 0.0, 0.0, 0.0, 0.0, 0.0, 0.0, 0.0, 0.0)"
1970/01/01/01:00:11.867000,63,11,837000000,map,map,0.73281734848,1.96041210328,-0.562470272709,-0.000135943546006,-0.000101601895625,-0.698909375885,-0.71521028331,"(0.2105316057374495, 0.0, 0.0, 0.0, 0.0, 0.0, 0.0, 0.07450581939215561, 0.0, 0.0, 0.0, 0.0, 0.0, 0.0, 9.901951359278424e-05, 0.0, 0.0, 0.0, 0.0, 0.0, 0.0, 0.0, 0.0, 0.0, 0.0, 0.0, 0.0, 0.0, 0.0, 0.0, 0.0, 0.0, 0.0, 0.0, 0.0, 0.0)",0.219225826993,0.39936030312,-0.137723919412,0.00688923294767,0.00178117700391,0.0263462431592,"(0.0, 0.0, 0.0, 0.0, 0.0, 0.0, 0.0, 0.0, 0.0, 0.0, 0.0, 0.0, 0.0, 0.0, 0.0, 0.0, 0.0, 0.0, 0.0, 0.0, 0.0, 0.0, 0.0, 0.0, 0.0, 0.0, 0.0, 0.0, 0.0, 0.0, 0.0, 0.0, 0.0, 0.0, 0.0, 0.0)"
1970/01/01/01:00:11.867000,64,11,856000000,map,map,0.73281734848,1.96041210328,-0.562470272709,-0.000128974071725,-6.64241921227e-05,-0.699001700532,-0.715120066005,"(0.2205316057374495, 0.0, 0.0, 0.0, 0.0, 0.0, 0.0, 0.08450581939215561, 0.0, 0.0, 0.0, 0.0, 0.0, 0.0, 0.010099019513592784, 0.0, 0.0, 0.0, 0.0, 0.0, 0.0, 0.0, 0.0, 0.0, 0.0, 0.0, 0.0, 0.0, 0.0, 0.0, 0.0, 0.0, 0.0, 0.0, 0.0, 0.0)",0.219503541546,0.399421074323,-0.143043265359,-0.00331853705992,-0.00268804963722,0.017338681396,"(0.0, 0.0, 0.0, 0.0, 0.0, 0.0, 0.0, 0.0, 0.0, 0.0, 0.0, 0.0, 0.0, 0.0, 0.0, 0.0, 0.0, 0.0, 0.0, 0.0, 0.0, 0.0, 0.0, 0.0, 0.0, 0.0, 0.0, 0.0, 0.0, 0.0, 0.0, 0.0, 0.0, 0.0, 0.0, 0.0)"
1970/01/01/01:00:11.877000,65,11,876000000,map,map,0.70178186053,1.85192467885,-0.549102250833,-9.1411445428e-05,-5.36521419843e-05,-0.699097619515,-0.715026254364,"(0.15864973547953215, 0.0, 0.0, 0.0, 0.0, 0.0, 0.0, 0.024385084395663524, 0.0, 0.0, 0.0, 0.0, 0.0, 0.0, 9.949316932173569e-05, 0.0, 0.0, 0.0, 0.0, 0.0, 0.0, 0.0, 0.0, 0.0, 0.0, 0.0, 0.0, 0.0, 0.0, 0.0, 0.0, 0.0, 0.0, 0.0, 0.0, 0.0)",0.219601489571,0.399478966891,-0.143217450244,0.00118055302728,-0.00173207479354,0.0191520206499,"(0.0, 0.0, 0.0, 0.0, 0.0, 0.0, 0.0, 0.0, 0.0, 0.0, 0.0, 0.0, 0.0, 0.0, 0.0, 0.0, 0.0, 0.0, 0.0, 0.0, 0.0, 0.0, 0.0, 0.0, 0.0, 0.0, 0.0, 0.0, 0.0, 0.0, 0.0, 0.0, 0.0, 0.0, 0.0, 0.0)"
1970/01/01/01:00:11.898000,66,11,897000000,map,map,0.70176545977,1.85094279363,-0.555695244747,-0.000145446248075,-5.00932941486e-05,-0.699150964255,-0.714974089737,"(0.16864973517247367, 0.0, 0.0, 0.0, 0.0, 0.0, 0.0, 0.03438398383346168, 0.0, 0.0, 0.0, 0.0, 0.0, 0.0, 0.010049872970417989, 0.0, 0.0, 0.0, 0.0, 0.0, 0.0, 0.0, 0.0, 0.0, 0.0, 0.0, 0.0, 0.0, 0.0, 0.0, 0.0, 0.0, 0.0, 0.0, 0.0, 0.0)",0.218206176985,0.399533675368,-0.114963212978,0.00436993312335,0.00406404671221,0.00927763245441,"(0.0, 0.0, 0.0, 0.0, 0.0, 0.0, 0.0, 0.0, 0.0, 0.0, 0.0, 0.0, 0.0, 0.0, 0.0, 0.0, 0.0, 0.0, 0.0, 0.0, 0.0, 0.0, 0.0, 0.0, 0.0, 0.0, 0.0, 0.0, 0.0, 0.0, 0.0, 0.0, 0.0, 0.0, 0.0, 0.0)"
1970/01/01/01:00:11.939000,67,11,916000000,map,map,0.701765385239,1.85093833159,-0.567740097646,-0.000104885417192,-9.6558141182e-05,-0.699216639581,-0.714909847403,"(0.17864973517170982, 0.0, 0.0, 0.0, 0.0, 0.0, 0.0, 0.044383981095582684, 0.0, 0.0, 0.0, 0.0, 0.0, 0.0, 9.95037189557128e-05, 0.0, 0.0, 0.0, 0.0, 0.0, 0.0, 0.0, 0.0, 0.0, 0.0, 0.0, 0.0, 0.0, 0.0, 0.0, 0.0, 0.0, 0.0, 0.0, 0.0, 0.0)",0.216900440791,0.399577976208,-0.100445087342,-0.00457471568986,0.00209768961523,0.0165456803585,"(0.0, 0.0, 0.0, 0.0, 0.0, 0.0, 0.0, 0.0, 0.0, 0.0, 0.0, 0.0, 0.0, 0.0, 0.0, 0.0, 0.0, 0.0, 0.0, 0.0, 0.0, 0.0, 0.0, 0.0, 0.0, 0.0, 0.0, 0.0, 0.0, 0.0, 0.0, 0.0, 0.0, 0.0, 0.0, 0.0)"
1970/01/01/01:00:11.939000,68,11,936000000,map,map,0.701765386672,1.8509384174,-0.544230785951,-6.75996374758e-05,-0.00012062917579,-0.69932958194,-0.714799433855,"(0.1886497351717098, 0.0, 0.0, 0.0, 0.0, 0.0, 0.0, 0.054383981095449466, 0.0, 0.0, 0.0, 0.0, 0.0, 0.0, 9.901956013983092e-05, 0.0, 0.0, 0.0, 0.0, 0.0, 0.0, 0.0, 0.0, 0.0, 0.0, 0.0, 0.0, 0.0, 0.0, 0.0, 0.0, 0.0, 0.0, 0.0, 0.0, 0.0)",0.215490715582,0.399620178587,-0.104500728045,-0.00657771245459,-0.00538228613148,0.020942674182,"(0.0, 0.0, 0.0, 0.0, 0.0, 0.0, 0.0, 0.0, 0.0, 0.0, 0.0, 0.0, 0.0, 0.0, 0.0, 0.0, 0.0, 0.0, 0.0, 0.0, 0.0, 0.0, 0.0, 0.0, 0.0, 0.0, 0.0, 0.0, 0.0, 0.0, 0.0, 0.0, 0.0, 0.0, 0.0, 0.0)"
1970/01/01/01:00:11.982000,69,11,956000000,map,map,0.701765386657,1.85093841652,-0.568763967225,-0.000129604660247,-0.00015472382439,-0.699441638556,-0.714689653168,"(0.1986497351717098, 0.0, 0.0, 0.0, 0.0, 0.0, 0.0, 0.06438398109544945, 0.0, 0.0, 0.0, 0.0, 0.0, 0.0, 9.901951359725871e-05, 0.0, 0.0, 0.0, 0.0, 0.0, 0.0, 0.0, 0.0, 0.0, 0.0, 0.0, 0.0, 0.0, 0.0, 0.0, 0.0, 0.0, 0.0, 0.0, 0.0, 0.0)",0.214048442599,0.399658160728,-0.0652148848699,0.00196678259025,0.0085016038173,0.0180536219574,"(0.0, 0.0, 0.0, 0.0, 0.0, 0.0, 0.0, 0.0, 0.0, 0.0, 0.0, 0.0, 0.0, 0.0, 0.0, 0.0, 0.0, 0.0, 0.0, 0.0, 0.0, 0.0, 0.0, 0.0, 0.0, 0.0, 0.0, 0.0, 0.0, 0.0, 0.0, 0.0, 0.0, 0.0, 0.0, 0.0)"
1970/01/01/01:00:11.982000,70,11,976000000,map,map,0.701765386657,1.85093841652,-0.558331404541,-0.000138794808347,-0.000131303270335,-0.69959368002,-0.714540899159,"(0.20864973517170982, 0.0, 0.0, 0.0, 0.0, 0.0, 0.0, 0.07438398109544944, 0.0, 0.0, 0.0, 0.0, 0.0, 0.0, 9.90195135927844e-05, 0.0, 0.0, 0.0, 0.0, 0.0, 0.0, 0.0, 0.0, 0.0, 0.0, 0.0, 0.0, 0.0, 0.0, 0.0, 0.0, 0.0, 0.0, 0.0, 0.0, 0.0)",0.212578004341,0.399692344655,-0.0711914881855,0.00293499586436,-1.94895683585e-05,0.0237343965132,"(0.0, 0.0, 0.0, 0.0, 0.0, 0.0, 0.0, 0.0, 0.0, 0.0, 0.0, 0.0, 0.0, 0.0, 0.0, 0.0, 0.0, 0.0, 0.0, 0.0, 0.0, 0.0, 0.0, 0.0, 0.0, 0.0, 0.0, 0.0, 0.0, 0.0, 0.0, 0.0, 0.0, 0.0, 0.0, 0.0)"
1970/01/01/01:00:12.027000,71,11,996000000,map,map,0.701765386657,1.85093841652,-0.563246005225,-0.000152561905088,-0.000140568129795,-0.699736904889,-0.714400624569,"(0.21864973517170982, 0.0, 0.0, 0.0, 0.0, 0.0, 0.0, 0.08438398109544944, 0.0, 0.0, 0.0, 0.0, 0.0, 0.0, 9.901951359278314e-05, 0.0, 0.0, 0.0, 0.0, 0.0, 0.0, 0.0, 0.0, 0.0, 0.0, 0.0, 0.0, 0.0, 0.0, 0.0, 0.0, 0.0, 0.0, 0.0, 0.0, 0.0)",0.211083371155,0.39972311019,-0.0564113368697,0.00202224311323,0.00343954098429,0.0210919797018,"(0.0, 0.0, 0.0, 0.0, 0.0, 0.0, 0.0, 0.0, 0.0, 0.0, 0.0, 0.0, 0.0, 0.0, 0.0, 0.0, 0.0, 0.0, 0.0, 0.0, 0.0, 0.0, 0.0, 0.0, 0.0, 0.0, 0.0, 0.0, 0.0, 0.0, 0.0, 0.0, 0.0, 0.0, 0.0, 0.0)"
1970/01/01/01:00:12.027000,72,12,17000000,map,map,0.682475435656,1.79945876869,-0.557500430712,-6.26165469437e-05,-0.000162688136906,-0.699907111644,-0.71423395815,"(0.16510230794110808, 0.0, 0.0, 0.0, 0.0, 0.0, 0.0, 0.024308179009040597, 0.0, 0.0, 0.0, 0.0, 0.0, 0.0, 9.900980083178182e-05, 0.0, 0.0, 0.0, 0.0, 0.0, 0.0, 0.0, 0.0, 0.0, 0.0, 0.0, 0.0, 0.0, 0.0, 0.0, 0.0, 0.0, 0.0, 0.0, 0.0, 0.0)",0.209492377271,0.39975218362,-0.050104858874,-0.00907917396476,-0.00410292569064,0.0272005880526,"(0.0, 0.0, 0.0, 0.0, 0.0, 0.0, 0.0, 0.0, 0.0, 0.0, 0.0, 0.0, 0.0, 0.0, 0.0, 0.0, 0.0, 0.0, 0.0, 0.0, 0.0, 0.0, 0.0, 0.0, 0.0, 0.0, 0.0, 0.0, 0.0, 0.0, 0.0, 0.0, 0.0, 0.0, 0.0, 0.0)"
1970/01/01/01:00:12.070000,73,12,36000000,map,map,0.682475880272,1.79946681555,-0.551280714919,-3.35761181141e-05,-8.89326285925e-05,-0.700074665123,-0.714069692125,"(0.1751023078900072, 0.0, 0.0, 0.0, 0.0, 0.0, 0.0, 0.03430816227074168, 0.0, 0.0, 0.0, 0.0, 0.0, 0.0, 9.901951265904387e-05, 0.0, 0.0, 0.0, 0.0, 0.0, 0.0, 0.0, 0.0, 0.0, 0.0, 0.0, 0.0, 0.0, 0.0, 0.0, 0.0, 0.0, 0.0, 0.0, 0.0, 0.0)",0.207302588364,0.399775726176,-0.0346243920539,0.00387824335929,-0.00426520475371,0.0248034135265,"(0.0, 0.0, 0.0, 0.0, 0.0, 0.0, 0.0, 0.0, 0.0, 0.0, 0.0, 0.0, 0.0, 0.0, 0.0, 0.0, 0.0, 0.0, 0.0, 0.0, 0.0, 0.0, 0.0, 0.0, 0.0, 0.0, 0.0, 0.0, 0.0, 0.0, 0.0, 0.0, 0.0, 0.0, 0.0, 0.0)"
1970/01/01/01:00:12.070000,74,12,57000000,map,map,0.682475870264,1.79946663443,-0.565558822632,-8.15245437331e-05,-0.00010028901705,-0.700252249552,-0.713895563737,"(0.1851023078900023, 0.0, 0.0, 0.0, 0.0, 0.0, 0.0, 0.04430816226913254, 0.0, 0.0, 0.0, 0.0, 0.0, 0.0, 9.901951359269521e-05, 0.0, 0.0, 0.0, 0.0, 0.0, 0.0, 0.0, 0.0, 0.0, 0.0, 0.0, 0.0, 0.0, 0.0, 0.0, 0.0, 0.0, 0.0, 0.0, 0.0, 0.0)",0.204945066954,0.399799274928,-0.00821481124725,0.00184339901025,0.00384401301131,0.0256646072655,"(0.0, 0.0, 0.0, 0.0, 0.0, 0.0, 0.0, 0.0, 0.0, 0.0, 0.0, 0.0, 0.0, 0.0, 0.0, 0.0, 0.0, 0.0, 0.0, 0.0, 0.0, 0.0, 0.0, 0.0, 0.0, 0.0, 0.0, 0.0, 0.0, 0.0, 0.0, 0.0, 0.0, 0.0, 0.0, 0.0)"
1970/01/01/01:00:12.087000,75,12,85000000,map,map,0.682475870387,1.79946663664,-0.547749498658,-0.000138197857044,-9.4979314809e-05,-0.700387980185,-0.713762446209,"(0.1951023078900023, 0.0, 0.0, 0.0, 0.0, 0.0, 0.0, 0.05430816226913239, 0.0, 0.0, 0.0, 0.0, 0.0, 0.0, 9.901951359278337e-05, 0.0, 0.0, 0.0, 0.0, 0.0, 0.0, 0.0, 0.0, 0.0, 0.0, 0.0, 0.0, 0.0, 0.0, 0.0, 0.0, 0.0, 0.0, 0.0, 0.0, 0.0)",0.201887969668,0.399827376438,-0.0120157089172,0.00708155987796,0.00492587004829,0.0176547820586,"(0.0, 0.0, 0.0, 0.0, 0.0, 0.0, 0.0, 0.0, 0.0, 0.0, 0.0, 0.0, 0.0, 0.0, 0.0, 0.0, 0.0, 0.0, 0.0, 0.0, 0.0, 0.0, 0.0, 0.0, 0.0, 0.0, 0.0, 0.0, 0.0, 0.0, 0.0, 0.0, 0.0, 0.0, 0.0, 0.0)"
1970/01/01/01:00:12.098000,76,12,96000000,map,map,0.682475870385,1.79946663662,-0.569474118006,-0.000230592677917,-0.000119516912124,-0.700566835605,-0.713586878243,"(0.2051023078900023, 0.0, 0.0, 0.0, 0.0, 0.0, 0.0, 0.06430816226913239, 0.0, 0.0, 0.0, 0.0, 0.0, 0.0, 9.901951359278424e-05, 0.0, 0.0, 0.0, 0.0, 0.0, 0.0, 0.0, 0.0, 0.0, 0.0, 0.0, 0.0, 0.0, 0.0, 0.0, 0.0, 0.0, 0.0, 0.0, 0.0, 0.0)",0.200728861354,0.399836870734,0.00344524049224,0.00648355464418,0.00800580082085,0.0235602428723,"(0.0, 0.0, 0.0, 0.0, 0.0, 0.0, 0.0, 0.0, 0.0, 0.0, 0.0, 0.0, 0.0, 0.0, 0.0, 0.0, 0.0, 0.0, 0.0, 0.0, 0.0, 0.0, 0.0, 0.0, 0.0, 0.0, 0.0, 0.0, 0.0, 0.0, 0.0, 0.0, 0.0, 0.0, 0.0, 0.0)"
1970/01/01/01:00:12.117000,77,12,116000000,map,map,0.682475870385,1.79946663662,-0.571035098854,-0.000242933915184,-0.000109706831832,-0.700712110524,-0.713444216429,"(0.21510230789000231, 0.0, 0.0, 0.0, 0.0, 0.0, 0.0, 0.07430816226913238, 0.0, 0.0, 0.0, 0.0, 0.0, 0.0, 9.901951359278424e-05, 0.0, 0.0, 0.0, 0.0, 0.0, 0.0, 0.0, 0.0, 0.0, 0.0, 0.0, 0.0, 0.0, 0.0, 0.0, 0.0, 0.0, 0.0, 0.0, 0.0, 0.0)",0.198648471818,0.39985318366,-0.00752354319822,0.00292011176853,0.000199986541388,0.027649044381,"(0.0, 0.0, 0.0, 0.0, 0.0, 0.0, 0.0, 0.0, 0.0, 0.0, 0.0, 0.0, 0.0, 0.0, 0.0, 0.0, 0.0, 0.0, 0.0, 0.0, 0.0, 0.0, 0.0, 0.0, 0.0, 0.0, 0.0, 0.0, 0.0, 0.0, 0.0, 0.0, 0.0, 0.0, 0.0, 0.0)"
1970/01/01/01:00:12.159000,78,12,136000000,map,map,0.682475870385,1.79946663662,-0.557967206354,-0.000179812845974,-3.88855663263e-05,-0.700814596513,-0.713343500608,"(0.22510230789000232, 0.0, 0.0, 0.0, 0.0, 0.0, 0.0, 0.08430816226913238, 0.0, 0.0, 0.0, 0.0, 0.0, 0.0, 9.901951359278424e-05, 0.0, 0.0, 0.0, 0.0, 0.0, 0.0, 0.0, 0.0, 0.0, 0.0, 0.0, 0.0, 0.0, 0.0, 0.0, 0.0, 0.0, 0.0, 0.0, 0.0, 0.0)",0.196615538147,0.399867865294,-0.0190150462464,0.00124893784043,-0.0081595048318,0.0145503744681,"(0.0, 0.0, 0.0, 0.0, 0.0, 0.0, 0.0, 0.0, 0.0, 0.0, 0.0, 0.0, 0.0, 0.0, 0.0, 0.0, 0.0, 0.0, 0.0, 0.0, 0.0, 0.0, 0.0, 0.0, 0.0, 0.0, 0.0, 0.0, 0.0, 0.0, 0.0, 0.0, 0.0, 0.0, 0.0, 0.0)"
1970/01/01/01:00:12.159000,79,12,156000000,map,map,0.682475870385,1.79946663662,-0.569045491526,-0.000122657580338,-5.76302151378e-05,-0.700930595177,-0.713229524993,"(0.23510230789000233, 0.0, 0.0, 0.0, 0.0, 0.0, 0.0, 0.09430816226913237, 0.0, 0.0, 0.0, 0.0, 0.0, 0.0, 9.901951359278424e-05, 0.0, 0.0, 0.0, 0.0, 0.0, 0.0, 0.0, 0.0, 0.0, 0.0, 0.0, 0.0, 0.0, 0.0, 0.0, 0.0, 0.0, 0.0, 0.0, 0.0, 0.0)",0.194626979065,0.399881078765,-0.00617764307881,-0.00501812969919,-0.00216310857081,0.0135461327019,"(0.0, 0.0, 0.0, 0.0, 0.0, 0.0, 0.0, 0.0, 0.0, 0.0, 0.0, 0.0, 0.0, 0.0, 0.0, 0.0, 0.0, 0.0, 0.0, 0.0, 0.0, 0.0, 0.0, 0.0, 0.0, 0.0, 0.0, 0.0, 0.0, 0.0, 0.0, 0.0, 0.0, 0.0, 0.0, 0.0)"
1970/01/01/01:00:12.202000,80,12,176000000,map,map,0.748388994449,1.73830086929,-0.568728062629,-7.94548225919e-05,-1.37429518245e-05,-0.701006558944,-0.713154909924,"(0.19083539254258067, 0.0, 0.0, 0.0, 0.0, 0.0, 0.0, 0.032520763364993266, 0.0, 0.0, 0.0, 0.0, 0.0, 0.0, 9.901467770492264e-05, 0.0, 0.0, 0.0, 0.0, 0.0, 0.0, 0.0, 0.0, 0.0, 0.0, 0.0, 0.0, 0.0, 0.0, 0.0, 0.0, 0.0, 0.0, 0.0, 0.0, 0.0)",0.192679983461,0.399892970888,-0.0137376942892,0.00340073700916,-0.00774123751986,0.0132067278138,"(0.0, 0.0, 0.0, 0.0, 0.0, 0.0, 0.0, 0.0, 0.0, 0.0, 0.0, 0.0, 0.0, 0.0, 0.0, 0.0, 0.0, 0.0, 0.0, 0.0, 0.0, 0.0, 0.0, 0.0, 0.0, 0.0, 0.0, 0.0, 0.0, 0.0, 0.0, 0.0, 0.0, 0.0, 0.0, 0.0)"
1970/01/01/01:00:12.202000,81,12,196000000,map,map,0.748377063008,1.73829041345,-0.583779812976,-5.61835999351e-05,-2.6294104012e-05,-0.701110476609,-0.713052762427,"(0.20083538625893635, 0.0, 0.0, 0.0, 0.0, 0.0, 0.0, 0.04252075853947781, 0.0, 0.0, 0.0, 0.0, 0.0, 0.0, 9.901951312788444e-05, 0.0, 0.0, 0.0, 0.0, 0.0, 0.0, 0.0, 0.0, 0.0, 0.0, 0.0, 0.0, 0.0, 0.0, 0.0, 0.0, 0.0, 0.0, 0.0, 0.0, 0.0)",0.193408510796,0.399903673799,-0.01905076566,-0.00547536878003,-0.00118325959486,0.0156258687378,"(0.0, 0.0, 0.0, 0.0, 0.0, 0.0, 0.0, 0.0, 0.0, 0.0, 0.0, 0.0, 0.0, 0.0, 0.0, 0.0, 0.0, 0.0, 0.0, 0.0, 0.0, 0.0, 0.0, 0.0, 0.0, 0.0, 0.0, 0.0, 0.0, 0.0, 0.0, 0.0, 0.0, 0.0, 0.0, 0.0)"
1970/01/01/01:00:12.249000,82,12,216000000,map,map,0.748377256764,1.73829058325,-0.558850641538,-7.79329410255e-05,-7.202282948e-05,-0.701194984333,-0.712969603402,"(0.21083538625833229, 0.0, 0.0, 0.0, 0.0, 0.0, 0.0, 0.05252075853901391, 0.0, 0.0, 0.0, 0.0, 0.0, 0.0, 9.901951359273999e-05, 0.0, 0.0, 0.0, 0.0, 0.0, 0.0, 0.0, 0.0, 0.0, 0.0, 0.0, 0.0, 0.0, 0.0, 0.0, 0.0, 0.0, 0.0, 0.0, 0.0, 0.0)",0.193909564154,0.39991330642,-0.0479295501915,0.000275233743109,0.00317908440521,0.0109382431686,"(0.0, 0.0, 0.0, 0.0, 0.0, 0.0, 0.0, 0.0, 0.0, 0.0, 0.0, 0.0, 0.0, 0.0, 0.0, 0.0, 0.0, 0.0, 0.0, 0.0, 0.0, 0.0, 0.0, 0.0, 0.0, 0.0, 0.0, 0.0, 0.0, 0.0, 0.0, 0.0, 0.0, 0.0, 0.0, 0.0)"
1970/01/01/01:00:12.249000,83,12,237000000,map,map,0.748377256777,1.73829058326,-0.558678970193,-1.66326811397e-05,-5.06855803328e-05,-0.701254464731,-0.712911134528,"(0.22083538625833224, 0.0, 0.0, 0.0, 0.0, 0.0, 0.0, 0.06252075853901387, 0.0, 0.0, 0.0, 0.0, 0.0, 0.0, 9.901951359278493e-05, 0.0, 0.0, 0.0, 0.0, 0.0, 0.0, 0.0, 0.0, 0.0, 0.0, 0.0, 0.0, 0.0, 0.0, 0.0, 0.0, 0.0, 0.0, 0.0, 0.0, 0.0)",0.194220604566,0.399922409245,-0.0278949023837,-0.00520639848078,-0.00740810117249,0.0126593348607,"(0.0, 0.0, 0.0, 0.0, 0.0, 0.0, 0.0, 0.0, 0.0, 0.0, 0.0, 0.0, 0.0, 0.0, 0.0, 0.0, 0.0, 0.0, 0.0, 0.0, 0.0, 0.0, 0.0, 0.0, 0.0, 0.0, 0.0, 0.0, 0.0, 0.0, 0.0, 0.0, 0.0, 0.0, 0.0, 0.0)"
1970/01/01/01:00:12.293000,84,12,256000000,map,map,0.74837725677,1.73829058325,-0.568908936878,-3.94416827251e-05,-2.13695982167e-05,-0.701350542424,-0.712816574122,"(0.23083538625833225, 0.0, 0.0, 0.0, 0.0, 0.0, 0.0, 0.07252075853901387, 0.0, 0.0, 0.0, 0.0, 0.0, 0.0, 9.901951359278314e-05, 0.0, 0.0, 0.0, 0.0, 0.0, 0.0, 0.0, 0.0, 0.0, 0.0, 0.0, 0.0, 0.0, 0.0, 0.0, 0.0, 0.0, 0.0, 0.0, 0.0, 0.0)",0.19431773341,0.399929780367,-0.0117094288492,0.00515602812615,0.0014348491629,0.0130680068865,"(0.0, 0.0, 0.0, 0.0, 0.0, 0.0, 0.0, 0.0, 0.0, 0.0, 0.0, 0.0, 0.0, 0.0, 0.0, 0.0, 0.0, 0.0, 0.0, 0.0, 0.0, 0.0, 0.0, 0.0, 0.0, 0.0, 0.0, 0.0, 0.0, 0.0, 0.0, 0.0, 0.0, 0.0, 0.0, 0.0)"
1970/01/01/01:00:12.293000,85,12,277000000,map,map,0.748377256769,1.73829058325,-0.595426191956,8.777101782e-06,-0.00011462879863,-0.701386211829,-0.71278141048,"(0.24083538625833226, 0.0, 0.0, 0.0, 0.0, 0.0, 0.0, 0.08252075853901386, 0.0, 0.0, 0.0, 0.0, 0.0, 0.0, 9.901951359278424e-05, 0.0, 0.0, 0.0, 0.0, 0.0, 0.0, 0.0, 0.0, 0.0, 0.0, 0.0, 0.0, 0.0, 0.0, 0.0, 0.0, 0.0, 0.0, 0.0, 0.0, 0.0)",0.194259899772,0.399937153429,-0.0141941068953,-0.00890921350521,0.0015541133447,0.00576683962098,"(0.0, 0.0, 0.0, 0.0, 0.0, 0.0, 0.0, 0.0, 0.0, 0.0, 0.0, 0.0, 0.0, 0.0, 0.0, 0.0, 0.0, 0.0, 0.0, 0.0, 0.0, 0.0, 0.0, 0.0, 0.0, 0.0, 0.0, 0.0, 0.0, 0.0, 0.0, 0.0, 0.0, 0.0, 0.0, 0.0)"
1970/01/01/01:00:12.334000,86,12,296000000,map,map,0.748377256769,1.73829058325,-0.595426191956,0.00010170680228,-6.12729103522e-05,-0.701439102172,-0.71272953166,"(0.25083538625833224, 0.0, 0.0, 0.0, 0.0, 0.0, 0.0, 0.09252075853901386, 0.0, 0.0, 0.0, 0.0, 0.0, 0.0, 0.010099019513592784, 0.0, 0.0, 0.0, 0.0, 0.0, 0.0, 0.0, 0.0, 0.0, 0.0, 0.0, 0.0, 0.0, 0.0, 0.0, 0.0, 0.0, 0.0, 0.0, 0.0, 0.0)",0.194058002744,0.399943123853,-0.0575663754718,-0.0048511143753,-0.0133426468611,0.0102809673071,"(0.0, 0.0, 0.0, 0.0, 0.0, 0.0, 0.0, 0.0, 0.0, 0.0, 0.0, 0.0, 0.0, 0.0, 0.0, 0.0, 0.0, 0.0, 0.0, 0.0, 0.0, 0.0, 0.0, 0.0, 0.0, 0.0, 0.0, 0.0, 0.0, 0.0, 0.0, 0.0, 0.0, 0.0, 0.0, 0.0)"
1970/01/01/01:00:12.334000,87,12,317000000,map,map,0.72374166177,1.76786094338,-0.580993056222,3.30303853674e-05,-4.62054325891e-05,-0.70155787726,-0.712612442447,"(0.20912058499636796, 0.0, 0.0, 0.0, 0.0, 0.0, 0.0, 0.03188251342611648, 0.0, 0.0, 0.0, 0.0, 0.0, 0.0, 9.949812212421401e-05, 0.0, 0.0, 0.0, 0.0, 0.0, 0.0, 0.0, 0.0, 0.0, 0.0, 0.0, 0.0, 0.0, 0.0, 0.0, 0.0, 0.0, 0.0, 0.0, 0.0, 0.0)",0.193701033185,0.399949095848,-0.0959240155484,0.00661392388226,0.00583865468265,0.0100220627735,"(0.0, 0.0, 0.0, 0.0, 0.0, 0.0, 0.0, 0.0, 0.0, 0.0, 0.0, 0.0, 0.0, 0.0, 0.0, 0.0, 0.0, 0.0, 0.0, 0.0, 0.0, 0.0, 0.0, 0.0, 0.0, 0.0, 0.0, 0.0, 0.0, 0.0, 0.0, 0.0, 0.0, 0.0, 0.0, 0.0)"
1970/01/01/01:00:12.377000,88,12,337000000,map,map,0.723742629228,1.76785866066,-0.582578753821,2.75490280987e-05,1.10017995399e-05,-0.701647084687,-0.712524752306,"(0.21912058127378536, 0.0, 0.0, 0.0, 0.0, 0.0, 0.0, 0.04188249270167576, 0.0, 0.0, 0.0, 0.0, 0.0, 0.0, 9.901955960182851e-05, 0.0, 0.0, 0.0, 0.0, 0.0, 0.0, 0.0, 0.0, 0.0, 0.0, 0.0, 0.0, 0.0, 0.0, 0.0, 0.0, 0.0, 0.0, 0.0, 0.0, 0.0)",0.19224832661,0.399954186264,-0.0987135239554,0.0083719523398,-0.00451298416579,0.0138461263006,"(0.0, 0.0, 0.0, 0.0, 0.0, 0.0, 0.0, 0.0, 0.0, 0.0, 0.0, 0.0, 0.0, 0.0, 0.0, 0.0, 0.0, 0.0, 0.0, 0.0, 0.0, 0.0, 0.0, 0.0, 0.0, 0.0, 0.0, 0.0, 0.0, 0.0, 0.0, 0.0, 0.0, 0.0, 0.0, 0.0)"
