time,.header.seq,.header.stamp.secs,.header.stamp.nsecs,.header.frame_id,.child_frame_id,.pose.pose.position.x,.pose.pose.position.y,.pose.pose.position.z,.pose.pose.orientation.x,.pose.pose.orientation.y,.pose.pose.orientation.z,.pose.pose.orientation.w,.pose.covariance,.twist.twist.linear.x,.twist.twist.linear.y,.twist.twist.linear.z,.twist.twist.angular.x,.twist.twist.angular.y,.twist.twist.angular.z,.twist.covariance
1970/01/01/01:00:10.741000,1,10,741000000,map,map,0.8,1.675,-0.606282269434,0.000210887997263,-6.1081335639e-05,-0.674830150346,-0.737973094182,"(3.6599999999999655, 0.0, 0.0, 0.0, 0.0, 0.0, 0.0, 3.6599999999999655, 0.0, 0.0, 0.0, 0.0, 0.0, 0.0, 9.901951359278424e-05, 0.0, 0.0, 0.0, 0.0, 0.0, 0.0, 0.0, 0.0, 0.0, 0.0, 0.0, 0.0, 0.0, 0.0, 0.0, 0.0, 0.0, 0.0, 0.0, 0.0, 0.0)",0.0,0.0,0.0,0.00996797671629,-0.00545379442851,0.00853893890459,"(0.0, 0.0, 0.0, 0.0, 0.0, 0.0, 0.0, 0.0, 0.0, 0.0, 0.0, 0.0, 0.0, 0.0, 0.0, 0.0, 0.0, 0.0, 0.0, 0.0, 0.0, 0.0, 0.0, 0.0, 0.0, 0.0, 0.0, 0.0, 0.0, 0.0, 0.0, 0.0, 0.0, 0.0, 0.0, 0.0)"
1970/01/01/01:00:10.762000,2,10,761000000,map,map,0.8,1.675,-0.612920206253,0.000255232712344,-4.7918579533e-05,-0.674844214223,-0.737960294711,"(3.6699999999999653, 0.0, 0.0, 0.0, 0.0, 0.0, 0.0, 3.6699999999999653, 0.0, 0.0, 0.0, 0.0, 0.0, 0.0, 9.901951359278424e-05, 0.0, 0.0, 0.0, 0.0, 0.0, 0.0, 0.0, 0.0, 0.0, 0.0, 0.0, 0.0, 0.0, 0.0, 0.0, 0.0, 0.0, 0.0, 0.0, 0.0, 0.0)",0.0,0.0,0.0,-0.00533482659472,-0.00623282077341,0.00262972304242,"(0.0, 0.0, 0.0, 0.0, 0.0, 0.0, 0.0, 0.0, 0.0, 0.0, 0.0, 0.0, 0.0, 0.0, 0.0, 0.0, 0.0, 0.0, 0.0, 0.0, 0.0, 0.0, 0.0, 0.0, 0.0, 0.0, 0.0, 0.0, 0.0, 0.0, 0.0, 0.0, 0.0, 0.0, 0.0, 0.0)"
1970/01/01/01:00:10.781000,3,10,781000000,map,map,0.8,1.675,-0.593190441825,0.000281491001568,-6.67230092657e-05,-0.675013012351,-0.737805910805,"(3.679999999999965, 0.0, 0.0, 0.0, 0.0, 0.0, 0.0, 3.679999999999965, 0.0, 0.0, 0.0, 0.0, 0.0, 0.0, 9.901951359278424e-05, 0.0, 0.0, 0.0, 0.0, 0.0, 0.0, 0.0, 0.0, 0.0, 0.0, 0.0, 0.0, 0.0, 0.0, 0.0, 0.0, 0.0, 0.0, 0.0, 0.0, 0.0)",0.032,0.04,-0.188200343755,0.00334637601777,0.0074677678213,0.0427013025146,"(0.0, 0.0, 0.0, 0.0, 0.0, 0.0, 0.0, 0.0, 0.0, 0.0, 0.0, 0.0, 0.0, 0.0, 0.0, 0.0, 0.0, 0.0, 0.0, 0.0, 0.0, 0.0, 0.0, 0.0, 0.0, 0.0, 0.0, 0.0, 0.0, 0.0, 0.0, 0.0, 0.0, 0.0, 0.0, 0.0)"
1970/01/01/01:00:10.802000,4,10,801000000,map,map,0.8,1.675,-0.624537042804,0.000345981380315,-0.000141328713974,-0.67557992961,-0.737286703778,"(3.689999999999965, 0.0, 0.0, 0.0, 0.0, 0.0, 0.0, 3.689999999999965, 0.0, 0.0, 0.0, 0.0, 0.0, 0.0, 9.901951359278424e-05, 0.0, 0.0, 0.0, 0.0, 0.0, 0.0, 0.0, 0.0, 0.0, 0.0, 0.0, 0.0, 0.0, 0.0, 0.0, 0.0, 0.0, 0.0, 0.0, 0.0, 0.0)",0.0608,0.076,-0.305877678046,-0.0110038830546,-0.00366818737094,0.10359420212,"(0.0, 0.0, 0.0, 0.0, 0.0, 0.0, 0.0, 0.0, 0.0, 0.0, 0.0, 0.0, 0.0, 0.0, 0.0, 0.0, 0.0, 0.0, 0.0, 0.0, 0.0, 0.0, 0.0, 0.0, 0.0, 0.0, 0.0, 0.0, 0.0, 0.0, 0.0, 0.0, 0.0, 0.0, 0.0, 0.0)"
1970/01/01/01:00:10.821000,5,10,821000000,map,map,0.183796159166,2.0596513093,-0.603811397585,0.000332356084155,-0.000148627537682,-0.676653915604,-0.736301226166,"(0.6068831372987603, 0.0, 0.0, 0.0, 0.0, 0.0, 0.0, 0.02986642808435216, 0.0, 0.0, 0.0, 0.0, 0.0, 0.0, 9.901347192009933e-05, 0.0, 0.0, 0.0, 0.0, 0.0, 0.0, 0.0, 0.0, 0.0, 0.0, 0.0, 0.0, 0.0, 0.0, 0.0, 0.0, 0.0, 0.0, 0.0, 0.0, 0.0)",0.0866944,0.1084,-0.445990535651,0.00573763328018,2.0517315941e-05,0.159877193045,"(0.0, 0.0, 0.0, 0.0, 0.0, 0.0, 0.0, 0.0, 0.0, 0.0, 0.0, 0.0, 0.0, 0.0, 0.0, 0.0, 0.0, 0.0, 0.0, 0.0, 0.0, 0.0, 0.0, 0.0, 0.0, 0.0, 0.0, 0.0, 0.0, 0.0, 0.0, 0.0, 0.0, 0.0, 0.0, 0.0)"
1970/01/01/01:00:10.842000,6,10,841000000,map,map,0.183796221897,2.0596575626,-0.598831667744,0.000308284152409,-0.000113849051063,-0.677975680286,-0.735084322843,"(0.6168831372971734, 0.0, 0.0, 0.0, 0.0, 0.0, 0.0, 0.03986641231526861, 0.0, 0.0, 0.0, 0.0, 0.0, 0.0, 9.901951301196511e-05, 0.0, 0.0, 0.0, 0.0, 0.0, 0.0, 0.0, 0.0, 0.0, 0.0, 0.0, 0.0, 0.0, 0.0, 0.0, 0.0, 0.0, 0.0, 0.0, 0.0, 0.0)",0.0853025663666,0.13756,-0.5,0.0041526824216,5.66947608599e-05,0.188104648352,"(0.0, 0.0, 0.0, 0.0, 0.0, 0.0, 0.0, 0.0, 0.0, 0.0, 0.0, 0.0, 0.0, 0.0, 0.0, 0.0, 0.0, 0.0, 0.0, 0.0, 0.0, 0.0, 0.0, 0.0, 0.0, 0.0, 0.0, 0.0, 0.0, 0.0, 0.0, 0.0, 0.0, 0.0, 0.0, 0.0)"
1970/01/01/01:00:10.862000,7,10,861000000,map,map,0.183796222207,2.05965759348,-0.596323824743,0.000339149053073,-9.27413927828e-05,-0.67923459348,-0.733921082995,"(0.6268831372971733, 0.0, 0.0, 0.0, 0.0, 0.0, 0.0, 0.04986641231375264, 0.0, 0.0, 0.0, 0.0, 0.0, 0.0, 9.901951359272799e-05, 0.0, 0.0, 0.0, 0.0, 0.0, 0.0, 0.0, 0.0, 0.0, 0.0, 0.0, 0.0, 0.0, 0.0, 0.0, 0.0, 0.0, 0.0, 0.0, 0.0, 0.0)",0.0839805630858,0.163804,-0.5,0.00225261904233,-0.00595940447483,0.174915514118,"(0.0, 0.0, 0.0, 0.0, 0.0, 0.0, 0.0, 0.0, 0.0, 0.0, 0.0, 0.0, 0.0, 0.0, 0.0, 0.0, 0.0, 0.0, 0.0, 0.0, 0.0, 0.0, 0.0, 0.0, 0.0, 0.0, 0.0, 0.0, 0.0, 0.0, 0.0, 0.0, 0.0, 0.0, 0.0, 0.0)"
1970/01/01/01:00:10.883000,8,10,881000000,map,map,0.183796222214,2.05965759422,-0.590183249066,0.000375337277689,-6.93819444552e-05,-0.680665687087,-0.732594007811,"(0.6368831372971733, 0.0, 0.0, 0.0, 0.0, 0.0, 0.0, 0.0598664123137525, 0.0, 0.0, 0.0, 0.0, 0.0, 0.0, 9.901951359278482e-05, 0.0, 0.0, 0.0, 0.0, 0.0, 0.0, 0.0, 0.0, 0.0, 0.0, 0.0, 0.0, 0.0, 0.0, 0.0, 0.0, 0.0, 0.0, 0.0, 0.0, 0.0)",0.0827225180924,0.1874236,-0.5,0.00538773430371,-0.00338450187302,0.163710214953,"(0.0, 0.0, 0.0, 0.0, 0.0, 0.0, 0.0, 0.0, 0.0, 0.0, 0.0, 0.0, 0.0, 0.0, 0.0, 0.0, 0.0, 0.0, 0.0, 0.0, 0.0, 0.0, 0.0, 0.0, 0.0, 0.0, 0.0, 0.0, 0.0, 0.0, 0.0, 0.0, 0.0, 0.0, 0.0, 0.0)"
1970/01/01/01:00:10.902000,9,10,902000000,map,map,0.183796222214,2.05965759423,-0.580043281996,0.00044599932977,-1.85551706364e-05,-0.681816048439,-0.731523556884,"(0.6468831372971733, 0.0, 0.0, 0.0, 0.0, 0.0, 0.0, 0.0698664123137525, 0.0, 0.0, 0.0, 0.0, 0.0, 0.0, 9.901951359278314e-05, 0.0, 0.0, 0.0, 0.0, 0.0, 0.0, 0.0, 0.0, 0.0, 0.0, 0.0, 0.0, 0.0, 0.0, 0.0, 0.0, 0.0, 0.0, 0.0, 0.0, 0.0)",0.081463121901,0.209744122,-0.484918286355,-0.00226669550654,-0.0113051941334,0.160684453867,"(0.0, 0.0, 0.0, 0.0, 0.0, 0.0, 0.0, 0.0, 0.0, 0.0, 0.0, 0.0, 0.0, 0.0, 0.0, 0.0, 0.0, 0.0, 0.0, 0.0, 0.0, 0.0, 0.0, 0.0, 0.0, 0.0, 0.0, 0.0, 0.0, 0.0, 0.0, 0.0, 0.0, 0.0, 0.0, 0.0)"
1970/01/01/01:00:10.922000,10,10,921000000,map,map,0.183796222214,2.05965759423,-0.598308598899,0.000454980395134,-2.90159031915e-05,-0.682637611688,-0.730756953124,"(0.6568831372971733, 0.0, 0.0, 0.0, 0.0, 0.0, 0.0, 0.0798664123137525, 0.0, 0.0, 0.0, 0.0, 0.0, 0.0, 9.901951359278424e-05, 0.0, 0.0, 0.0, 0.0, 0.0, 0.0, 0.0, 0.0, 0.0, 0.0, 0.0, 0.0, 0.0, 0.0, 0.0, 0.0, 0.0, 0.0, 0.0, 0.0, 0.0)",0.0803772982727,0.22781843041,-0.441458504122,-0.000896910537598,-0.000934643945604,0.135450260867,"(0.0, 0.0, 0.0, 0.0, 0.0, 0.0, 0.0, 0.0, 0.0, 0.0, 0.0, 0.0, 0.0, 0.0, 0.0, 0.0, 0.0, 0.0, 0.0, 0.0, 0.0, 0.0, 0.0, 0.0, 0.0, 0.0, 0.0, 0.0, 0.0, 0.0, 0.0, 0.0, 0.0, 0.0, 0.0, 0.0)"
1970/01/01/01:00:10.963000,11,10,942000000,map,map,0.183796222214,2.05965759423,-0.607500651836,0.000457886696104,4.22351757931e-05,-0.683607400136,-0.729849879188,"(0.6668831372971733, 0.0, 0.0, 0.0, 0.0, 0.0, 0.0, 0.08986641231375249, 0.0, 0.0, 0.0, 0.0, 0.0, 0.0, 9.901951359278424e-05, 0.0, 0.0, 0.0, 0.0, 0.0, 0.0, 0.0, 0.0, 0.0, 0.0, 0.0, 0.0, 0.0, 0.0, 0.0, 0.0, 0.0, 0.0, 0.0, 0.0, 0.0)",0.0792261813301,0.245897495217,-0.418391333797,0.00737008724589,-0.0038896710267,0.137896663442,"(0.0, 0.0, 0.0, 0.0, 0.0, 0.0, 0.0, 0.0, 0.0, 0.0, 0.0, 0.0, 0.0, 0.0, 0.0, 0.0, 0.0, 0.0, 0.0, 0.0, 0.0, 0.0, 0.0, 0.0, 0.0, 0.0, 0.0, 0.0, 0.0, 0.0, 0.0, 0.0, 0.0, 0.0, 0.0, 0.0)"
1970/01/01/01:00:10.963000,12,10,962000000,map,map,0.355045038691,2.03504380298,-0.606056608696,0.000441433023311,3.61398730429e-05,-0.684513889285,-0.728999698228,"(0.2635652990321278, 0.0, 0.0, 0.0, 0.0, 0.0, 0.0, 0.052056341025273754, 0.0, 0.0, 0.0, 0.0, 0.0, 0.0, 9.901259626527342e-05, 0.0, 0.0, 0.0, 0.0, 0.0, 0.0, 0.0, 0.0, 0.0, 0.0, 0.0, 0.0, 0.0, 0.0, 0.0, 0.0, 0.0, 0.0, 0.0, 0.0, 0.0)",0.0781774742437,0.261307745695,-0.400905074804,-0.000208078508687,0.000456068011321,0.124251349459,"(0.0, 0.0, 0.0, 0.0, 0.0, 0.0, 0.0, 0.0, 0.0, 0.0, 0.0, 0.0, 0.0, 0.0, 0.0, 0.0, 0.0, 0.0, 0.0, 0.0, 0.0, 0.0, 0.0, 0.0, 0.0, 0.0, 0.0, 0.0, 0.0, 0.0, 0.0, 0.0, 0.0, 0.0, 0.0, 0.0)"
1970/01/01/01:00:11.007000,13,10,981000000,map,map,0.35511711759,2.03506311868,-0.57817025145,0.00052455656906,6.9292691095e-05,-0.685309065974,-0.728252231772,"(0.2735652322235223, 0.0, 0.0, 0.0, 0.0, 0.0, 0.0, 0.06205633622753174, 0.0, 0.0, 0.0, 0.0, 0.0, 0.0, 9.901951292778329e-05, 0.0, 0.0, 0.0, 0.0, 0.0, 0.0, 0.0, 0.0, 0.0, 0.0, 0.0, 0.0, 0.0, 0.0, 0.0, 0.0, 0.0, 0.0, 0.0, 0.0, 0.0)",0.0837280728132,0.274483509854,-0.372080057426,-0.000514581558719,-0.00894570637199,0.110196403852,"(0.0, 0.0, 0.0, 0.0, 0.0, 0.0, 0.0, 0.0, 0.0, 0.0, 0.0, 0.0, 0.0, 0.0, 0.0, 0.0, 0.0, 0.0, 0.0, 0.0, 0.0, 0.0, 0.0, 0.0, 0.0, 0.0, 0.0, 0.0, 0.0, 0.0, 0.0, 0.0, 0.0, 0.0, 0.0, 0.0)"
1970/01/01/01:00:11.007000,14,11,1000000,map,map,0.355116971582,2.03506307955,-0.583931499277,0.000515199639418,6.04257185673e-05,-0.686076394132,-0.727529326392,"(0.2835652322170996, 0.0, 0.0, 0.0, 0.0, 0.0, 0.0, 0.07205633622707051, 0.0, 0.0, 0.0, 0.0, 0.0, 0.0, 9.901951359271997e-05, 0.0, 0.0, 0.0, 0.0, 0.0, 0.0, 0.0, 0.0, 0.0, 0.0, 0.0, 0.0, 0.0, 0.0, 0.0, 0.0, 0.0, 0.0, 0.0, 0.0, 0.0)",0.088959216568,0.287035158869,-0.288330347903,0.00135653575442,0.000873122348585,0.104645149004,"(0.0, 0.0, 0.0, 0.0, 0.0, 0.0, 0.0, 0.0, 0.0, 0.0, 0.0, 0.0, 0.0, 0.0, 0.0, 0.0, 0.0, 0.0, 0.0, 0.0, 0.0, 0.0, 0.0, 0.0, 0.0, 0.0, 0.0, 0.0, 0.0, 0.0, 0.0, 0.0, 0.0, 0.0, 0.0, 0.0)"
1970/01/01/01:00:11.032000,15,11,22000000,map,map,0.355116968165,2.03506307863,-0.597683383927,0.000620613270401,-3.01305309303e-05,-0.686851794729,-0.726797252756,"(0.293565232217099, 0.0, 0.0, 0.0, 0.0, 0.0, 0.0, 0.08205633622707047, 0.0, 0.0, 0.0, 0.0, 0.0, 0.0, 9.901951359278472e-05, 0.0, 0.0, 0.0, 0.0, 0.0, 0.0, 0.0, 0.0, 0.0, 0.0, 0.0, 0.0, 0.0, 0.0, 0.0, 0.0, 0.0, 0.0, 0.0, 0.0, 0.0)",0.0938323097029,0.298896467188,-0.215039973589,-0.0130922237048,-0.00208280162608,0.108223913955,"(0.0, 0.0, 0.0, 0.0, 0.0, 0.0, 0.0, 0.0, 0.0, 0.0, 0.0, 0.0, 0.0, 0.0, 0.0, 0.0, 0.0, 0.0, 0.0, 0.0, 0.0, 0.0, 0.0, 0.0, 0.0, 0.0, 0.0, 0.0, 0.0, 0.0, 0.0, 0.0, 0.0, 0.0, 0.0, 0.0)"
1970/01/01/01:00:11.043000,16,11,43000000,map,map,0.355116968194,2.03506307864,-0.585721909224,0.000674517072854,9.55504864108e-06,-0.687622402438,-0.726068201838,"(0.303565232217099, 0.0, 0.0, 0.0, 0.0, 0.0, 0.0, 0.09205633622707046, 0.0, 0.0, 0.0, 0.0, 0.0, 0.0, 9.901951359278314e-05, 0.0, 0.0, 0.0, 0.0, 0.0, 0.0, 0.0, 0.0, 0.0, 0.0, 0.0, 0.0, 0.0, 0.0, 0.0, 0.0, 0.0, 0.0, 0.0, 0.0, 0.0)",0.098115265886,0.309512338133,-0.170610235734,-0.00135238442804,-0.00384176546765,0.0859523407072,"(0.0, 0.0, 0.0, 0.0, 0.0, 0.0, 0.0, 0.0, 0.0, 0.0, 0.0, 0.0, 0.0, 0.0, 0.0, 0.0, 0.0, 0.0, 0.0, 0.0, 0.0, 0.0, 0.0, 0.0, 0.0, 0.0, 0.0, 0.0, 0.0, 0.0, 0.0, 0.0, 0.0, 0.0, 0.0, 0.0)"
1970/01/01/01:00:11.070000,17,11,70000000,map,map,0.355116968194,2.03506307864,-0.58302695302,0.000654058976123,4.77169208571e-05,-0.688141746442,-0.725576000405,"(0.31356523221709903, 0.0, 0.0, 0.0, 0.0, 0.0, 0.0, 0.10205633622707046, 0.0, 0.0, 0.0, 0.0, 0.0, 0.0, 9.901951359278424e-05, 0.0, 0.0, 0.0, 0.0, 0.0, 0.0, 0.0, 0.0, 0.0, 0.0, 0.0, 0.0, 0.0, 0.0, 0.0, 0.0, 0.0, 0.0, 0.0, 0.0, 0.0)",0.102937318913,0.321728172485,-0.0884083594501,0.00230487972996,0.000356865081872,0.0904527159075,"(0.0, 0.0, 0.0, 0.0, 0.0, 0.0, 0.0, 0.0, 0.0, 0.0, 0.0, 0.0, 0.0, 0.0, 0.0, 0.0, 0.0, 0.0, 0.0, 0.0, 0.0, 0.0, 0.0, 0.0, 0.0, 0.0, 0.0, 0.0, 0.0, 0.0, 0.0, 0.0, 0.0, 0.0, 0.0, 0.0)"
1970/01/01/01:00:11.083000,18,11,81000000,map,map,0.355116968194,2.03506307864,-0.58302695302,0.000591916082172,6.76091220604e-05,-0.688737833272,-0.7250103436,"(0.32356523221709904, 0.0, 0.0, 0.0, 0.0, 0.0, 0.0, 0.11205633622707045, 0.0, 0.0, 0.0, 0.0, 0.0, 0.0, 0.010099019513592784, 0.0, 0.0, 0.0, 0.0, 0.0, 0.0, 0.0, 0.0, 0.0, 0.0, 0.0, 0.0, 0.0, 0.0, 0.0, 0.0, 0.0, 0.0, 0.0, 0.0, 0.0)",0.104578365651,0.326033122998,-0.0572679326859,0.00546120960655,-0.00277470841815,0.0800431302662,"(0.0, 0.0, 0.0, 0.0, 0.0, 0.0, 0.0, 0.0, 0.0, 0.0, 0.0, 0.0, 0.0, 0.0, 0.0, 0.0, 0.0, 0.0, 0.0, 0.0, 0.0, 0.0, 0.0, 0.0, 0.0, 0.0, 0.0, 0.0, 0.0, 0.0, 0.0, 0.0, 0.0, 0.0, 0.0, 0.0)"
1970/01/01/01:00:11.105000,19,11,101000000,map,map,0.355116968194,2.03506307864,-0.572323057836,0.000612567420557,0.000112551656644,-0.689303654713,-0.724472339078,"(0.33356523221709905, 0.0, 0.0, 0.0, 0.0, 0.0, 0.0, 0.12205633622707045, 0.0, 0.0, 0.0, 0.0, 0.0, 0.0, 9.95049264647074e-05, 0.0, 0.0, 0.0, 0.0, 0.0, 0.0, 0.0, 0.0, 0.0, 0.0, 0.0, 0.0, 0.0, 0.0, 0.0, 0.0, 0.0, 0.0, 0.0, 0.0, 0.0)",0.107352689899,0.333429810698,-0.00525624036243,0.0010336312046,-0.00234586226984,0.0802139545896,"(0.0, 0.0, 0.0, 0.0, 0.0, 0.0, 0.0, 0.0, 0.0, 0.0, 0.0, 0.0, 0.0, 0.0, 0.0, 0.0, 0.0, 0.0, 0.0, 0.0, 0.0, 0.0, 0.0, 0.0, 0.0, 0.0, 0.0, 0.0, 0.0, 0.0, 0.0, 0.0, 0.0, 0.0, 0.0, 0.0)"
1970/01/01/01:00:11.122000,20,11,121000000,map,map,0.380011072067,1.99629863435,-0.566265178378,0.000614907928897,0.000121325403965,-0.689785527535,-0.724013478436,"(0.20629001842614444, 0.0, 0.0, 0.0, 0.0, 0.0, 0.0, 0.05576922419115048, 0.0, 0.0, 0.0, 0.0, 0.0, 0.0, 0.010049873045223793, 0.0, 0.0, 0.0, 0.0, 0.0, 0.0, 0.0, 0.0, 0.0, 0.0, 0.0, 0.0, 0.0, 0.0, 0.0, 0.0, 0.0, 0.0, 0.0, 0.0, 0.0)",0.109765919029,0.340086829629,0.0561018698936,0.00277055086833,-0.000582867521795,0.0660957717261,"(0.0, 0.0, 0.0, 0.0, 0.0, 0.0, 0.0, 0.0, 0.0, 0.0, 0.0, 0.0, 0.0, 0.0, 0.0, 0.0, 0.0, 0.0, 0.0, 0.0, 0.0, 0.0, 0.0, 0.0, 0.0, 0.0, 0.0, 0.0, 0.0, 0.0, 0.0, 0.0, 0.0, 0.0, 0.0, 0.0)"
1970/01/01/01:00:11.142000,21,11,141000000,map,map,0.380009857005,1.99629428202,-0.57937306233,0.000630228226013,0.000110131464418,-0.690198507381,-0.72361988614,"(0.21629001825471605, 0.0, 0.0, 0.0, 0.0, 0.0, 0.0, 0.06576922199162666, 0.0, 0.0, 0.0, 0.0, 0.0, 0.0, 9.950371895755347e-05, 0.0, 0.0, 0.0, 0.0, 0.0, 0.0, 0.0, 0.0, 0.0, 0.0, 0.0, 0.0, 0.0, 0.0, 0.0, 0.0, 0.0, 0.0, 0.0, 0.0, 0.0)",0.112847707249,0.346078146666,0.115460031874,-0.000674673916978,0.00141342791022,0.0563415981049,"(0.0, 0.0, 0.0, 0.0, 0.0, 0.0, 0.0, 0.0, 0.0, 0.0, 0.0, 0.0, 0.0, 0.0, 0.0, 0.0, 0.0, 0.0, 0.0, 0.0, 0.0, 0.0, 0.0, 0.0, 0.0, 0.0, 0.0, 0.0, 0.0, 0.0, 0.0, 0.0, 0.0, 0.0, 0.0, 0.0)"
1970/01/01/01:00:11.163000,22,11,161000000,map,map,0.380009850271,1.9962942579,-0.586746138061,0.000666301997651,0.000103225205265,-0.690674149055,-0.723165823653,"(0.2262900182547077, 0.0, 0.0, 0.0, 0.0, 0.0, 0.0, 0.07576922199151963, 0.0, 0.0, 0.0, 0.0, 0.0, 0.0, 9.901956013983102e-05, 0.0, 0.0, 0.0, 0.0, 0.0, 0.0, 0.0, 0.0, 0.0, 0.0, 0.0, 0.0, 0.0, 0.0, 0.0, 0.0, 0.0, 0.0, 0.0, 0.0, 0.0)",0.115533455309,0.351470331999,0.139230025875,0.0011029803048,-0.00425100093321,0.0657222708006,"(0.0, 0.0, 0.0, 0.0, 0.0, 0.0, 0.0, 0.0, 0.0, 0.0, 0.0, 0.0, 0.0, 0.0, 0.0, 0.0, 0.0, 0.0, 0.0, 0.0, 0.0, 0.0, 0.0, 0.0, 0.0, 0.0, 0.0, 0.0, 0.0, 0.0, 0.0, 0.0, 0.0, 0.0, 0.0, 0.0)"
1970/01/01/01:00:11.184000,23,11,182000000,map,map,0.380009850441,1.99629425851,-0.567736167319,0.000663911995575,5.06652657783e-05,-0.691114861528,-0.722744667318,"(0.23629001825470772, 0.0, 0.0, 0.0, 0.0, 0.0, 0.0, 0.08576922199151961, 0.0, 0.0, 0.0, 0.0, 0.0, 0.0, 9.901951359725871e-05, 0.0, 0.0, 0.0, 0.0, 0.0, 0.0, 0.0, 0.0, 0.0, 0.0, 0.0, 0.0, 0.0, 0.0, 0.0, 0.0, 0.0, 0.0, 0.0, 0.0, 0.0)",0.117976694869,0.356565947139,0.142252837191,-0.00625789797304,0.00374974527832,0.0600863145094,"(0.0, 0.0, 0.0, 0.0, 0.0, 0.0, 0.0, 0.0, 0.0, 0.0, 0.0, 0.0, 0.0, 0.0, 0.0, 0.0, 0.0, 0.0, 0.0, 0.0, 0.0, 0.0, 0.0, 0.0, 0.0, 0.0, 0.0, 0.0, 0.0, 0.0, 0.0, 0.0, 0.0, 0.0, 0.0, 0.0)"
1970/01/01/01:00:11.203000,24,11,201000000,map,map,0.380009850441,1.99629425851,-0.568062208964,0.000724456457948,0.000128154860364,-0.691561097872,-0.722317649937,"(0.24629001825470773, 0.0, 0.0, 0.0, 0.0, 0.0, 0.0, 0.0957692219915196, 0.0, 0.0, 0.0, 0.0, 0.0, 0.0, 9.90195135927844e-05, 0.0, 0.0, 0.0, 0.0, 0.0, 0.0, 0.0, 0.0, 0.0, 0.0, 0.0, 0.0, 0.0, 0.0, 0.0, 0.0, 0.0, 0.0, 0.0, 0.0, 0.0)",0.119862941499,0.360692182161,0.169883149546,0.00418242150907,-0.00348017961848,0.0572015515317,"(0.0, 0.0, 0.0, 0.0, 0.0, 0.0, 0.0, 0.0, 0.0, 0.0, 0.0, 0.0, 0.0, 0.0, 0.0, 0.0, 0.0, 0.0, 0.0, 0.0, 0.0, 0.0, 0.0, 0.0, 0.0, 0.0, 0.0, 0.0, 0.0, 0.0, 0.0, 0.0, 0.0, 0.0, 0.0, 0.0)"
1970/01/01/01:00:11.222000,25,11,221000000,map,map,0.380009850441,1.99629425851,-0.553766458049,0.000763368185984,0.000150503412003,-0.691942662511,-0.7219521011,"(0.2562900182547077, 0.0, 0.0, 0.0, 0.0, 0.0, 0.0, 0.1057692219915196, 0.0, 0.0, 0.0, 0.0, 0.0, 0.0, 9.901951359278314e-05, 0.0, 0.0, 0.0, 0.0, 0.0, 0.0, 0.0, 0.0, 0.0, 0.0, 0.0, 0.0, 0.0, 0.0, 0.0, 0.0, 0.0, 0.0, 0.0, 0.0, 0.0)",0.121570177315,0.364622963945,0.188393550476,-0.00832830512255,-0.00489956828563,0.0566101989922,"(0.0, 0.0, 0.0, 0.0, 0.0, 0.0, 0.0, 0.0, 0.0, 0.0, 0.0, 0.0, 0.0, 0.0, 0.0, 0.0, 0.0, 0.0, 0.0, 0.0, 0.0, 0.0, 0.0, 0.0, 0.0, 0.0, 0.0, 0.0, 0.0, 0.0, 0.0, 0.0, 0.0, 0.0, 0.0, 0.0)"
1970/01/01/01:00:11.242000,26,11,241000000,map,map,0.380009850441,1.99629425851,-0.553334098077,0.00080035768434,0.000113649079907,-0.692305650926,-0.721603948375,"(0.2662900182547077, 0.0, 0.0, 0.0, 0.0, 0.0, 0.0, 0.1157692219915196, 0.0, 0.0, 0.0, 0.0, 0.0, 0.0, 9.901951359278424e-05, 0.0, 0.0, 0.0, 0.0, 0.0, 0.0, 0.0, 0.0, 0.0, 0.0, 0.0, 0.0, 0.0, 0.0, 0.0, 0.0, 0.0, 0.0, 0.0, 0.0, 0.0)",0.123010799197,0.36816066755,0.221365351094,-0.00486237277157,0.00420738514048,0.0488781846564,"(0.0, 0.0, 0.0, 0.0, 0.0, 0.0, 0.0, 0.0, 0.0, 0.0, 0.0, 0.0, 0.0, 0.0, 0.0, 0.0, 0.0, 0.0, 0.0, 0.0, 0.0, 0.0, 0.0, 0.0, 0.0, 0.0, 0.0, 0.0, 0.0, 0.0, 0.0, 0.0, 0.0, 0.0, 0.0, 0.0)"
1970/01/01/01:00:11.262000,27,11,261000000,map,map,0.428519114338,2.0059300553,-0.549523549809,0.000726001670898,8.98732359453e-05,-0.692620759205,-0.721301568445,"(0.17935551711399794, 0.0, 0.0, 0.0, 0.0, 0.0, 0.0, 0.04215314985930341, 0.0, 0.0, 0.0, 0.0, 0.0, 0.0, 9.900838851050415e-05, 0.0, 0.0, 0.0, 0.0, 0.0, 0.0, 0.0, 0.0, 0.0, 0.0, 0.0, 0.0, 0.0, 0.0, 0.0, 0.0, 0.0, 0.0, 0.0, 0.0, 0.0)",0.124210102748,0.371344600795,0.242183606525,0.00179242013085,0.00925266953011,0.0445038004387,"(0.0, 0.0, 0.0, 0.0, 0.0, 0.0, 0.0, 0.0, 0.0, 0.0, 0.0, 0.0, 0.0, 0.0, 0.0, 0.0, 0.0, 0.0, 0.0, 0.0, 0.0, 0.0, 0.0, 0.0, 0.0, 0.0, 0.0, 0.0, 0.0, 0.0, 0.0, 0.0, 0.0, 0.0, 0.0, 0.0)"
1970/01/01/01:00:11.284000,28,11,283000000,map,map,0.428518033893,2.00592406619,-0.553679126642,0.000726249551167,1.33382427828e-05,-0.692914077563,-0.721019798323,"(0.1893555164380054, 0.0, 0.0, 0.0, 0.0, 0.0, 0.0, 0.05215312908811002, 0.0, 0.0, 0.0, 0.0, 0.0, 0.0, 9.901951252326854e-05, 0.0, 0.0, 0.0, 0.0, 0.0, 0.0, 0.0, 0.0, 0.0, 0.0, 0.0, 0.0, 0.0, 0.0, 0.0, 0.0, 0.0, 0.0, 0.0, 0.0, 0.0)",0.127423571373,0.374496694708,0.259372946923,-0.0096179207419,0.0107259701494,0.0409483773156,"(0.0, 0.0, 0.0, 0.0, 0.0, 0.0, 0.0, 0.0, 0.0, 0.0, 0.0, 0.0, 0.0, 0.0, 0.0, 0.0, 0.0, 0.0, 0.0, 0.0, 0.0, 0.0, 0.0, 0.0, 0.0, 0.0, 0.0, 0.0, 0.0, 0.0, 0.0, 0.0, 0.0, 0.0, 0.0, 0.0)"
1970/01/01/01:00:11.304000,29,11,302000000,map,map,0.428518039435,2.0059240969,-0.551505378651,0.000697161619669,-4.65155710382e-05,-0.693096079509,-0.720844877048,"(0.19935551643794044, 0.0, 0.0, 0.0, 0.0, 0.0, 0.0, 0.062153129086113174, 0.0, 0.0, 0.0, 0.0, 0.0, 0.0, 9.901951359268139e-05, 0.0, 0.0, 0.0, 0.0, 0.0, 0.0, 0.0, 0.0, 0.0, 0.0, 0.0, 0.0, 0.0, 0.0, 0.0, 0.0, 0.0, 0.0, 0.0, 0.0, 0.0)",0.129789679508,0.376919508711,0.25593658607,0.00117859610531,0.00505152905393,0.0179495248468,"(0.0, 0.0, 0.0, 0.0, 0.0, 0.0, 0.0, 0.0, 0.0, 0.0, 0.0, 0.0, 0.0, 0.0, 0.0, 0.0, 0.0, 0.0, 0.0, 0.0, 0.0, 0.0, 0.0, 0.0, 0.0, 0.0, 0.0, 0.0, 0.0, 0.0, 0.0, 0.0, 0.0, 0.0, 0.0, 0.0)"
1970/01/01/01:00:11.324000,30,11,323000000,map,map,0.428518039328,2.00592409631,-0.55578896412,0.000631560729086,-1.37967543963e-05,-0.693295693569,-0.720653018008,"(0.20935551643794045, 0.0, 0.0, 0.0, 0.0, 0.0, 0.0, 0.07215312908611297, 0.0, 0.0, 0.0, 0.0, 0.0, 0.0, 9.901951359278436e-05, 0.0, 0.0, 0.0, 0.0, 0.0, 0.0, 0.0, 0.0, 0.0, 0.0, 0.0, 0.0, 0.0, 0.0, 0.0, 0.0, 0.0, 0.0, 0.0, 0.0, 0.0)",0.132054726526,0.379342960296,0.248040047299,0.00706854901109,0.00428295251163,0.0259210911352,"(0.0, 0.0, 0.0, 0.0, 0.0, 0.0, 0.0, 0.0, 0.0, 0.0, 0.0, 0.0, 0.0, 0.0, 0.0, 0.0, 0.0, 0.0, 0.0, 0.0, 0.0, 0.0, 0.0, 0.0, 0.0, 0.0, 0.0, 0.0, 0.0, 0.0, 0.0, 0.0, 0.0, 0.0, 0.0, 0.0)"
1970/01/01/01:00:11.342000,31,11,341000000,map,map,0.42851803933,2.00592409632,-0.546518468745,0.000594003256672,-8.63110452243e-05,-0.693598526578,-0.720361480354,"(0.21935551643794046, 0.0, 0.0, 0.0, 0.0, 0.0, 0.0, 0.08215312908611297, 0.0, 0.0, 0.0, 0.0, 0.0, 0.0, 9.901951359278314e-05, 0.0, 0.0, 0.0, 0.0, 0.0, 0.0, 0.0, 0.0, 0.0, 0.0, 0.0, 0.0, 0.0, 0.0, 0.0, 0.0, 0.0, 0.0, 0.0, 0.0, 0.0)",0.133694220166,0.381202093869,0.22820558181,-0.000599379487351,0.00531631412002,0.0352276045288,"(0.0, 0.0, 0.0, 0.0, 0.0, 0.0, 0.0, 0.0, 0.0, 0.0, 0.0, 0.0, 0.0, 0.0, 0.0, 0.0, 0.0, 0.0, 0.0, 0.0, 0.0, 0.0, 0.0, 0.0, 0.0, 0.0, 0.0, 0.0, 0.0, 0.0, 0.0, 0.0, 0.0, 0.0, 0.0, 0.0)"
1970/01/01/01:00:11.361000,32,11,361000000,map,map,0.42851803933,2.00592409632,-0.528347671144,0.000606803365694,-4.68117720102e-05,-0.693855580207,-0.720113951913,"(0.22935551643794047, 0.0, 0.0, 0.0, 0.0, 0.0, 0.0, 0.09215312908611296, 0.0, 0.0, 0.0, 0.0, 0.0, 0.0, 9.901951359278424e-05, 0.0, 0.0, 0.0, 0.0, 0.0, 0.0, 0.0, 0.0, 0.0, 0.0, 0.0, 0.0, 0.0, 0.0, 0.0, 0.0, 0.0, 0.0, 0.0, 0.0, 0.0)",0.135256850998,0.383081884482,0.218143804126,0.00265854969707,-0.00361087078459,0.0305054484008,"(0.0, 0.0, 0.0, 0.0, 0.0, 0.0, 0.0, 0.0, 0.0, 0.0, 0.0, 0.0, 0.0, 0.0, 0.0, 0.0, 0.0, 0.0, 0.0, 0.0, 0.0, 0.0, 0.0, 0.0, 0.0, 0.0, 0.0, 0.0, 0.0, 0.0, 0.0, 0.0, 0.0, 0.0, 0.0, 0.0)"
1970/01/01/01:00:11.383000,33,11,381000000,map,map,0.42851803933,2.00592409632,-0.54478296738,0.00058102462035,-9.22761002186e-05,-0.69408880111,-0.71988916038,"(0.23935551643794048, 0.0, 0.0, 0.0, 0.0, 0.0, 0.0, 0.10215312908611296, 0.0, 0.0, 0.0, 0.0, 0.0, 0.0, 9.901951359278424e-05, 0.0, 0.0, 0.0, 0.0, 0.0, 0.0, 0.0, 0.0, 0.0, 0.0, 0.0, 0.0, 0.0, 0.0, 0.0, 0.0, 0.0, 0.0, 0.0, 0.0, 0.0)",0.136556263371,0.384773696034,0.232772191921,-0.00187249944373,0.00606286623341,0.0292949615539,"(0.0, 0.0, 0.0, 0.0, 0.0, 0.0, 0.0, 0.0, 0.0, 0.0, 0.0, 0.0, 0.0, 0.0, 0.0, 0.0, 0.0, 0.0, 0.0, 0.0, 0.0, 0.0, 0.0, 0.0, 0.0, 0.0, 0.0, 0.0, 0.0, 0.0, 0.0, 0.0, 0.0, 0.0, 0.0, 0.0)"
1970/01/01/01:00:11.429000,34,11,401000000,map,map,0.614225229499,1.92113929184,-0.549212973035,0.000604022867304,-6.96447037139e-05,-0.694222131349,-0.719760719176,"(0.166580535924308, 0.0, 0.0, 0.0, 0.0, 0.0, 0.0, 0.03753707614446343, 0.0, 0.0, 0.0, 0.0, 0.0, 0.0, 9.90076695891353e-05, 0.0, 0.0, 0.0, 0.0, 0.0, 0.0, 0.0, 0.0, 0.0, 0.0, 0.0, 0.0, 0.0, 0.0, 0.0, 0.0, 0.0, 0.0, 0.0, 0.0, 0.0)",0.137617529026,0.386296326431,0.209811281624,-0.00229702850222,-0.00159257246705,0.0173828199716,"(0.0, 0.0, 0.0, 0.0, 0.0, 0.0, 0.0, 0.0, 0.0, 0.0, 0.0, 0.0, 0.0, 0.0, 0.0, 0.0, 0.0, 0.0, 0.0, 0.0, 0.0, 0.0, 0.0, 0.0, 0.0, 0.0, 0.0, 0.0, 0.0, 0.0, 0.0, 0.0, 0.0, 0.0, 0.0, 0.0)"
1970/01/01/01:00:11.429000,35,11,421000000,map,map,0.614224363446,1.92113292491,-0.553478840006,0.000576495048326,-4.88422293644e-05,-0.694415732897,-0.719573945417,"(0.1765805355121411, 0.0, 0.0, 0.0, 0.0, 0.0, 0.0, 0.047537053868051286, 0.0, 0.0, 0.0, 0.0, 0.0, 0.0, 9.901951245415521e-05, 0.0, 0.0, 0.0, 0.0, 0.0, 0.0, 0.0, 0.0, 0.0, 0.0, 0.0, 0.0, 0.0, 0.0, 0.0, 0.0, 0.0, 0.0, 0.0, 0.0, 0.0)",0.145891710711,0.387666693788,0.176300137565,0.00383729570095,0.00615859505716,0.026923903954,"(0.0, 0.0, 0.0, 0.0, 0.0, 0.0, 0.0, 0.0, 0.0, 0.0, 0.0, 0.0, 0.0, 0.0, 0.0, 0.0, 0.0, 0.0, 0.0, 0.0, 0.0, 0.0, 0.0, 0.0, 0.0, 0.0, 0.0, 0.0, 0.0, 0.0, 0.0, 0.0, 0.0, 0.0, 0.0, 0.0)"
1970/01/01/01:00:11.449000,36,11,447000000,map,map,0.614224401485,1.92113320456,-0.53436963243,0.000547122872556,-0.000105087589713,-0.694584776004,-0.719410718575,"(0.18658053551210146, 0.0, 0.0, 0.0, 0.0, 0.0, 0.0, 0.05753705386590974, 0.0, 0.0, 0.0, 0.0, 0.0, 0.0, 9.901951359267422e-05, 0.0, 0.0, 0.0, 0.0, 0.0, 0.0, 0.0, 0.0, 0.0, 0.0, 0.0, 0.0, 0.0, 0.0, 0.0, 0.0, 0.0, 0.0, 0.0, 0.0, 0.0)",0.155429336019,0.389270023595,0.12311401377,-0.00235588479341,0.0057597331915,0.017124602527,"(0.0, 0.0, 0.0, 0.0, 0.0, 0.0, 0.0, 0.0, 0.0, 0.0, 0.0, 0.0, 0.0, 0.0, 0.0, 0.0, 0.0, 0.0, 0.0, 0.0, 0.0, 0.0, 0.0, 0.0, 0.0, 0.0, 0.0, 0.0, 0.0, 0.0, 0.0, 0.0, 0.0, 0.0, 0.0, 0.0)"
1970/01/01/01:00:11.462000,37,11,461000000,map,map,0.614224401485,1.92113320456,-0.53436963243,0.000536118758464,-0.000208941293393,-0.694870031143,-0.719135157211,"(0.19658053551210147, 0.0, 0.0, 0.0, 0.0, 0.0, 0.0, 0.06753705386590973, 0.0, 0.0, 0.0, 0.0, 0.0, 0.0, 0.010099019513592674, 0.0, 0.0, 0.0, 0.0, 0.0, 0.0, 0.0, 0.0, 0.0, 0.0, 0.0, 0.0, 0.0, 0.0, 0.0, 0.0, 0.0, 0.0, 0.0, 0.0, 0.0)",0.159791138543,0.390021121944,0.118867693723,-0.00251442568803,0.00620356592995,0.0345074999282,"(0.0, 0.0, 0.0, 0.0, 0.0, 0.0, 0.0, 0.0, 0.0, 0.0, 0.0, 0.0, 0.0, 0.0, 0.0, 0.0, 0.0, 0.0, 0.0, 0.0, 0.0, 0.0, 0.0, 0.0, 0.0, 0.0, 0.0, 0.0, 0.0, 0.0, 0.0, 0.0, 0.0, 0.0, 0.0, 0.0)"
1970/01/01/01:00:11.488000,38,11,481000000,map,map,0.614224401414,1.92113320404,-0.537979103368,0.000486573018349,-0.000243230944481,-0.695009298819,-0.719000609983,"(0.20658053551210148, 0.0, 0.0, 0.0, 0.0, 0.0, 0.0, 0.07753705386590952, 0.0, 0.0, 0.0, 0.0, 0.0, 0.0, 0.010099019513592784, 0.0, 0.0, 0.0, 0.0, 0.0, 0.0, 0.0, 0.0, 0.0, 0.0, 0.0, 0.0, 0.0, 0.0, 0.0, 0.0, 0.0, 0.0, 0.0, 0.0, 0.0)",0.165499064326,0.391019009749,0.110778125916,-0.00118801119626,0.00783711670558,0.0129343053341,"(0.0, 0.0, 0.0, 0.0, 0.0, 0.0, 0.0, 0.0, 0.0, 0.0, 0.0, 0.0, 0.0, 0.0, 0.0, 0.0, 0.0, 0.0, 0.0, 0.0, 0.0, 0.0, 0.0, 0.0, 0.0, 0.0, 0.0, 0.0, 0.0, 0.0, 0.0, 0.0, 0.0, 0.0, 0.0, 0.0)"
1970/01/01/01:00:11.518000,39,11,502000000,map,map,0.614224401412,1.92113320402,-0.558828432814,0.000521804048522,-0.000208063299217,-0.695180420292,-0.718835220481,"(0.2165805355121015, 0.0, 0.0, 0.0, 0.0, 0.0, 0.0, 0.08753705386590951, 0.0, 0.0, 0.0, 0.0, 0.0, 0.0, 9.95049264647074e-05, 0.0, 0.0, 0.0, 0.0, 0.0, 0.0, 0.0, 0.0, 0.0, 0.0, 0.0, 0.0, 0.0, 0.0, 0.0, 0.0, 0.0, 0.0, 0.0, 0.0, 0.0)",0.170758829631,0.391962013726,0.0935059455356,0.00354644373372,-0.00294809868444,0.0238085819015,"(0.0, 0.0, 0.0, 0.0, 0.0, 0.0, 0.0, 0.0, 0.0, 0.0, 0.0, 0.0, 0.0, 0.0, 0.0, 0.0, 0.0, 0.0, 0.0, 0.0, 0.0, 0.0, 0.0, 0.0, 0.0, 0.0, 0.0, 0.0, 0.0, 0.0, 0.0, 0.0, 0.0, 0.0, 0.0, 0.0)"
1970/01/01/01:00:11.564000,40,11,521000000,map,map,0.614224401412,1.92113320402,-0.534376905486,0.000451349983318,-0.000245539348777,-0.695406206228,-0.718616768096,"(0.2265805355121015, 0.0, 0.0, 0.0, 0.0, 0.0, 0.0, 0.09753705386590951, 0.0, 0.0, 0.0, 0.0, 0.0, 0.0, 9.901956025590446e-05, 0.0, 0.0, 0.0, 0.0, 0.0, 0.0, 0.0, 0.0, 0.0, 0.0, 0.0, 0.0, 0.0, 0.0, 0.0, 0.0, 0.0, 0.0, 0.0, 0.0, 0.0)",0.17488591895,0.392725622422,0.0444656380119,0.00398970227741,0.000531302073274,0.0259728163969,"(0.0, 0.0, 0.0, 0.0, 0.0, 0.0, 0.0, 0.0, 0.0, 0.0, 0.0, 0.0, 0.0, 0.0, 0.0, 0.0, 0.0, 0.0, 0.0, 0.0, 0.0, 0.0, 0.0, 0.0, 0.0, 0.0, 0.0, 0.0, 0.0, 0.0, 0.0, 0.0, 0.0, 0.0, 0.0, 0.0)"
1970/01/01/01:00:11.564000,41,11,542000000,map,map,0.633042571812,1.93662137195,-0.530017735811,0.000391618550733,-0.000295684678232,-0.695548030373,-0.718479495811,"(0.1643523951628019, 0.0, 0.0, 0.0, 0.0, 0.0, 0.0, 0.02783471021375029, 0.0, 0.0, 0.0, 0.0, 0.0, 0.0, 9.900825263736113e-05, 0.0, 0.0, 0.0, 0.0, 0.0, 0.0, 0.0, 0.0, 0.0, 0.0, 0.0, 0.0, 0.0, 0.0, 0.0, 0.0, 0.0, 0.0, 0.0, 0.0, 0.0)",0.178877828799,0.393489432067,0.0402427575684,0.00339671515405,0.00868856772224,0.0191260649191,"(0.0, 0.0, 0.0, 0.0, 0.0, 0.0, 0.0, 0.0, 0.0, 0.0, 0.0, 0.0, 0.0, 0.0, 0.0, 0.0, 0.0, 0.0, 0.0, 0.0, 0.0, 0.0, 0.0, 0.0, 0.0, 0.0, 0.0, 0.0, 0.0, 0.0, 0.0, 0.0, 0.0, 0.0, 0.0, 0.0)"
1970/01/01/01:00:11.564000,42,11,561000000,map,map,0.633047236542,1.93656888224,-0.563412591269,0.000395402619504,-0.000319735804088,-0.695758831787,-0.718275353599,"(0.17435239496768568, 0.0, 0.0, 0.0, 0.0, 0.0, 0.0, 0.03783468550852963, 0.0, 0.0, 0.0, 0.0, 0.0, 0.0, 9.901951251020723e-05, 0.0, 0.0, 0.0, 0.0, 0.0, 0.0, 0.0, 0.0, 0.0, 0.0, 0.0, 0.0, 0.0, 0.0, 0.0, 0.0, 0.0, 0.0, 0.0, 0.0, 0.0)",0.182685856834,0.394107936021,0.042647939687,-0.00462420399691,0.000291522886641,0.0214121411729,"(0.0, 0.0, 0.0, 0.0, 0.0, 0.0, 0.0, 0.0, 0.0, 0.0, 0.0, 0.0, 0.0, 0.0, 0.0, 0.0, 0.0, 0.0, 0.0, 0.0, 0.0, 0.0, 0.0, 0.0, 0.0, 0.0, 0.0, 0.0, 0.0, 0.0, 0.0, 0.0, 0.0, 0.0, 0.0, 0.0)"
1970/01/01/01:00:11.588000,43,11,587000000,map,map,0.633047203464,1.93656925445,-0.539260888202,0.00033093470587,-0.000401212193683,-0.695963853815,-0.718076737892,"(0.18435239496766692, 0.0, 0.0, 0.0, 0.0, 0.0, 0.0, 0.047834685506154585, 0.0, 0.0, 0.0, 0.0, 0.0, 0.0, 9.901951359268e-05, 0.0, 0.0, 0.0, 0.0, 0.0, 0.0, 0.0, 0.0, 0.0, 0.0, 0.0, 0.0, 0.0, 0.0, 0.0, 0.0, 0.0, 0.0, 0.0, 0.0, 0.0)",0.187225310192,0.394873904338,-0.0286982861628,0.00106525206968,0.0118506746434,0.0293669654933,"(0.0, 0.0, 0.0, 0.0, 0.0, 0.0, 0.0, 0.0, 0.0, 0.0, 0.0, 0.0, 0.0, 0.0, 0.0, 0.0, 0.0, 0.0, 0.0, 0.0, 0.0, 0.0, 0.0, 0.0, 0.0, 0.0, 0.0, 0.0, 0.0, 0.0, 0.0, 0.0, 0.0, 0.0, 0.0, 0.0)"
1970/01/01/01:00:11.605000,44,11,604000000,map,map,0.633047203474,1.93656925434,-0.539991056036,0.000287558851244,-0.000459146738702,-0.696105843254,-0.717938963137,"(0.19435239496766693, 0.0, 0.0, 0.0, 0.0, 0.0, 0.0, 0.05783468550615436, 0.0, 0.0, 0.0, 0.0, 0.0, 0.0, 9.901951359278434e-05, 0.0, 0.0, 0.0, 0.0, 0.0, 0.0, 0.0, 0.0, 0.0, 0.0, 0.0, 0.0, 0.0, 0.0, 0.0, 0.0, 0.0, 0.0, 0.0, 0.0, 0.0)",0.189646065353,0.39530962247,-0.030574836231,-0.00180084927049,0.0067206716927,0.0115179051722,"(0.0, 0.0, 0.0, 0.0, 0.0, 0.0, 0.0, 0.0, 0.0, 0.0, 0.0, 0.0, 0.0, 0.0, 0.0, 0.0, 0.0, 0.0, 0.0, 0.0, 0.0, 0.0, 0.0, 0.0, 0.0, 0.0, 0.0, 0.0, 0.0, 0.0, 0.0, 0.0, 0.0, 0.0, 0.0, 0.0)"
1970/01/01/01:00:11.648000,45,11,622000000,map,map,0.633047203473,1.93656925434,-0.533678960816,0.00024970720494,-0.00045805049876,-0.696267465882,-0.717782313838,"(0.20435239496766694, 0.0, 0.0, 0.0, 0.0, 0.0, 0.0, 0.06783468550615436, 0.0, 0.0, 0.0, 0.0, 0.0, 0.0, 9.901951359278314e-05, 0.0, 0.0, 0.0, 0.0, 0.0, 0.0, 0.0, 0.0, 0.0, 0.0, 0.0, 0.0, 0.0, 0.0, 0.0, 0.0, 0.0, 0.0, 0.0, 0.0, 0.0)",0.191876768023,0.395731756447,-0.0325874380389,0.0064887981449,-0.000564223235912,0.0199490585826,"(0.0, 0.0, 0.0, 0.0, 0.0, 0.0, 0.0, 0.0, 0.0, 0.0, 0.0, 0.0, 0.0, 0.0, 0.0, 0.0, 0.0, 0.0, 0.0, 0.0, 0.0, 0.0, 0.0, 0.0, 0.0, 0.0, 0.0, 0.0, 0.0, 0.0, 0.0, 0.0, 0.0, 0.0, 0.0, 0.0)"
1970/01/01/01:00:11.648000,46,11,641000000,map,map,0.633047203473,1.93656925434,-0.535242679288,0.000269726433205,-0.000418135200343,-0.696406713142,-0.717647281262,"(0.21435239496766695, 0.0, 0.0, 0.0, 0.0, 0.0, 0.0, 0.07783468550615436, 0.0, 0.0, 0.0, 0.0, 0.0, 0.0, 9.901951359278424e-05, 0.0, 0.0, 0.0, 0.0, 0.0, 0.0, 0.0, 0.0, 0.0, 0.0, 0.0, 0.0, 0.0, 0.0, 0.0, 0.0, 0.0, 0.0, 0.0, 0.0, 0.0)",0.193889763957,0.396137239585,-0.0234639231174,0.000412254985307,-0.00461573779311,0.0099274972172,"(0.0, 0.0, 0.0, 0.0, 0.0, 0.0, 0.0, 0.0, 0.0, 0.0, 0.0, 0.0, 0.0, 0.0, 0.0, 0.0, 0.0, 0.0, 0.0, 0.0, 0.0, 0.0, 0.0, 0.0, 0.0, 0.0, 0.0, 0.0, 0.0, 0.0, 0.0, 0.0, 0.0, 0.0, 0.0, 0.0)"
1970/01/01/01:00:11.692000,47,11,661000000,map,map,0.633047203473,1.93656925434,-0.532150858712,0.000257294882733,-0.000407104250562,-0.696527642987,-0.717529807459,"(0.22435239496766696, 0.0, 0.0, 0.0, 0.0, 0.0, 0.0, 0.08783468550615435, 0.0, 0.0, 0.0, 0.0, 0.0, 0.0, 9.901951359278424e-05, 0.0, 0.0, 0.0, 0.0, 0.0, 0.0, 0.0, 0.0, 0.0, 0.0, 0.0, 0.0, 0.0, 0.0, 0.0, 0.0, 0.0, 0.0, 0.0, 0.0, 0.0)",0.195661581108,0.396523515626,-0.0172591880999,0.00132382768556,0.00248034598278,0.012706270101,"(0.0, 0.0, 0.0, 0.0, 0.0, 0.0, 0.0, 0.0, 0.0, 0.0, 0.0, 0.0, 0.0, 0.0, 0.0, 0.0, 0.0, 0.0, 0.0, 0.0, 0.0, 0.0, 0.0, 0.0, 0.0, 0.0, 0.0, 0.0, 0.0, 0.0, 0.0, 0.0, 0.0, 0.0, 0.0, 0.0)"
1970/01/01/01:00:11.692000,48,11,681000000,map,map,0.715473418304,1.99992625629,-0.557707964098,0.000183119259037,-0.000351003512761,-0.696592113836,-0.717467275365,"(0.16179038941436957, 0.0, 0.0, 0.0, 0.0, 0.0, 0.0, 0.026017091824060323, 0.0, 0.0, 0.0, 0.0, 0.0, 0.0, 9.900842414814178e-05, 0.0, 0.0, 0.0, 0.0, 0.0, 0.0, 0.0, 0.0, 0.0, 0.0, 0.0, 0.0, 0.0, 0.0, 0.0, 0.0, 0.0, 0.0, 0.0, 0.0, 0.0)",0.197101104732,0.396871164064,-0.00636023502289,0.00788343816673,0.0032215183015,0.0022616900049,"(0.0, 0.0, 0.0, 0.0, 0.0, 0.0, 0.0, 0.0, 0.0, 0.0, 0.0, 0.0, 0.0, 0.0, 0.0, 0.0, 0.0, 0.0, 0.0, 0.0, 0.0, 0.0, 0.0, 0.0, 0.0, 0.0, 0.0, 0.0, 0.0, 0.0, 0.0, 0.0, 0.0, 0.0, 0.0, 0.0)"
1970/01/01/01:00:11.736000,49,11,701000000,map,map,0.715474427747,1.99995077991,-0.540024247789,0.000196000194108,-0.000415917839826,-0.696722756554,-0.717340510157,"(0.17179038938178467, 0.0, 0.0, 0.0, 0.0, 0.0, 0.0, 0.036017072592187026, 0.0, 0.0, 0.0, 0.0, 0.0, 0.0, 9.901951252669531e-05, 0.0, 0.0, 0.0, 0.0, 0.0, 0.0, 0.0, 0.0, 0.0, 0.0, 0.0, 0.0, 0.0, 0.0, 0.0, 0.0, 0.0, 0.0, 0.0, 0.0, 0.0)",0.201537195323,0.397184047657,-0.0396609419341,-0.00641732385345,0.00845071744735,0.0139881462615,"(0.0, 0.0, 0.0, 0.0, 0.0, 0.0, 0.0, 0.0, 0.0, 0.0, 0.0, 0.0, 0.0, 0.0, 0.0, 0.0, 0.0, 0.0, 0.0, 0.0, 0.0, 0.0, 0.0, 0.0, 0.0, 0.0, 0.0, 0.0, 0.0, 0.0, 0.0, 0.0, 0.0, 0.0, 0.0, 0.0)"
1970/01/01/01:00:11.736000,50,11,721000000,map,map,0.715474432481,1.99995089491,-0.531566535523,0.000205154960875,-0.000511518365329,-0.696730661064,-0.717332689941,"(0.18179038938178155, 0.0, 0.0, 0.0, 0.0, 0.0, 0.0, 0.04601707259033816, 0.0, 0.0, 0.0, 0.0, 0.0, 0.0, 9.901951359268246e-05, 0.0, 0.0, 0.0, 0.0, 0.0, 0.0, 0.0, 0.0, 0.0, 0.0, 0.0, 0.0, 0.0, 0.0, 0.0, 0.0, 0.0, 0.0, 0.0, 0.0, 0.0)",0.205372036348,0.397465642892,-0.0366166391133,-0.00343529764136,0.00271651694669,0.00292354381499,"(0.0, 0.0, 0.0, 0.0, 0.0, 0.0, 0.0, 0.0, 0.0, 0.0, 0.0, 0.0, 0.0, 0.0, 0.0, 0.0, 0.0, 0.0, 0.0, 0.0, 0.0, 0.0, 0.0, 0.0, 0.0, 0.0, 0.0, 0.0, 0.0, 0.0, 0.0, 0.0, 0.0, 0.0, 0.0, 0.0)"
1970/01/01/01:00:11.779000,51,11,742000000,map,map,0.715474432374,1.9999508923,-0.551157290147,0.000118725038077,-0.000505901011545,-0.696817233325,-0.717248562197,"(0.19179038938178156, 0.0, 0.0, 0.0, 0.0, 0.0, 0.0, 0.05601707259033798, 0.0, 0.0, 0.0, 0.0, 0.0, 0.0, 9.901951359278437e-05, 0.0, 0.0, 0.0, 0.0, 0.0, 0.0, 0.0, 0.0, 0.0, 0.0, 0.0, 0.0, 0.0, 0.0, 0.0, 0.0, 0.0, 0.0, 0.0, 0.0, 0.0)",0.208826670072,0.397731750388,-0.0178702953109,0.00716686463002,0.00740451975292,0.00870977544208,"(0.0, 0.0, 0.0, 0.0, 0.0, 0.0, 0.0, 0.0, 0.0, 0.0, 0.0, 0.0, 0.0, 0.0, 0.0, 0.0, 0.0, 0.0, 0.0, 0.0, 0.0, 0.0, 0.0, 0.0, 0.0, 0.0, 0.0, 0.0, 0.0, 0.0, 0.0, 0.0, 0.0, 0.0, 0.0, 0.0)"
1970/01/01/01:00:11.779000,52,11,762000000,map,map,0.715474432374,1.9999508923,-0.552066979186,0.00011113712362,-0.000470339525796,-0.696874860579,-0.717192705111,"(0.20179038938178157, 0.0, 0.0, 0.0, 0.0, 0.0, 0.0, 0.06601707259033798, 0.0, 0.0, 0.0, 0.0, 0.0, 0.0, 9.901951359278314e-05, 0.0, 0.0, 0.0, 0.0, 0.0, 0.0, 0.0, 0.0, 0.0, 0.0, 0.0, 0.0, 0.0, 0.0, 0.0, 0.0, 0.0, 0.0, 0.0, 0.0, 0.0)",0.211598821541,0.397958575349,-0.0351355786454,0.0055715009122,0.00274770987781,0.00916017768255,"(0.0, 0.0, 0.0, 0.0, 0.0, 0.0, 0.0, 0.0, 0.0, 0.0, 0.0, 0.0, 0.0, 0.0, 0.0, 0.0, 0.0, 0.0, 0.0, 0.0, 0.0, 0.0, 0.0, 0.0, 0.0, 0.0, 0.0, 0.0, 0.0, 0.0, 0.0, 0.0, 0.0, 0.0, 0.0, 0.0)"
1970/01/01/01:00:11.826000,53,11,781000000,map,map,0.715474432374,1.9999508923,-0.574142359023,7.58817581696e-05,-0.000479882844113,-0.696939656749,-0.717129679108,"(0.21179038938178157, 0.0, 0.0, 0.0, 0.0, 0.0, 0.0, 0.07601707259033798, 0.0, 0.0, 0.0, 0.0, 0.0, 0.0, 9.901951359278424e-05, 0.0, 0.0, 0.0, 0.0, 0.0, 0.0, 0.0, 0.0, 0.0, 0.0, 0.0, 0.0, 0.0, 0.0, 0.0, 0.0, 0.0, 0.0, 0.0, 0.0, 0.0)",0.213810302777,0.398152510691,-0.0491316422728,0.000419679308769,0.00199605317247,0.00933589541036,"(0.0, 0.0, 0.0, 0.0, 0.0, 0.0, 0.0, 0.0, 0.0, 0.0, 0.0, 0.0, 0.0, 0.0, 0.0, 0.0, 0.0, 0.0, 0.0, 0.0, 0.0, 0.0, 0.0, 0.0, 0.0, 0.0, 0.0, 0.0, 0.0, 0.0, 0.0, 0.0, 0.0, 0.0, 0.0, 0.0)"
1970/01/01/01:00:11.826000,54,11,801000000,map,map,0.715474432374,1.9999508923,-0.547256971892,6.14017021076e-05,-0.000487661221989,-0.697011461808,-0.717059812805,"(0.22179038938178158, 0.0, 0.0, 0.0, 0.0, 0.0, 0.0, 0.08601707259033797, 0.0, 0.0, 0.0, 0.0, 0.0, 0.0, 9.901951359278424e-05, 0.0, 0.0, 0.0, 0.0, 0.0, 0.0, 0.0, 0.0, 0.0, 0.0, 0.0, 0.0, 0.0, 0.0, 0.0, 0.0, 0.0, 0.0, 0.0, 0.0, 0.0)",0.215756214535,0.398337259622,-0.0967448011737,-0.00116636666505,-0.000888494858763,0.00783575167183,"(0.0, 0.0, 0.0, 0.0, 0.0, 0.0, 0.0, 0.0, 0.0, 0.0, 0.0, 0.0, 0.0, 0.0, 0.0, 0.0, 0.0, 0.0, 0.0, 0.0, 0.0, 0.0, 0.0, 0.0, 0.0, 0.0, 0.0, 0.0, 0.0, 0.0, 0.0, 0.0, 0.0, 0.0, 0.0, 0.0)"
1970/01/01/01:00:11.827000,55,11,821000000,map,map,0.718427137849,2.0099410034,-0.548785004806,5.34474928475e-05,-0.000478510972425,-0.697071216161,-0.717001744325,"(0.1554294352365487, 0.0, 0.0, 0.0, 0.0, 0.0, 0.0, 0.024631775397325237, 0.0, 0.0, 0.0, 0.0, 0.0, 0.0, 9.900694756541476e-05, 0.0, 0.0, 0.0, 0.0, 0.0, 0.0, 0.0, 0.0, 0.0, 0.0, 0.0, 0.0, 0.0, 0.0, 0.0, 0.0, 0.0, 0.0, 0.0, 0.0, 0.0)",0.217336486875,0.39850353366,-0.0883886283339,-7.07582765162e-05,0.00467293541945,0.00486468903491,"(0.0, 0.0, 0.0, 0.0, 0.0, 0.0, 0.0, 0.0, 0.0, 0.0, 0.0, 0.0, 0.0, 0.0, 0.0, 0.0, 0.0, 0.0, 0.0, 0.0, 0.0, 0.0, 0.0, 0.0, 0.0, 0.0, 0.0, 0.0, 0.0, 0.0, 0.0, 0.0, 0.0, 0.0, 0.0, 0.0)"
1970/01/01/01:00:11.870000,56,11,842000000,map,map,0.718427990959,2.0099073573,-0.570778521975,-6.17375186467e-06,-0.00049619264551,-0.697160295501,-0.716915109503,"(0.16542943522150272, 0.0, 0.0, 0.0, 0.0, 0.0, 0.0, 0.03463175199389272, 0.0, 0.0, 0.0, 0.0, 0.0, 0.0, 9.901951238474303e-05, 0.0, 0.0, 0.0, 0.0, 0.0, 0.0, 0.0, 0.0, 0.0, 0.0, 0.0, 0.0, 0.0, 0.0, 0.0, 0.0, 0.0, 0.0, 0.0, 0.0, 0.0)",0.218772622646,0.398660662625,-0.0806574327075,0.00520552181434,0.00409089745992,0.0133334288486,"(0.0, 0.0, 0.0, 0.0, 0.0, 0.0, 0.0, 0.0, 0.0, 0.0, 0.0, 0.0, 0.0, 0.0, 0.0, 0.0, 0.0, 0.0, 0.0, 0.0, 0.0, 0.0, 0.0, 0.0, 0.0, 0.0, 0.0, 0.0, 0.0, 0.0, 0.0, 0.0, 0.0, 0.0, 0.0, 0.0)"
1970/01/01/01:00:11.870000,57,11,861000000,map,map,0.718427988126,2.00990746901,-0.563330726016,-3.95878062913e-05,-0.000526950954573,-0.697190921772,-0.716885326169,"(0.17542943522150128, 0.0, 0.0, 0.0, 0.0, 0.0, 0.0, 0.04463175199164282, 0.0, 0.0, 0.0, 0.0, 0.0, 0.0, 9.90195135926686e-05, 0.0, 0.0, 0.0, 0.0, 0.0, 0.0, 0.0, 0.0, 0.0, 0.0, 0.0, 0.0, 0.0, 0.0, 0.0, 0.0, 0.0, 0.0, 0.0, 0.0, 0.0)",0.219762148585,0.398787899676,-0.107015615553,-0.00148783602858,0.00381280126896,0.00510910757811,"(0.0, 0.0, 0.0, 0.0, 0.0, 0.0, 0.0, 0.0, 0.0, 0.0, 0.0, 0.0, 0.0, 0.0, 0.0, 0.0, 0.0, 0.0, 0.0, 0.0, 0.0, 0.0, 0.0, 0.0, 0.0, 0.0, 0.0, 0.0, 0.0, 0.0, 0.0, 0.0, 0.0, 0.0, 0.0, 0.0)"
1970/01/01/01:00:11.882000,58,11,881000000,map,map,0.718427988126,2.00990746901,-0.563330726016,5.65078520744e-06,-0.000595175383578,-0.697198844062,-0.716877656759,"(0.1854294352215013, 0.0, 0.0, 0.0, 0.0, 0.0, 0.0, 0.05463175199164282, 0.0, 0.0, 0.0, 0.0, 0.0, 0.0, 0.01009901951359267, 0.0, 0.0, 0.0, 0.0, 0.0, 0.0, 0.0, 0.0, 0.0, 0.0, 0.0, 0.0, 0.0, 0.0, 0.0, 0.0, 0.0, 0.0, 0.0, 0.0, 0.0)",0.220538535049,0.398909109708,-0.126935282576,-0.00336742264618,-0.00141476758758,0.000886046406971,"(0.0, 0.0, 0.0, 0.0, 0.0, 0.0, 0.0, 0.0, 0.0, 0.0, 0.0, 0.0, 0.0, 0.0, 0.0, 0.0, 0.0, 0.0, 0.0, 0.0, 0.0, 0.0, 0.0, 0.0, 0.0, 0.0, 0.0, 0.0, 0.0, 0.0, 0.0, 0.0, 0.0, 0.0, 0.0, 0.0)"
1970/01/01/01:00:11.902000,59,11,901000000,map,map,0.718427988129,2.00990746892,-0.563958404813,-1.40898478614e-05,-0.000531954802119,-0.697223135135,-0.716854040036,"(0.1954294352215013, 0.0, 0.0, 0.0, 0.0, 0.0, 0.0, 0.0646317519916426, 0.0, 0.0, 0.0, 0.0, 0.0, 0.0, 0.010099019513592784, 0.0, 0.0, 0.0, 0.0, 0.0, 0.0, 0.0, 0.0, 0.0, 0.0, 0.0, 0.0, 0.0, 0.0, 0.0, 0.0, 0.0, 0.0, 0.0, 0.0, 0.0)",0.221061473035,0.399018198738,-0.126890835744,0.00960757038791,0.000638256240842,0.0061638274489,"(0.0, 0.0, 0.0, 0.0, 0.0, 0.0, 0.0, 0.0, 0.0, 0.0, 0.0, 0.0, 0.0, 0.0, 0.0, 0.0, 0.0, 0.0, 0.0, 0.0, 0.0, 0.0, 0.0, 0.0, 0.0, 0.0, 0.0, 0.0, 0.0, 0.0, 0.0, 0.0, 0.0, 0.0, 0.0, 0.0)"
1970/01/01/01:00:11.945000,60,11,923000000,map,map,0.718427988128,2.00990746893,-0.545528608366,2.34250455345e-05,-0.000462346729943,-0.697275210859,-0.716803397305,"(0.2054294352215013, 0.0, 0.0, 0.0, 0.0, 0.0, 0.0, 0.0746317519916426, 0.0, 0.0, 0.0, 0.0, 0.0, 0.0, 9.95049264647074e-05, 0.0, 0.0, 0.0, 0.0, 0.0, 0.0, 0.0, 0.0, 0.0, 0.0, 0.0, 0.0, 0.0, 0.0, 0.0, 0.0, 0.0, 0.0, 0.0, 0.0, 0.0)",0.22138510773,0.399126196876,-0.1233481733,0.00391088491242,-0.00891309261803,0.0126935631744,"(0.0, 0.0, 0.0, 0.0, 0.0, 0.0, 0.0, 0.0, 0.0, 0.0, 0.0, 0.0, 0.0, 0.0, 0.0, 0.0, 0.0, 0.0, 0.0, 0.0, 0.0, 0.0, 0.0, 0.0, 0.0, 0.0, 0.0, 0.0, 0.0, 0.0, 0.0, 0.0, 0.0, 0.0, 0.0, 0.0)"
1970/01/01/01:00:11.945000,61,11,942000000,map,map,0.718427988129,2.00990746893,-0.553380308018,-5.8479987079e-06,-0.000409815046132,-0.697278697194,-0.716800079558,"(0.21542943522150132, 0.0, 0.0, 0.0, 0.0, 0.0, 0.0, 0.08463175199164259, 0.0, 0.0, 0.0, 0.0, 0.0, 0.0, 0.010049875924483654, 0.0, 0.0, 0.0, 0.0, 0.0, 0.0, 0.0, 0.0, 0.0, 0.0, 0.0, 0.0, 0.0, 0.0, 0.0, 0.0, 0.0, 0.0, 0.0, 0.0, 0.0)",0.221449057734,0.399209208173,-0.0873611652325,0.00759109767062,-0.00323519675575,0.00346510970742,"(0.0, 0.0, 0.0, 0.0, 0.0, 0.0, 0.0, 0.0, 0.0, 0.0, 0.0, 0.0, 0.0, 0.0, 0.0, 0.0, 0.0, 0.0, 0.0, 0.0, 0.0, 0.0, 0.0, 0.0, 0.0, 0.0, 0.0, 0.0, 0.0, 0.0, 0.0, 0.0, 0.0, 0.0, 0.0, 0.0)"
1970/01/01/01:00:11.992000,62,11,961000000,map,map,0.718427988129,2.00990746893,-0.545658209286,2.98755918878e-05,-0.000389146606169,-0.697280819683,-0.716798041363,"(0.22542943522150133, 0.0, 0.0, 0.0, 0.0, 0.0, 0.0, 0.09463175199164259, 0.0, 0.0, 0.0, 0.0, 0.0, 0.0, 9.950371902847016e-05, 0.0, 0.0, 0.0, 0.0, 0.0, 0.0, 0.0, 0.0, 0.0, 0.0, 0.0, 0.0, 0.0, 0.0, 0.0, 0.0, 0.0, 0.0, 0.0, 0.0, 0.0)",0.22134709244,0.399284333397,-0.0669328222677,-0.00276177037841,-0.0036727840261,0.00412931033815,"(0.0, 0.0, 0.0, 0.0, 0.0, 0.0, 0.0, 0.0, 0.0, 0.0, 0.0, 0.0, 0.0, 0.0, 0.0, 0.0, 0.0, 0.0, 0.0, 0.0, 0.0, 0.0, 0.0, 0.0, 0.0, 0.0, 0.0, 0.0, 0.0, 0.0, 0.0, 0.0, 0.0, 0.0, 0.0, 0.0)"
1970/01/01/01:00:11.992000,63,11,981000000,map,map,0.680046359653,1.91647731604,-0.556723305182,1.32491540586e-05,-0.000367816761146,-0.697299438053,-0.716779844461,"(0.16238510675627293, 0.0, 0.0, 0.0, 0.0, 0.0, 0.0, 0.03463636375365138, 0.0, 0.0, 0.0, 0.0, 0.0, 0.0, 9.90195589106319e-05, 0.0, 0.0, 0.0, 0.0, 0.0, 0.0, 0.0, 0.0, 0.0, 0.0, 0.0, 0.0, 0.0, 0.0, 0.0, 0.0, 0.0, 0.0, 0.0, 0.0, 0.0)",0.221081655796,0.399355900057,-0.0338783704978,0.00667420897159,0.00282631216138,0.00632979366127,"(0.0, 0.0, 0.0, 0.0, 0.0, 0.0, 0.0, 0.0, 0.0, 0.0, 0.0, 0.0, 0.0, 0.0, 0.0, 0.0, 0.0, 0.0, 0.0, 0.0, 0.0, 0.0, 0.0, 0.0, 0.0, 0.0, 0.0, 0.0, 0.0, 0.0, 0.0, 0.0, 0.0, 0.0, 0.0, 0.0)"
1970/01/01/01:00:12.036000,64,12,1000000,map,map,0.680046358067,1.91647726278,-0.560248344284,1.40550890593e-05,-0.00036845760727,-0.697258805857,-0.716819380839,"(0.17238510675627092, 0.0, 0.0, 0.0, 0.0, 0.0, 0.0, 0.04463636375136835, 0.0, 0.0, 0.0, 0.0, 0.0, 0.0, 9.901951359713969e-05, 0.0, 0.0, 0.0, 0.0, 0.0, 0.0, 0.0, 0.0, 0.0, 0.0, 0.0, 0.0, 0.0, 0.0, 0.0, 0.0, 0.0, 0.0, 0.0, 0.0, 0.0)",0.219130420005,0.399420310051,-0.0236455414989,-0.00444519867715,-0.00280596568685,-0.002766812038,"(0.0, 0.0, 0.0, 0.0, 0.0, 0.0, 0.0, 0.0, 0.0, 0.0, 0.0, 0.0, 0.0, 0.0, 0.0, 0.0, 0.0, 0.0, 0.0, 0.0, 0.0, 0.0, 0.0, 0.0, 0.0, 0.0, 0.0, 0.0, 0.0, 0.0, 0.0, 0.0, 0.0, 0.0, 0.0, 0.0)"
1970/01/01/01:00:12.036000,65,12,21000000,map,map,0.68004635818,1.91647726656,-0.53476628505,6.03916183103e-06,-0.00044014589807,-0.697278105162,-0.716800503002,"(0.18238510675627093, 0.0, 0.0, 0.0, 0.0, 0.0, 0.0, 0.05463636375136813, 0.0, 0.0, 0.0, 0.0, 0.0, 0.0, 9.901951359278434e-05, 0.0, 0.0, 0.0, 0.0, 0.0, 0.0, 0.0, 0.0, 0.0, 0.0, 0.0, 0.0, 0.0, 0.0, 0.0, 0.0, 0.0, 0.0, 0.0, 0.0, 0.0)",0.217197442404,0.399478279046,-0.0202050644525,-0.000200486084044,0.00526826307628,0.00669650143978,"(0.0, 0.0, 0.0, 0.0, 0.0, 0.0, 0.0, 0.0, 0.0, 0.0, 0.0, 0.0, 0.0, 0.0, 0.0, 0.0, 0.0, 0.0, 0.0, 0.0, 0.0, 0.0, 0.0, 0.0, 0.0, 0.0, 0.0, 0.0, 0.0, 0.0, 0.0, 0.0, 0.0, 0.0, 0.0, 0.0)"
1970/01/01/01:00:12.080000,66,12,41000000,map,map,0.680046358179,1.91647726652,-0.557408098851,2.45185792695e-05,-0.000433355275216,-0.697297062683,-0.716782135537,"(0.19238510675627093, 0.0, 0.0, 0.0, 0.0, 0.0, 0.0, 0.06463636375136812, 0.0, 0.0, 0.0, 0.0, 0.0, 0.0, 9.901951359278314e-05, 0.0, 0.0, 0.0, 0.0, 0.0, 0.0, 0.0, 0.0, 0.0, 0.0, 0.0, 0.0, 0.0, 0.0, 0.0, 0.0, 0.0, 0.0, 0.0, 0.0, 0.0)",0.215282458232,0.399530451142,0.0258056006243,0.00230226365166,0.000772531984167,0.00583474308743,"(0.0, 0.0, 0.0, 0.0, 0.0, 0.0, 0.0, 0.0, 0.0, 0.0, 0.0, 0.0, 0.0, 0.0, 0.0, 0.0, 0.0, 0.0, 0.0, 0.0, 0.0, 0.0, 0.0, 0.0, 0.0, 0.0, 0.0, 0.0, 0.0, 0.0, 0.0, 0.0, 0.0, 0.0, 0.0, 0.0)"
1970/01/01/01:00:12.080000,67,12,61000000,map,map,0.680046358179,1.91647726652,-0.545209671532,2.30223044174e-07,-0.000463916679471,-0.697308808483,-0.716770726912,"(0.20238510675627094, 0.0, 0.0, 0.0, 0.0, 0.0, 0.0, 0.07463636375136812, 0.0, 0.0, 0.0, 0.0, 0.0, 0.0, 9.901951359278424e-05, 0.0, 0.0, 0.0, 0.0, 0.0, 0.0, 0.0, 0.0, 0.0, 0.0, 0.0, 0.0, 0.0, 0.0, 0.0, 0.0, 0.0, 0.0, 0.0, 0.0, 0.0)",0.213385214523,0.399577406027,0.0255512784993,0.00147466723899,0.00477779755427,0.00409011314553,"(0.0, 0.0, 0.0, 0.0, 0.0, 0.0, 0.0, 0.0, 0.0, 0.0, 0.0, 0.0, 0.0, 0.0, 0.0, 0.0, 0.0, 0.0, 0.0, 0.0, 0.0, 0.0, 0.0, 0.0, 0.0, 0.0, 0.0, 0.0, 0.0, 0.0, 0.0, 0.0, 0.0, 0.0, 0.0, 0.0)"
1970/01/01/01:00:12.122000,68,12,83000000,map,map,0.680046358179,1.91647726652,-0.548450544316,-6.50209803967e-07,-0.000447529910683,-0.697309066632,-0.716770384469,"(0.21238510675627095, 0.0, 0.0, 0.0, 0.0, 0.0, 0.0, 0.08463636375136811, 0.0, 0.0, 0.0, 0.0, 0.0, 0.0, 9.901951359278424e-05, 0.0, 0.0, 0.0, 0.0, 0.0, 0.0, 0.0, 0.0, 0.0, 0.0, 0.0, 0.0, 0.0, 0.0, 0.0, 0.0, 0.0, 0.0, 0.0, 0.0, 0.0)",0.211317494688,0.399623891364,0.0467450530904,0.00260933343609,-0.00409970839675,0.00234041069255,"(0.0, 0.0, 0.0, 0.0, 0.0, 0.0, 0.0, 0.0, 0.0, 0.0, 0.0, 0.0, 0.0, 0.0, 0.0, 0.0, 0.0, 0.0, 0.0, 0.0, 0.0, 0.0, 0.0, 0.0, 0.0, 0.0, 0.0, 0.0, 0.0, 0.0, 0.0, 0.0, 0.0, 0.0, 0.0, 0.0)"
1970/01/01/01:00:12.122000,69,12,102000000,map,map,0.680046358179,1.91647726652,-0.541136399456,1.3780537738e-05,-0.000456575657466,-0.697261512475,-0.716816758515,"(0.22238510675627096, 0.0, 0.0, 0.0, 0.0, 0.0, 0.0, 0.09463636375136811, 0.0, 0.0, 0.0, 0.0, 0.0, 0.0, 9.901951359278424e-05, 0.0, 0.0, 0.0, 0.0, 0.0, 0.0, 0.0, 0.0, 0.0, 0.0, 0.0, 0.0, 0.0, 0.0, 0.0, 0.0, 0.0, 0.0, 0.0, 0.0, 0.0)",0.209549779993,0.399659621685,0.055000532228,-0.00583198049957,-0.00448626885806,-0.00319511828869,"(0.0, 0.0, 0.0, 0.0, 0.0, 0.0, 0.0, 0.0, 0.0, 0.0, 0.0, 0.0, 0.0, 0.0, 0.0, 0.0, 0.0, 0.0, 0.0, 0.0, 0.0, 0.0, 0.0, 0.0, 0.0, 0.0, 0.0, 0.0, 0.0, 0.0, 0.0, 0.0, 0.0, 0.0, 0.0, 0.0)"
1970/01/01/01:00:12.122000,70,12,121000000,map,map,0.656134563856,1.8827318064,-0.533253784624,8.4024146523e-05,-0.000448181067145,-0.697263407766,-0.716814947517,"(0.16243651920297114, 0.0, 0.0, 0.0, 0.0, 0.0, 0.0, 0.02539362454036357, 0.0, 0.0, 0.0, 0.0, 0.0, 0.0, 9.900871521655117e-05, 0.0, 0.0, 0.0, 0.0, 0.0, 0.0, 0.0, 0.0, 0.0, 0.0, 0.0, 0.0, 0.0, 0.0, 0.0, 0.0, 0.0, 0.0, 0.0, 0.0, 0.0)",0.207797426964,0.399691957625,0.0718619526787,0.00279284381695,-0.00777459388818,0.00233977674823,"(0.0, 0.0, 0.0, 0.0, 0.0, 0.0, 0.0, 0.0, 0.0, 0.0, 0.0, 0.0, 0.0, 0.0, 0.0, 0.0, 0.0, 0.0, 0.0, 0.0, 0.0, 0.0, 0.0, 0.0, 0.0, 0.0, 0.0, 0.0, 0.0, 0.0, 0.0, 0.0, 0.0, 0.0, 0.0, 0.0)"
1970/01/01/01:00:12.163000,71,12,143000000,map,map,0.656133236664,1.88271278283,-0.546115875207,8.1405526605e-05,-0.000402650205362,-0.697242211852,-0.716835553375,"(0.17243651909649696, 0.0, 0.0, 0.0, 0.0, 0.0, 0.0, 0.03539360266472479, 0.0, 0.0, 0.0, 0.0, 0.0, 0.0, 9.901951255467831e-05, 0.0, 0.0, 0.0, 0.0, 0.0, 0.0, 0.0, 0.0, 0.0, 0.0, 0.0, 0.0, 0.0, 0.0, 0.0, 0.0, 0.0, 0.0, 0.0, 0.0, 0.0)",0.204733842881,0.399725842286,0.100211798827,0.00363861129606,-0.00100398885742,-0.00018357186328,"(0.0, 0.0, 0.0, 0.0, 0.0, 0.0, 0.0, 0.0, 0.0, 0.0, 0.0, 0.0, 0.0, 0.0, 0.0, 0.0, 0.0, 0.0, 0.0, 0.0, 0.0, 0.0, 0.0, 0.0, 0.0, 0.0, 0.0, 0.0, 0.0, 0.0, 0.0, 0.0, 0.0, 0.0, 0.0, 0.0)"
1970/01/01/01:00:12.163000,72,12,161000000,map,map,0.656133256044,1.88271306062,-0.526960338963,2.39507904266e-05,-0.000399560787859,-0.697195797635,-0.716880618893,"(0.18243651909648673, 0.0, 0.0, 0.0, 0.0, 0.0, 0.0, 0.04539360266262177, 0.0, 0.0, 0.0, 0.0, 0.0, 0.0, 9.901951359268437e-05, 0.0, 0.0, 0.0, 0.0, 0.0, 0.0, 0.0, 0.0, 0.0, 0.0, 0.0, 0.0, 0.0, 0.0, 0.0, 0.0, 0.0, 0.0, 0.0, 0.0, 0.0)",0.202338373312,0.39975051648,0.0966395748745,0.00491180167024,0.000559576016356,-0.00202096700055,"(0.0, 0.0, 0.0, 0.0, 0.0, 0.0, 0.0, 0.0, 0.0, 0.0, 0.0, 0.0, 0.0, 0.0, 0.0, 0.0, 0.0, 0.0, 0.0, 0.0, 0.0, 0.0, 0.0, 0.0, 0.0, 0.0, 0.0, 0.0, 0.0, 0.0, 0.0, 0.0, 0.0, 0.0, 0.0, 0.0)"
1970/01/01/01:00:12.182000,73,12,181000000,map,map,0.65613325584,1.8827130577,-0.547472104928,-5.85943783187e-05,-0.000389770216949,-0.697144344894,-0.716930807228,"(0.19243651909648674, 0.0, 0.0, 0.0, 0.0, 0.0, 0.0, 0.05539360266262157, 0.0, 0.0, 0.0, 0.0, 0.0, 0.0, 9.901951359278327e-05, 0.0, 0.0, 0.0, 0.0, 0.0, 0.0, 0.0, 0.0, 0.0, 0.0, 0.0, 0.0, 0.0, 0.0, 0.0, 0.0, 0.0, 0.0, 0.0, 0.0, 0.0)",0.199768879823,0.399775464832,0.122304421716,0.00828283234936,0.00332953903475,-0.00347222871614,"(0.0, 0.0, 0.0, 0.0, 0.0, 0.0, 0.0, 0.0, 0.0, 0.0, 0.0, 0.0, 0.0, 0.0, 0.0, 0.0, 0.0, 0.0, 0.0, 0.0, 0.0, 0.0, 0.0, 0.0, 0.0, 0.0, 0.0, 0.0, 0.0, 0.0, 0.0, 0.0, 0.0, 0.0, 0.0, 0.0)"
1970/01/01/01:00:12.202000,74,12,201000000,map,map,0.65613325584,1.8827130577,-0.54797683725,-9.65919333902e-05,-0.000448907235942,-0.69711524974,-0.716959059446,"(0.20243651909648674, 0.0, 0.0, 0.0, 0.0, 0.0, 0.0, 0.06539360266262156, 0.0, 0.0, 0.0, 0.0, 0.0, 0.0, 9.901951359278424e-05, 0.0, 0.0, 0.0, 0.0, 0.0, 0.0, 0.0, 0.0, 0.0, 0.0, 0.0, 0.0, 0.0, 0.0, 0.0, 0.0, 0.0, 0.0, 0.0, 0.0, 0.0)",0.197294464976,0.399797918349,0.105428703417,-0.00215688404661,0.00662805589322,-0.00160944765953,"(0.0, 0.0, 0.0, 0.0, 0.0, 0.0, 0.0, 0.0, 0.0, 0.0, 0.0, 0.0, 0.0, 0.0, 0.0, 0.0, 0.0, 0.0, 0.0, 0.0, 0.0, 0.0, 0.0, 0.0, 0.0, 0.0, 0.0, 0.0, 0.0, 0.0, 0.0, 0.0, 0.0, 0.0, 0.0, 0.0)"
1970/01/01/01:00:12.246000,75,12,222000000,map,map,0.65613325584,1.8827130577,-0.533986272102,-9.23425823446e-05,-0.000411494097963,-0.697127653425,-0.716946992935,"(0.21243651909648675, 0.0, 0.0, 0.0, 0.0, 0.0, 0.0, 0.07539360266262156, 0.0, 0.0, 0.0, 0.0, 0.0, 0.0, 9.901951359278424e-05, 0.0, 0.0, 0.0, 0.0, 0.0, 0.0, 0.0, 0.0, 0.0, 0.0, 0.0, 0.0, 0.0, 0.0, 0.0, 0.0, 0.0, 0.0, 0.0, 0.0, 0.0)",0.194788337086,0.399819136922,0.086089163722,0.00245335177597,-0.00391604319531,0.00371503234253,"(0.0, 0.0, 0.0, 0.0, 0.0, 0.0, 0.0, 0.0, 0.0, 0.0, 0.0, 0.0, 0.0, 0.0, 0.0, 0.0, 0.0, 0.0, 0.0, 0.0, 0.0, 0.0, 0.0, 0.0, 0.0, 0.0, 0.0, 0.0, 0.0, 0.0, 0.0, 0.0, 0.0, 0.0, 0.0, 0.0)"
1970/01/01/01:00:12.247000,76,12,241000000,map,map,0.65613325584,1.8827130577,-0.544209731214,-4.59084238711e-05,-0.000368622377164,-0.697109588232,-0.716964552366,"(0.22243651909648676, 0.0, 0.0, 0.0, 0.0, 0.0, 0.0, 0.08539360266262155, 0.0, 0.0, 0.0, 0.0, 0.0, 0.0, 9.901951359278424e-05, 0.0, 0.0, 0.0, 0.0, 0.0, 0.0, 0.0, 0.0, 0.0, 0.0, 0.0, 0.0, 0.0, 0.0, 0.0, 0.0, 0.0, 0.0, 0.0, 0.0, 0.0)",0.19260152921,0.399836318915,0.0909122212557,-0.00179042888132,-0.000943395480518,0.00301143413567,"(0.0, 0.0, 0.0, 0.0, 0.0, 0.0, 0.0, 0.0, 0.0, 0.0, 0.0, 0.0, 0.0, 0.0, 0.0, 0.0, 0.0, 0.0, 0.0, 0.0, 0.0, 0.0, 0.0, 0.0, 0.0, 0.0, 0.0, 0.0, 0.0, 0.0, 0.0, 0.0, 0.0, 0.0, 0.0, 0.0)"
1970/01/01/01:00:12.289000,77,12,261000000,map,map,0.720778926388,1.83782712992,-0.543105595084,-9.87374302374e-06,-0.000365795482256,-0.697084999498,-0.716988466751,"(0.17752641387186888, 0.0, 0.0, 0.0, 0.0, 0.0, 0.0, 0.032600619764501196, 0.0, 0.0, 0.0, 0.0, 0.0, 0.0, 9.901382952652617e-05, 0.0, 0.0, 0.0, 0.0, 0.0, 0.0, 0.0, 0.0, 0.0, 0.0, 0.0, 0.0, 0.0, 0.0, 0.0, 0.0, 0.0, 0.0, 0.0, 0.0, 0.0)",0.190370267834,0.399852687023,0.0752592570435,-0.00104843427014,-0.00178521084073,-0.0026902014901,"(0.0, 0.0, 0.0, 0.0, 0.0, 0.0, 0.0, 0.0, 0.0, 0.0, 0.0, 0.0, 0.0, 0.0, 0.0, 0.0, 0.0, 0.0, 0.0, 0.0, 0.0, 0.0, 0.0, 0.0, 0.0, 0.0, 0.0, 0.0, 0.0, 0.0, 0.0, 0.0, 0.0, 0.0, 0.0, 0.0)"
1970/01/01/01:00:12.289000,78,12,281000000,map,map,0.720766354671,1.8378154671,-0.55747612761,1.88440144316e-05,-0.000315773130843,-0.697067151624,-0.717005808862,"(0.18752640621866556, 0.0, 0.0, 0.0, 0.0, 0.0, 0.0, 0.04260061317790505, 0.0, 0.0, 0.0, 0.0, 0.0, 0.0, 9.901951304634442e-05, 0.0, 0.0, 0.0, 0.0, 0.0, 0.0, 0.0, 0.0, 0.0, 0.0, 0.0, 0.0, 0.0, 0.0, 0.0, 0.0, 0.0, 0.0, 0.0, 0.0, 0.0)",0.190793878194,0.399867418321,0.061546705183,0.00183419152032,-0.00144439059716,0.000640230235106,"(0.0, 0.0, 0.0, 0.0, 0.0, 0.0, 0.0, 0.0, 0.0, 0.0, 0.0, 0.0, 0.0, 0.0, 0.0, 0.0, 0.0, 0.0, 0.0, 0.0, 0.0, 0.0, 0.0, 0.0, 0.0, 0.0, 0.0, 0.0, 0.0, 0.0, 0.0, 0.0, 0.0, 0.0, 0.0, 0.0)"
1970/01/01/01:00:12.333000,79,12,301000000,map,map,0.720766354671,1.8378154671,-0.55747612761,1.32791384132e-05,-0.00038357624571,-0.697085550041,-0.716987916208,"(0.19752640621866557, 0.0, 0.0, 0.0, 0.0, 0.0, 0.0, 0.05260061317790505, 0.0, 0.0, 0.0, 0.0, 0.0, 0.0, 0.010099019513046344, 0.0, 0.0, 0.0, 0.0, 0.0, 0.0, 0.0, 0.0, 0.0, 0.0, 0.0, 0.0, 0.0, 0.0, 0.0, 0.0, 0.0, 0.0, 0.0, 0.0, 0.0)",0.191022831303,0.399880676489,0.0480680217932,-0.000429010240093,0.00825850763467,0.00334510203951,"(0.0, 0.0, 0.0, 0.0, 0.0, 0.0, 0.0, 0.0, 0.0, 0.0, 0.0, 0.0, 0.0, 0.0, 0.0, 0.0, 0.0, 0.0, 0.0, 0.0, 0.0, 0.0, 0.0, 0.0, 0.0, 0.0, 0.0, 0.0, 0.0, 0.0, 0.0, 0.0, 0.0, 0.0, 0.0, 0.0)"
1970/01/01/01:00:12.333000,80,12,321000000,map,map,0.720766465114,1.83781556956,-0.531850665782,4.39015918013e-05,-0.000348148722319,-0.697080904009,-0.716992393652,"(0.20752640621829407, 0.0, 0.0, 0.0, 0.0, 0.0, 0.0, 0.06260061317758533, 0.0, 0.0, 0.0, 0.0, 0.0, 0.0, 9.950492646469548e-05, 0.0, 0.0, 0.0, 0.0, 0.0, 0.0, 0.0, 0.0, 0.0, 0.0, 0.0, 0.0, 0.0, 0.0, 0.0, 0.0, 0.0, 0.0, 0.0, 0.0, 0.0)",0.191075751131,0.39989260884,0.0112826306979,-0.00170823196199,-0.0127255263086,-0.00131030351723,"(0.0, 0.0, 0.0, 0.0, 0.0, 0.0, 0.0, 0.0, 0.0, 0.0, 0.0, 0.0, 0.0, 0.0, 0.0, 0.0, 0.0, 0.0, 0.0, 0.0, 0.0, 0.0, 0.0, 0.0, 0.0, 0.0, 0.0, 0.0, 0.0, 0.0, 0.0, 0.0, 0.0, 0.0, 0.0, 0.0)"
1970/01/01/01:00:12.376000,81,12,341000000,map,map,0.720766465136,1.83781556958,-0.531334323679,6.91256060056e-05,-0.000326589961051,-0.697096738053,-0.71697706537,"(0.21752640621829405, 0.0, 0.0, 0.0, 0.0, 0.0, 0.0, 0.07260061317758532, 0.0, 0.0, 0.0, 0.0, 0.0, 0.0, 9.901956025590322e-05, 0.0, 0.0, 0.0, 0.0, 0.0, 0.0, 0.0, 0.0, 0.0, 0.0, 0.0, 0.0, 0.0, 0.0, 0.0, 0.0, 0.0, 0.0, 0.0, 0.0, 0.0)",0.190970565128,0.399903347956,0.0229611534763,0.00334950481346,-0.0016750052416,0.00251179268715,"(0.0, 0.0, 0.0, 0.0, 0.0, 0.0, 0.0, 0.0, 0.0, 0.0, 0.0, 0.0, 0.0, 0.0, 0.0, 0.0, 0.0, 0.0, 0.0, 0.0, 0.0, 0.0, 0.0, 0.0, 0.0, 0.0, 0.0, 0.0, 0.0, 0.0, 0.0, 0.0, 0.0, 0.0, 0.0, 0.0)"
1970/01/01/01:00:12.376000,82,12,361000000,map,map,0.720766465132,1.83781556958,-0.541198233282,5.11814411955e-05,-0.000361478146779,-0.697093960971,-0.716979758158,"(0.22752640621829406, 0.0, 0.0, 0.0, 0.0, 0.0, 0.0, 0.08260061317758531, 0.0, 0.0, 0.0, 0.0, 0.0, 0.0, 9.901951359726996e-05, 0.0, 0.0, 0.0, 0.0, 0.0, 0.0, 0.0, 0.0, 0.0, 0.0, 0.0, 0.0, 0.0, 0.0, 0.0, 0.0, 0.0, 0.0, 0.0, 0.0, 0.0)",0.190723037126,0.39991301316,0.0327884541796,0.000223259405143,0.00365597825101,8.75922198165e-05,"(0.0, 0.0, 0.0, 0.0, 0.0, 0.0, 0.0, 0.0, 0.0, 0.0, 0.0, 0.0, 0.0, 0.0, 0.0, 0.0, 0.0, 0.0, 0.0, 0.0, 0.0, 0.0, 0.0, 0.0, 0.0, 0.0, 0.0, 0.0, 0.0, 0.0, 0.0, 0.0, 0.0, 0.0, 0.0, 0.0)"
1970/01/01/01:00:12.390000,83,12,389000000,map,map,0.720766465132,1.83781556958,-0.560221361533,0.000143724817877,-0.000390219817632,-0.697038475962,-0.717033641587,"(0.23752640621829407, 0.0, 0.0, 0.0, 0.0, 0.0, 0.0, 0.0926006131775853, 0.0, 0.0, 0.0, 0.0, 0.0, 0.0, 4.975367078596582e-05, 0.0, 0.0, 0.0, 0.0, 0.0, 0.0, 0.0, 0.0, 0.0, 0.0, 0.0, 0.0, 0.0, 0.0, 0.0, 0.0, 0.0, 0.0, 0.0, 0.0, 0.0)",0.190197264809,0.399925191318,0.0197077213985,-0.00366226619737,-0.00874710591663,-0.00367798713463,"(0.0, 0.0, 0.0, 0.0, 0.0, 0.0, 0.0, 0.0, 0.0, 0.0, 0.0, 0.0, 0.0, 0.0, 0.0, 0.0, 0.0, 0.0, 0.0, 0.0, 0.0, 0.0, 0.0, 0.0, 0.0, 0.0, 0.0, 0.0, 0.0, 0.0, 0.0, 0.0, 0.0, 0.0, 0.0, 0.0)"
1970/01/01/01:00:12.402000,84,12,402000000,map,map,0.694279717582,1.88277088221,-0.560240884292,0.000142981279968,-0.000354567823172,-0.697075959657,-0.71699725371,"(0.19875736376034495, 0.0, 0.0, 0.0, 0.0, 0.0, 0.0, 0.041932965759280905, 0.0, 0.0, 0.0, 0.0, 0.0, 0.0, 0.010049751531091715, 0.0, 0.0, 0.0, 0.0, 0.0, 0.0, 0.0, 0.0, 0.0, 0.0, 0.0, 0.0, 0.0, 0.0, 0.0, 0.0, 0.0, 0.0, 0.0, 0.0, 0.0)",0.189848485064,0.399930053882,-0.00626795275176,0.00575398360376,-0.0025548958662,0.00703797161062,"(0.0, 0.0, 0.0, 0.0, 0.0, 0.0, 0.0, 0.0, 0.0, 0.0, 0.0, 0.0, 0.0, 0.0, 0.0, 0.0, 0.0, 0.0, 0.0, 0.0, 0.0, 0.0, 0.0, 0.0, 0.0, 0.0, 0.0, 0.0, 0.0, 0.0, 0.0, 0.0, 0.0, 0.0, 0.0, 0.0)"
1970/01/01/01:00:12.433000,85,12,421000000,map,map,0.694278871629,1.88277315038,-0.554613726501,0.000106552635159,-0.000329522079024,-0.697082788764,-0.716990677485,"(0.20875736330946365, 0.0, 0.0, 0.0, 0.0, 0.0, 0.0, 0.05193296251796775, 0.0, 0.0, 0.0, 0.0, 0.0, 0.0, 9.950371596470507e-05, 0.0, 0.0, 0.0, 0.0, 0.0, 0.0, 0.0, 0.0, 0.0, 0.0, 0.0, 0.0, 0.0, 0.0, 0.0, 0.0, 0.0, 0.0, 0.0, 0.0, 0.0)",0.188271410271,0.399936698763,-0.0397335831314,0.00128164602934,-0.000304045644211,0.0028394283751,"(0.0, 0.0, 0.0, 0.0, 0.0, 0.0, 0.0, 0.0, 0.0, 0.0, 0.0, 0.0, 0.0, 0.0, 0.0, 0.0, 0.0, 0.0, 0.0, 0.0, 0.0, 0.0, 0.0, 0.0, 0.0, 0.0, 0.0, 0.0, 0.0, 0.0, 0.0, 0.0, 0.0, 0.0, 0.0, 0.0)"
1970/01/01/01:00:12.448000,86,12,447000000,map,map,0.694278857011,1.88277318957,-0.544744054117,6.14891444706e-05,-0.000271871353826,-0.6970880479,-0.716985586936,"(0.21875736330944173, 0.0, 0.0, 0.0, 0.0, 0.0, 0.0, 0.06193296251781004, 0.0, 0.0, 0.0, 0.0, 0.0, 0.0, 9.901956013954229e-05, 0.0, 0.0, 0.0, 0.0, 0.0, 0.0, 0.0, 0.0, 0.0, 0.0, 0.0, 0.0, 0.0, 0.0, 0.0, 0.0, 0.0, 0.0, 0.0, 0.0, 0.0)",0.186130713353,0.399944927924,-0.0643773864479,0.00673812007651,0.00083540363247,0.000449234577141,"(0.0, 0.0, 0.0, 0.0, 0.0, 0.0, 0.0, 0.0, 0.0, 0.0, 0.0, 0.0, 0.0, 0.0, 0.0, 0.0, 0.0, 0.0, 0.0, 0.0, 0.0, 0.0, 0.0, 0.0, 0.0, 0.0, 0.0, 0.0, 0.0, 0.0, 0.0, 0.0, 0.0, 0.0, 0.0, 0.0)"
1970/01/01/01:00:12.492000,87,12,462000000,map,map,0.694278857182,1.88277318912,-0.556532704213,0.000136285286874,-0.000296272099933,-0.697113748917,-0.716960475975,"(0.22875736330944174, 0.0, 0.0, 0.0, 0.0, 0.0, 0.0, 0.07193296251781002, 0.0, 0.0, 0.0, 0.0, 0.0, 0.0, 9.901951359725925e-05, 0.0, 0.0, 0.0, 0.0, 0.0, 0.0, 0.0, 0.0, 0.0, 0.0, 0.0, 0.0, 0.0, 0.0, 0.0, 0.0, 0.0, 0.0, 0.0, 0.0, 0.0)",0.18490939603,0.39994905833,-0.0612699628548,-0.013587669319,-0.00326572379964,0.00165085261503,"(0.0, 0.0, 0.0, 0.0, 0.0, 0.0, 0.0, 0.0, 0.0, 0.0, 0.0, 0.0, 0.0, 0.0, 0.0, 0.0, 0.0, 0.0, 0.0, 0.0, 0.0, 0.0, 0.0, 0.0, 0.0, 0.0, 0.0, 0.0, 0.0, 0.0, 0.0, 0.0, 0.0, 0.0, 0.0, 0.0)"
1970/01/01/01:00:12.492000,88,12,481000000,map,map,0.694278857182,1.88277318912,-0.556803389551,7.63677640165e-05,-0.000331035486332,-0.697131085101,-0.716943645553,"(0.23875736330944175, 0.0, 0.0, 0.0, 0.0, 0.0, 0.0, 0.08193296251781002, 0.0, 0.0, 0.0, 0.0, 0.0, 0.0, 9.90195135927844e-05, 0.0, 0.0, 0.0, 0.0, 0.0, 0.0, 0.0, 0.0, 0.0, 0.0, 0.0, 0.0, 0.0, 0.0, 0.0, 0.0, 0.0, 0.0, 0.0, 0.0, 0.0)",0.183372324734,0.399953897789,-0.0750607031779,0.0027323579611,0.00783269995806,0.00644621314153,"(0.0, 0.0, 0.0, 0.0, 0.0, 0.0, 0.0, 0.0, 0.0, 0.0, 0.0, 0.0, 0.0, 0.0, 0.0, 0.0, 0.0, 0.0, 0.0, 0.0, 0.0, 0.0, 0.0, 0.0, 0.0, 0.0, 0.0, 0.0, 0.0, 0.0, 0.0, 0.0, 0.0, 0.0, 0.0, 0.0)"
