time,.header.seq,.header.stamp.secs,.header.stamp.nsecs,.header.frame_id,.position,.velocity,.acceleration
1970/01/01/01:00:01.996000,1,1,995000000,,-0.545523881912,0.0471029058099,-0.000441773852799
1970/01/01/01:00:01.997000,2,1,996000000,,-0.545476794243,0.047102458775,-0.000446422694949
1970/01/01/01:00:02.002000,3,2,2000000,,-0.545194208622,0.0470996983349,-0.000474314845633
1970/01/01/01:00:02.021000,4,2,21000000,,-0.54429936409,0.0470898449421,-0.000562628381886
1970/01/01/01:00:02.042000,5,2,41000000,,-0.543357729912,0.0470776632428,-0.000655568321235
1970/01/01/01:00:02.063000,6,2,62000000,,-0.542369246483,0.0470628738403,-0.000753127329517
1970/01/01/01:00:02.082000,7,2,82000000,,-0.541475176811,0.04704772681,-0.000841366825625
1970/01/01/01:00:02.103000,8,2,102000000,,-0.540487349033,0.0470290333033,-0.000938859710004
1970/01/01/01:00:02.122000,9,2,121000000,,-0.539593994617,0.047010358423,-0.00102703250013
1970/01/01/01:00:02.142000,10,2,141000000,,-0.538653969765,0.046988889575,-0.00111980631482
1970/01/01/01:00:02.162000,11,2,161000000,,-0.537714421749,0.0469655655324,-0.0012125360081
1970/01/01/01:00:02.182000,12,2,182000000,,-0.536775350571,0.0469403862953,-0.00130521773826
1970/01/01/01:00:02.202000,13,2,201000000,,-0.535836815834,0.0469133555889,-0.00139784801286
1970/01/01/01:00:02.223000,14,2,222000000,,-0.534898877144,0.0468844734132,-0.00149042299017
1970/01/01/01:00:02.244000,15,2,241000000,,-0.533961474895,0.0468537397683,-0.00158293917775
1970/01/01/01:00:02.264000,16,2,261000000,,-0.533024728298,0.0468211583793,-0.00167539296672
1970/01/01/01:00:02.282000,17,2,281000000,,-0.532088637352,0.0467867255211,-0.00176778051537
1970/01/01/01:00:02.303000,18,2,302000000,,-0.531153261662,0.0467504449189,-0.00186009833124
1970/01/01/01:00:02.324000,19,2,323000000,,-0.53017193079,0.0467103682458,-0.00195695296861
1970/01/01/01:00:02.343000,20,2,341000000,,-0.529284775257,0.0466723516583,-0.00204450986348
1970/01/01/01:00:02.362000,21,2,362000000,,-0.528351724148,0.0466305427253,-0.00213659647852
1970/01/01/01:00:02.381000,22,2,381000000,,-0.527419567108,0.0465868897736,-0.00222859880887
1970/01/01/01:00:02.402000,23,2,401000000,,-0.526488304138,0.0465413965285,-0.0023205128964
1970/01/01/01:00:02.426000,24,2,426000000,,-0.525371968746,0.0464843846858,-0.00243068882264
1970/01/01/01:00:02.442000,25,2,441000000,,-0.524628520012,0.0464449040592,-0.00250406307168
1970/01/01/01:00:02.463000,26,2,461000000,,-0.523700118065,0.0463939085603,-0.00259569147602
1970/01/01/01:00:02.483000,27,2,482000000,,-0.522772789001,0.0463410802186,-0.0026872176677
1970/01/01/01:00:02.502000,28,2,501000000,,-0.521846532822,0.046286419034,-0.00277863768861
1970/01/01/01:00:02.522000,29,2,522000000,,-0.520921349525,0.0462299324572,-0.00286994781345
1970/01/01/01:00:02.542000,30,2,542000000,,-0.519997358322,0.0461716242135,-0.0029611447826
1970/01/01/01:00:02.562000,31,2,561000000,,-0.519074499607,0.0461114905775,-0.00305222487077
1970/01/01/01:00:02.582000,32,2,581000000,,-0.51815289259,0.0460495352745,-0.0031431845855
1970/01/01/01:00:02.602000,33,2,601000000,,-0.51723253727,0.0459857620299,-0.00323401996866
1970/01/01/01:00:02.621000,34,2,621000000,,-0.516313493252,0.0459201745689,-0.00332472776063
1970/01/01/01:00:02.642000,35,2,641000000,,-0.515395760536,0.0458527728915,-0.00341530446894
1970/01/01/01:00:02.662000,36,2,661000000,,-0.514479339123,0.0457835644484,-0.00350574613549
1970/01/01/01:00:02.682000,37,2,681000000,,-0.513564407825,0.0457125455141,-0.00359604950063
1970/01/01/01:00:02.702000,38,2,701000000,,-0.512650847435,0.0456397235394,-0.00368621083908
1970/01/01/01:00:02.722000,39,2,721000000,,-0.511738836765,0.0455650985241,-0.00377622665837
1970/01/01/01:00:02.742000,40,2,741000000,,-0.510828256607,0.0454886741936,-0.00386609346606
1970/01/01/01:00:02.762000,41,2,761000000,,-0.509919285774,0.0454104542732,-0.00395580753684
1970/01/01/01:00:02.782000,42,2,781000000,,-0.509011864662,0.0453304424882,-0.00404536537826
1970/01/01/01:00:02.802000,43,2,801000000,,-0.50810611248,0.0452486425638,-0.00413476396352
1970/01/01/01:00:02.822000,44,2,821000000,,-0.507201969624,0.0451650545001,-0.00422399910167
1970/01/01/01:00:02.842000,45,2,841000000,,-0.506299495697,0.0450796820223,-0.00431306706741
1970/01/01/01:00:02.862000,46,2,861000000,,-0.505398750305,0.0449925325811,-0.00440196506679
1970/01/01/01:00:02.882000,47,2,882000000,,-0.504499793053,0.0449036061764,-0.00449068937451
1970/01/01/01:00:02.903000,48,2,901000000,,-0.50360262394,0.0448129065335,-0.00457923626527
1970/01/01/01:00:02.922000,49,2,921000000,,-0.50270730257,0.0447204373777,-0.00466760247946
1970/01/01/01:00:02.941000,50,2,941000000,,-0.501813828945,0.0446262024343,-0.00475578429177
1970/01/01/01:00:02.962000,51,2,962000000,,-0.500922262669,0.0445302054286,-0.00484377844259
1970/01/01/01:00:02.982000,52,2,981000000,,-0.500032603741,0.0444324538112,-0.00493158120662
1970/01/01/01:00:03.002000,53,3,1000000,,-0.499144971371,0.0443329438567,-0.00501918978989
1970/01/01/01:00:03.022000,54,3,21000000,,-0.498259335756,0.0442316867411,-0.00510659953579
1970/01/01/01:00:03.043000,55,3,42000000,,-0.4973757267,0.0441286824644,-0.00519380811602
1970/01/01/01:00:03.062000,56,3,61000000,,-0.496494203806,0.0440239347517,-0.00528081180528
1970/01/01/01:00:03.082000,57,3,81000000,,-0.495614767075,0.0439174510539,-0.00536760641262
1970/01/01/01:00:03.102000,58,3,102000000,,-0.494693696499,0.0438037775457,-0.00545851327479
1970/01/01/01:00:03.123000,59,3,123000000,,-0.493818730116,0.0436937436461,-0.00554487016052
1970/01/01/01:00:03.142000,60,3,141000000,,-0.4929895401,0.0435876101255,-0.00562670640647
1970/01/01/01:00:03.161000,61,3,161000000,,-0.492118924856,0.0434742197394,-0.00571263302118
1970/01/01/01:00:03.181000,62,3,181000000,,-0.491250574589,0.0433591082692,-0.00579833472148
1970/01/01/01:00:03.202000,63,3,201000000,,-0.490384578705,0.0432422868907,-0.00588380685076
1970/01/01/01:00:03.222000,64,3,221000000,,-0.489520907402,0.043123755604,-0.00596904708073
1970/01/01/01:00:03.242000,65,3,241000000,,-0.488659620285,0.0430035255849,-0.00605405168608
1970/01/01/01:00:03.262000,66,3,261000000,,-0.487800776958,0.0428815968335,-0.00613881694153
1970/01/01/01:00:03.281000,67,3,281000000,,-0.486944377422,0.0427579730749,-0.00622334005311
1970/01/01/01:00:03.302000,68,3,301000000,,-0.486090481281,0.0426326654851,-0.00630761776119
1970/01/01/01:00:03.322000,69,3,321000000,,-0.485239088535,0.0425056703389,-0.00639164634049
1970/01/01/01:00:03.342000,70,3,342000000,,-0.484390258789,0.042376998812,-0.00647542253137
1970/01/01/01:00:03.363000,71,3,362000000,,-0.483544021845,0.042246658355,-0.00655894260854
1970/01/01/01:00:03.382000,72,3,381000000,,-0.482700407505,0.0421146452427,-0.00664220424369
1970/01/01/01:00:03.402000,73,3,401000000,,-0.481859445572,0.0419809706509,-0.00672520371154
1970/01/01/01:00:03.422000,74,3,422000000,,-0.481021165848,0.0418456383049,-0.00680793728679
1970/01/01/01:00:03.442000,75,3,441000000,,-0.480185627937,0.0417086556554,-0.00689040264115
1970/01/01/01:00:03.463000,76,3,461000000,,-0.479352831841,0.0415700227022,-0.00697259558365
1970/01/01/01:00:03.482000,77,3,481000000,,-0.478522837162,0.0414297506213,-0.00705451332033
1970/01/01/01:00:03.502000,78,3,501000000,,-0.477695643902,0.0412878468633,-0.00713615259156
1970/01/01/01:00:03.523000,79,3,522000000,,-0.476871341467,0.0411443077028,-0.00721751013771
1970/01/01/01:00:03.542000,80,3,542000000,,-0.476049900055,0.040999148041,-0.00729858269915
1970/01/01/01:00:03.562000,81,3,562000000,,-0.475231379271,0.040852367878,-0.00737936701626
1970/01/01/01:00:03.582000,82,3,581000000,,-0.474415808916,0.0407039746642,-0.00745986029506
1970/01/01/01:00:03.601000,83,3,601000000,,-0.473603218794,0.0405539758503,-0.00754005881026
1970/01/01/01:00:03.622000,84,3,621000000,,-0.472793668509,0.0404023751616,-0.00761995976791
1970/01/01/01:00:03.643000,85,3,643000000,,-0.471906661987,0.040233772248,-0.00770750362426
1970/01/01/01:00:03.663000,86,3,661000000,,-0.471183717251,0.0400943942368,-0.00777885643765
1970/01/01/01:00:03.682000,87,3,681000000,,-0.470383375883,0.0399380251765,-0.00785784516484
1970/01/01/01:00:03.702000,88,3,701000000,,-0.469586193562,0.0397800803185,-0.00793652422726
1970/01/01/01:00:03.722000,89,3,721000000,,-0.468792200089,0.0396205671132,-0.00801488943398
1970/01/01/01:00:03.743000,90,3,741000000,,-0.468001395464,0.0394594892859,-0.00809293892235
1970/01/01/01:00:03.761000,91,3,761000000,,-0.46721380949,0.0392968505621,-0.00817066896707
1970/01/01/01:00:03.783000,92,3,782000000,,-0.466390401125,0.0391244143248,-0.00825193710625
1970/01/01/01:00:03.803000,93,3,802000000,,-0.465648531914,0.0389669314027,-0.00832515675575
1970/01/01/01:00:03.824000,94,3,823000000,,-0.46483206749,0.0387912541628,-0.00840573851019
1970/01/01/01:00:03.843000,95,3,842000000,,-0.464096546173,0.0386308580637,-0.00847833137959
1970/01/01/01:00:03.862000,96,3,861000000,,-0.463325619698,0.0384605266154,-0.00855441763997
1970/01/01/01:00:03.883000,97,3,881000000,,-0.462558120489,0.0382886826992,-0.00863016583025
1970/01/01/01:00:03.902000,98,3,901000000,,-0.46179407835,0.0381153225899,-0.0087055740878
1970/01/01/01:00:03.922000,99,3,922000000,,-0.461033523083,0.0379404611886,-0.00878063868731
1970/01/01/01:00:03.943000,100,3,942000000,,-0.460238724947,0.0377552434802,-0.00885908305645
1970/01/01/01:00:03.963000,101,3,961000000,,-0.459522992373,0.0375862494111,-0.00892972387373
1970/01/01/01:00:03.982000,102,3,981000000,,-0.458773046732,0.0374069139361,-0.00900373980403
1970/01/01/01:00:04.001000,103,4,1000000,,-0.458026707172,0.0372261032462,-0.0090773999691
1970/01/01/01:00:04.022000,104,4,22000000,,-0.457284003496,0.0370438210666,-0.00915070157498
1970/01/01/01:00:04.042000,105,4,41000000,,-0.456544965506,0.0368600748479,-0.0092236418277
1970/01/01/01:00:04.063000,106,4,62000000,,-0.455772936344,0.0366655774415,-0.00929983705282
1970/01/01/01:00:04.082000,107,4,81000000,,-0.455077975988,0.0364882312715,-0.00936842802912
1970/01/01/01:00:04.103000,108,4,102000000,,-0.454350084066,0.0363001413643,-0.00944026745856
1970/01/01/01:00:04.122000,109,4,121000000,,-0.453625977039,0.0361106209457,-0.00951173342764
1970/01/01/01:00:04.142000,110,4,141000000,,-0.45290568471,0.0359196774662,-0.00958282500505
1970/01/01/01:00:04.163000,111,4,162000000,,-0.452189207077,0.0357273109257,-0.0096535384655
1970/01/01/01:00:04.182000,112,4,181000000,,-0.451476603746,0.0355335362256,-0.00972387008369
1970/01/01/01:00:04.202000,113,4,202000000,,-0.450732529163,0.0353285633028,-0.0097973048687
1970/01/01/01:00:04.223000,114,4,222000000,,-0.450027942657,0.0351319201291,-0.00986684765667
1970/01/01/01:00:04.242000,115,4,241000000,,-0.44936221838,0.0349438264966,-0.00993255153298
1970/01/01/01:00:04.261000,116,4,261000000,,-0.448665320873,0.0347444862127,-0.0100013315678
1970/01/01/01:00:04.282000,117,4,281000000,,-0.44797244668,0.034543775022,-0.0100697157905
1970/01/01/01:00:04.303000,118,4,302000000,,-0.447249263525,0.0343315601349,-0.0101410923526
1970/01/01/01:00:04.322000,119,4,321000000,,-0.446598798037,0.0341382697225,-0.0102052912116
1970/01/01/01:00:04.341000,120,4,341000000,,-0.445918053389,0.0339334905148,-0.0102724749595
1970/01/01/01:00:04.363000,121,4,361000000,,-0.445241451263,0.0337273739278,-0.0103392535821
1970/01/01/01:00:04.382000,122,4,381000000,,-0.444568991661,0.033519923687,-0.0104056242853
1970/01/01/01:00:04.403000,123,4,402000000,,-0.443900674582,0.0333111509681,-0.0104715842754
1970/01/01/01:00:04.423000,124,4,422000000,,-0.443203449249,0.0330905243754,-0.0105403969064
1970/01/01/01:00:04.443000,125,4,442000000,,-0.442576646805,0.0328896678984,-0.0106022609398
1970/01/01/01:00:04.462000,126,4,462000000,,-0.44192096591,0.0326769761741,-0.0106669729576
1970/01/01/01:00:04.482000,127,4,481000000,,-0.44126957655,0.0324629917741,-0.0107312640175
1970/01/01/01:00:04.502000,128,4,501000000,,-0.440622448921,0.0322477295995,-0.0107951313257
1970/01/01/01:00:04.523000,129,4,521000000,,-0.439979672432,0.0320311896503,-0.0108585720882
1970/01/01/01:00:04.542000,130,4,541000000,,-0.439341217279,0.031813390553,-0.0109215844423
1970/01/01/01:00:04.562000,131,4,561000000,,-0.438707143068,0.0315943323076,-0.010984165594
1970/01/01/01:00:04.582000,132,4,581000000,,-0.438077449799,0.0313740260899,-0.0110463127494
1970/01/01/01:00:04.603000,133,4,602000000,,-0.437421023846,0.0311413705349,-0.0111110983416
1970/01/01/01:00:04.622000,134,4,621000000,,-0.436831355095,0.0309297069907,-0.0111692976207
1970/01/01/01:00:04.642000,135,4,642000000,,-0.436184287071,0.0306944809854,-0.0112331593409
1970/01/01/01:00:04.663000,136,4,662000000,,-0.435603141785,0.0304805040359,-0.0112905176356
1970/01/01/01:00:04.683000,137,4,682000000,,-0.4349655509,0.0302427429706,-0.0113534461707
1970/01/01/01:00:04.703000,138,4,701000000,,-0.434392988682,0.0300264898688,-0.0114099550992
1970/01/01/01:00:04.723000,139,4,721000000,,-0.433794736862,0.0297976993024,-0.0114690000191
1970/01/01/01:00:04.742000,140,4,741000000,,-0.4332010746,0.0295677315444,-0.0115275913849
1970/01/01/01:00:04.763000,141,4,761000000,,-0.432612031698,0.0293365977705,-0.011585727334
1970/01/01/01:00:04.782000,142,4,781000000,,-0.432027637959,0.0291043054312,-0.011643406935
1970/01/01/01:00:04.806000,143,4,805000000,,-0.431332468987,0.0288240406662,-0.0117120146751
1970/01/01/01:00:04.823000,144,4,821000000,,-0.430872797966,0.0286362841725,-0.011757383123
1970/01/01/01:00:04.844000,145,4,842000000,,-0.430274039507,0.0283887572587,-0.0118164792657
1970/01/01/01:00:04.862000,146,4,861000000,,-0.429736793041,0.0281637404114,-0.0118695041165
1970/01/01/01:00:04.884000,147,4,881000000,,-0.429175883532,0.0279257968068,-0.0119248619303
1970/01/01/01:00:04.903000,148,4,901000000,,-0.428619772196,0.0276867486537,-0.0119797494262
1970/01/01/01:00:04.923000,149,4,922000000,,-0.428040981293,0.0274345744401,-0.0120368730277
1970/01/01/01:00:04.945000,150,4,942000000,,-0.427494704723,0.0271932967007,-0.0120907882228
1970/01/01/01:00:04.964000,151,4,962000000,,-0.426980227232,0.0269630886614,-0.0121415657923
1970/01/01/01:00:04.983000,152,4,982000000,,-0.426416665316,0.0267075300217,-0.0121971853077
1970/01/01/01:00:05.009000,153,5,5000000,,-0.4258056283,0.0264263004065,-0.0122574931011
1970/01/01/01:00:05.023000,154,5,21000000,,-0.425384372473,0.0262298472226,-0.0122990692034
1970/01/01/01:00:05.046000,155,5,44000000,,-0.424784362316,0.0259462874383,-0.012358289212
1970/01/01/01:00:05.064000,156,5,62000000,,-0.424319326878,0.0257234238088,-0.0124041857198
1970/01/01/01:00:05.086000,157,5,84000000,,-0.423832833767,0.02548728697,-0.0124522019178
1970/01/01/01:00:05.106000,158,5,105000000,,-0.423275113106,0.025212733075,-0.0125072449446
1970/01/01/01:00:05.124000,159,5,121000000,,-0.422823309898,0.0249872002751,-0.0125518357381
1970/01/01/01:00:05.142000,160,5,141000000,,-0.422326087952,0.0247356723994,-0.0126009099185
1970/01/01/01:00:05.163000,161,5,162000000,,-0.421809405088,0.0244705155492,-0.0126519035548
1970/01/01/01:00:05.182000,162,5,181000000,,-0.421346753836,0.0242296960205,-0.0126975653693
1970/01/01/01:00:05.202000,163,5,202000000,,-0.420840740204,0.0239625219256,-0.0127475075424
1970/01/01/01:00:05.223000,164,5,222000000,,-0.420387774706,0.0237198937684,-0.0127922156826
1970/01/01/01:00:05.242000,165,5,241000000,,-0.419915914536,0.02346358262,-0.0128387836739
1970/01/01/01:00:05.261000,166,5,261000000,,-0.419449210167,0.023206345737,-0.0128848450258
1970/01/01/01:00:05.282000,167,5,281000000,,-0.418987691402,0.0229481924325,-0.0129303978756
1970/01/01/01:00:05.304000,168,5,303000000,,-0.418485939503,0.0226631779224,-0.0129799162969
1970/01/01/01:00:05.322000,169,5,321000000,,-0.418080121279,0.0224291775376,-0.0130199706182
1970/01/01/01:00:05.341000,170,5,341000000,,-0.417634129524,0.0221683364362,-0.0130639867857
1970/01/01/01:00:05.362000,171,5,361000000,,-0.417193382978,0.0219066217542,-0.0131074870005
1970/01/01/01:00:05.383000,172,5,381000000,,-0.416757881641,0.0216440409422,-0.0131504703313
1970/01/01/01:00:05.404000,173,5,402000000,,-0.416306257248,0.0213674120605,-0.0131950434297
1970/01/01/01:00:05.423000,174,5,422000000,,-0.415902674198,0.0211163274944,-0.0132348770276
1970/01/01/01:00:05.442000,175,5,441000000,,-0.415482997894,0.0208512153476,-0.0132762966678
1970/01/01/01:00:05.466000,176,5,462000000,,-0.415048032999,0.0205719601363,-0.0133192241192
1970/01/01/01:00:05.482000,177,5,481000000,,-0.414659589529,0.0203185304999,-0.0133575638756
1970/01/01/01:00:05.502000,178,5,501000000,,-0.41425588727,0.0200509801507,-0.0133974067867
1970/01/01/01:00:05.523000,179,5,522000000,,-0.413837760687,0.0197692010552,-0.01343867369
1970/01/01/01:00:05.543000,180,5,542000000,,-0.413464576006,0.0195135138929,-0.0134755056351
1970/01/01/01:00:05.563000,181,5,561000000,,-0.413076996803,0.0192436203361,-0.0135137569159
1970/01/01/01:00:05.581000,182,5,581000000,,-0.412694841623,0.0189729686826,-0.0135514754802
1970/01/01/01:00:05.602000,183,5,602000000,,-0.412318110466,0.0187015663832,-0.0135886594653
1970/01/01/01:00:05.622000,184,5,621000000,,-0.411946773529,0.0184294246137,-0.0136253060773
1970/01/01/01:00:05.643000,185,5,642000000,,-0.411580920219,0.0181565564126,-0.0136614153162
1970/01/01/01:00:05.663000,186,5,661000000,,-0.411220520735,0.0178829729557,-0.0136969843879
1970/01/01/01:00:05.682000,187,5,681000000,,-0.410865604877,0.0176086816937,-0.0137320132926
1970/01/01/01:00:05.702000,188,5,701000000,,-0.410516172647,0.017333695665,-0.0137665001675
1970/01/01/01:00:05.721000,189,5,721000000,,-0.410172253847,0.0170580241829,-0.0138004440814
1970/01/01/01:00:05.742000,190,5,741000000,,-0.409833878279,0.0167816802859,-0.0138338422403
1970/01/01/01:00:05.763000,191,5,761000000,,-0.40950101614,0.0165046751499,-0.0138666946441
1970/01/01/01:00:05.782000,192,5,781000000,,-0.409173697233,0.0162270162255,-0.0138990003616
1970/01/01/01:00:05.803000,193,5,801000000,,-0.408851921558,0.0159487184137,-0.0139307565987
1970/01/01/01:00:05.822000,194,5,821000000,,-0.40853574872,0.0156697910279,-0.0139619624242
1970/01/01/01:00:05.845000,195,5,844000000,,-0.40819439292,0.0153622552752,-0.0139956530184
1970/01/01/01:00:05.863000,196,5,862000000,,-0.407905042171,0.0150960655883,-0.0140242110938
1970/01/01/01:00:05.882000,197,5,881000000,,-0.407620728016,0.0148293385282,-0.0140522699803
1970/01/01/01:00:05.902000,198,5,902000000,,-0.407326966524,0.0145480018109,-0.0140812639147
1970/01/01/01:00:05.923000,199,5,922000000,,-0.407038837671,0.0142660913989,-0.0141097027808
1970/01/01/01:00:05.943000,200,5,942000000,,-0.406756341457,0.0139836175367,-0.0141375837848
1970/01/01/01:00:05.962000,201,5,961000000,,-0.406479477882,0.0137005923316,-0.0141649069265
1970/01/01/01:00:05.983000,202,5,982000000,,-0.406208306551,0.0134170250967,-0.0141916712746
1970/01/01/01:00:06.003000,203,6,2000000,,-0.405942797661,0.0131329288706,-0.0142178749666
1970/01/01/01:00:06.023000,204,6,22000000,,-0.405670166016,0.0128340702504,-0.014244784601
1970/01/01/01:00:06.042000,205,6,41000000,,-0.405428886414,0.0125631922856,-0.0142685975879
1970/01/01/01:00:06.063000,206,6,61000000,,-0.405180484056,0.0122775742784,-0.0142931146547
1970/01/01/01:00:06.082000,207,6,81000000,,-0.404937773943,0.0119914710522,-0.01431706734
1970/01/01/01:00:06.103000,208,6,101000000,,-0.404700815678,0.0117048947141,-0.0143404547125
1970/01/01/01:00:06.122000,209,6,122000000,,-0.404469579458,0.0114178564399,-0.0143632758409
1970/01/01/01:00:06.143000,210,6,143000000,,-0.404244095087,0.0111303674057,-0.0143855307251
1970/01/01/01:00:06.163000,211,6,162000000,,-0.404024362564,0.0108424397185,-0.0144072165713
1970/01/01/01:00:06.182000,212,6,182000000,,-0.403810411692,0.0105540826917,-0.0144283343107
1970/01/01/01:00:06.203000,213,6,202000000,,-0.403591960669,0.0102508598939,-0.0144498944283
1970/01/01/01:00:06.224000,214,6,222000000,,-0.403389841318,0.0099616618827,-0.0144698442891
1970/01/01/01:00:06.243000,215,6,242000000,,-0.403203159571,0.00968655943871,-0.014488266781
1970/01/01/01:00:06.263000,216,6,262000000,,-0.4030123353,0.00939660426229,-0.0145071009174
1970/01/01/01:00:06.282000,217,6,282000000,,-0.402827322483,0.00910627935082,-0.0145253622904
1970/01/01/01:00:06.302000,218,6,301000000,,-0.402648091316,0.00881559401751,-0.0145430509001
1970/01/01/01:00:06.322000,219,6,321000000,,-0.402474701405,0.00852456036955,-0.0145601648837
1970/01/01/01:00:06.341000,220,6,341000000,,-0.402307122946,0.00823319144547,-0.0145767042413
1970/01/01/01:00:06.361000,221,6,361000000,,-0.40214535594,0.00794149655849,-0.0145926680416
1970/01/01/01:00:06.384000,222,6,383000000,,-0.401981800795,0.00763487955555,-0.0146088097245
1970/01/01/01:00:06.403000,223,6,401000000,,-0.401839375496,0.00735717779025,-0.0146228661761
1970/01/01/01:00:06.423000,224,6,421000000,,-0.401695162058,0.00706457719207,-0.0146371005103
1970/01/01/01:00:06.443000,225,6,442000000,,-0.401550024748,0.00675704656169,-0.0146514242515
1970/01/01/01:00:06.463000,226,6,461000000,,-0.40142428875,0.00647855084389,-0.0146638341248
1970/01/01/01:00:06.482000,227,6,481000000,,-0.401297658682,0.00618514837697,-0.0146763324738
1970/01/01/01:00:06.504000,228,6,502000000,,-0.401170998812,0.00587681308389,-0.0146888326854
1970/01/01/01:00:06.521000,229,6,521000000,,-0.401062011719,0.00559762213379,-0.0146995913237
1970/01/01/01:00:06.543000,230,6,542000000,,-0.40094769001,0.00528881093487,-0.0147108724341
1970/01/01/01:00:06.562000,231,6,561000000,,-0.400849878788,0.00500921206549,-0.0147205283865
1970/01/01/01:00:06.585000,232,6,584000000,,-0.400738537312,0.00467051193118,-0.0147315151989
1970/01/01/01:00:06.603000,233,6,602000000,,-0.400656878948,0.00440527172759,-0.0147395767272
1970/01/01/01:00:06.623000,234,6,622000000,,-0.400575816631,0.00412514293566,-0.0147475749254
1970/01/01/01:00:06.643000,235,6,642000000,,-0.400496274233,0.00383011181839,-0.0147554259747
1970/01/01/01:00:06.663000,236,6,662000000,,-0.400419086218,0.00352016673423,-0.0147630432621
1970/01/01/01:00:06.682000,237,6,682000000,,-0.400351643562,0.00322483829223,-0.0147697003558
1970/01/01/01:00:06.702000,238,6,702000000,,-0.400293052197,0.00294415815733,-0.0147754848003
1970/01/01/01:00:06.723000,239,6,722000000,,-0.400234460831,0.00263381120749,-0.0147812655196
1970/01/01/01:00:06.742000,240,6,741000000,,-0.40018710494,0.00235292199068,-0.0147859407589
1970/01/01/01:00:06.763000,241,6,762000000,,-0.400140941143,0.00204236828722,-0.0147904958576
1970/01/01/01:00:06.783000,242,6,783000000,,-0.400103062391,0.00174651993439,-0.0147942351177
1970/01/01/01:00:06.803000,243,6,802000000,,-0.400071084499,0.00145060266368,-0.0147973904386
1970/01/01/01:00:06.822000,244,6,821000000,,-0.40004619956,0.00116942811292,-0.0147998472676
1970/01/01/01:00:06.842000,245,6,841000000,,-0.400025755167,0.000873409968335,-0.0148018635809
1970/01/01/01:00:06.862000,246,6,861000000,,-0.400011271238,0.000577357423026,-0.0148032950237
1970/01/01/01:00:06.882000,247,6,881000000,,-0.400002658367,0.000281282060314,-0.0148041425273
1970/01/01/01:00:06.902000,248,6,901000000,,-0.40000000596,-1.4804406419e-05,-0.0148044060916
1970/01/01/01:00:06.921000,249,6,921000000,,-0.400003254414,-0.000310890289256,-0.0148040847853
1970/01/01/01:00:06.942000,250,6,941000000,,-0.400012433529,-0.000606963876635,-0.0148031786084
1970/01/01/01:00:06.963000,251,6,962000000,,-0.400028467178,-0.000917815195862,-0.014801598154
1970/01/01/01:00:06.981000,252,6,981000000,,-0.400048553944,-0.0011990275234,-0.0147996135056
1970/01/01/01:00:07.002000,253,7,2000000,,-0.400075495243,-0.0014949941542,-0.0147969545797
1970/01/01/01:00:07.022000,254,7,21000000,,-0.400108367205,-0.00179090176243,-0.0147937117144
1970/01/01/01:00:07.042000,255,7,41000000,,-0.400147140026,-0.00208673882298,-0.01478988491
1970/01/01/01:00:07.065000,256,7,65000000,,-0.400199055672,-0.00242684874684,-0.0147847617045
1970/01/01/01:00:07.082000,257,7,81000000,,-0.400242447853,-0.00267815380357,-0.014780478552
1970/01/01/01:00:07.102000,258,7,101000000,,-0.400298953056,-0.00297370855696,-0.0147749008611
1970/01/01/01:00:07.122000,259,7,121000000,,-0.400361388922,-0.00326914596371,-0.0147687392309
1970/01/01/01:00:07.143000,260,7,143000000,,-0.400436878204,-0.00359397754073,-0.0147612886503
1970/01/01/01:00:07.162000,261,7,161000000,,-0.400503963232,-0.00385962193832,-0.0147546678782
1970/01/01/01:00:07.183000,262,7,182000000,,-0.400588274002,-0.00416938355193,-0.0147463465109
1970/01/01/01:00:07.203000,263,7,202000000,,-0.40067461133,-0.00446422630921,-0.0147378258407
1970/01/01/01:00:07.224000,264,7,223000000,,-0.400762081146,-0.00474416371435,-0.0147291915491
1970/01/01/01:00:07.246000,265,7,244000000,,-0.400870025158,-0.00506809027866,-0.0147185390815
1970/01/01/01:00:07.263000,266,7,263000000,,-0.400968968868,-0.00534765049815,-0.014708773233
1970/01/01/01:00:07.282000,267,7,281000000,,-0.401073217392,-0.00562702026218,-0.0146984830499
1970/01/01/01:00:07.304000,268,7,302000000,,-0.401188701391,-0.00592087674886,-0.0146870855242
1970/01/01/01:00:07.324000,269,7,323000000,,-0.401316285133,-0.00622917478904,-0.0146744949743
1970/01/01/01:00:07.346000,270,7,345000000,,-0.401463449001,-0.00656652217731,-0.0146599709988
1970/01/01/01:00:07.363000,271,7,362000000,,-0.401577174664,-0.00681564724073,-0.0146487448364
1970/01/01/01:00:07.383000,272,7,382000000,,-0.401709318161,-0.00709385005757,-0.0146357025951
1970/01/01/01:00:07.402000,273,7,401000000,,-0.401854127645,-0.00738642225042,-0.0146214114502
1970/01/01/01:00:07.422000,274,7,421000000,,-0.402004778385,-0.0076787029393,-0.0146065428853
1970/01/01/01:00:07.444000,275,7,444000000,,-0.402177244425,-0.00799986068159,-0.0145895211026
1970/01/01/01:00:07.462000,276,7,461000000,,-0.40232360363,-0.00826234277338,-0.0145750762895
1970/01/01/01:00:07.482000,277,7,482000000,,-0.402500331402,-0.00856823753566,-0.0145576344803
1970/01/01/01:00:07.504000,278,7,502000000,,-0.402674615383,-0.00885921902955,-0.0145404338837
1970/01/01/01:00:07.522000,279,7,521000000,,-0.402845561504,-0.00913532823324,-0.0145235620439
1970/01/01/01:00:07.542000,280,7,541000000,,-0.403031170368,-0.00942561682314,-0.0145052429289
1970/01/01/01:00:07.566000,281,7,565000000,,-0.403251796961,-0.00975898839533,-0.0144834686071
1970/01/01/01:00:07.583000,282,7,581000000,,-0.403419792652,-0.0100050671026,-0.0144668882713
1970/01/01/01:00:07.602000,283,7,601000000,,-0.40362277627,-0.0102942055091,-0.01444685366
1970/01/01/01:00:07.623000,284,7,622000000,,-0.403842121363,-0.0105973631144,-0.0144252032042
1970/01/01/01:00:07.643000,285,7,641000000,,-0.404046088457,-0.0108712511137,-0.014405073598
1970/01/01/01:00:07.663000,286,7,662000000,,-0.404266387224,-0.0111591368914,-0.0143833309412
1970/01/01/01:00:07.683000,287,7,683000000,,-0.40449243784,-0.0114465812221,-0.0143610192463
1970/01/01/01:00:07.703000,288,7,702000000,,-0.404724240303,-0.0117335738614,-0.0143381413072
1970/01/01/01:00:07.723000,289,7,722000000,,-0.404973804951,-0.0120344171301,-0.0143135106191
1970/01/01/01:00:07.743000,290,7,742000000,,-0.40520504117,-0.0123061574996,-0.0142906885594
1970/01/01/01:00:07.764000,291,7,763000000,,-0.405454039574,-0.012591727078,-0.014266114682
1970/01/01/01:00:07.783000,292,7,783000000,,-0.405708730221,-0.0128767983988,-0.0142409782857
1970/01/01/01:00:07.802000,293,7,802000000,,-0.405982255936,-0.0131755769253,-0.0142139801756
1970/01/01/01:00:07.824000,294,7,823000000,,-0.406248629093,-0.013459593989,-0.0141876926646
1970/01/01/01:00:07.842000,295,7,841000000,,-0.406506925821,-0.013728919439,-0.0141621995717
1970/01/01/01:00:07.863000,296,7,861000000,,-0.406784325838,-0.0140118906274,-0.0141348205507
1970/01/01/01:00:07.883000,297,7,881000000,,-0.407067388296,-0.0142943086103,-0.0141068836674
1970/01/01/01:00:07.904000,298,7,903000000,,-0.407356083393,-0.0145761622116,-0.0140783898532
1970/01/01/01:00:07.924000,299,7,921000000,,-0.407650440931,-0.0148574402556,-0.0140493391082
1970/01/01/01:00:07.943000,300,7,943000000,,-0.407950371504,-0.0151381315663,-0.0140197351575
1970/01/01/01:00:07.965000,301,7,965000000,,-0.408317744732,-0.015474172309,-0.0139834787697
1970/01/01/01:00:07.983000,302,7,982000000,,-0.408582806587,-0.0157116688788,-0.0139573169872
1970/01/01/01:00:08.003000,303,8,1000000,,-0.408883839846,-0.0159765761346,-0.0139276050031
1970/01/01/01:00:08.022000,304,8,22000000,,-0.409206181765,-0.016254812479,-0.0138957938179
1970/01/01/01:00:08.042000,305,8,42000000,,-0.409550577402,-0.0165462680161,-0.0138618024066
1970/01/01/01:00:08.063000,306,8,62000000,,-0.409867465496,-0.0168093461543,-0.0138305276632
1970/01/01/01:00:08.082000,307,8,82000000,,-0.410206407309,-0.0170856229961,-0.0137970745564
1970/01/01/01:00:08.102000,308,8,102000000,,-0.410550892353,-0.0173612255603,-0.0137630766258
1970/01/01/01:00:08.124000,309,8,124000000,,-0.410900861025,-0.0176361426711,-0.0137285348028
1970/01/01/01:00:08.144000,310,8,143000000,,-0.411274254322,-0.0179240554571,-0.0136916832998
1970/01/01/01:00:08.163000,311,8,162000000,,-0.411617279053,-0.018183875829,-0.0136578287929
1970/01/01/01:00:08.183000,312,8,182000000,,-0.411983668804,-0.018456671387,-0.0136216655374
1970/01/01/01:00:08.203000,313,8,202000000,,-0.412355542183,-0.0187287386507,-0.0135849649087
1970/01/01/01:00:08.224000,314,8,223000000,,-0.412770837545,-0.019027158618,-0.0135439746082
1970/01/01/01:00:08.243000,315,8,242000000,,-0.413134813309,-0.0192841533571,-0.0135080534965
1970/01/01/01:00:08.261000,316,8,261000000,,-0.413503646851,-0.0195404626429,-0.013471650891
1970/01/01/01:00:08.292000,317,8,291000000,,-0.414095908403,-0.0199437383562,-0.0134131964296
1970/01/01/01:00:08.301000,318,8,301000000,,-0.414296001196,-0.0200777705759,-0.0133934468031
1970/01/01/01:00:08.322000,319,8,321000000,,-0.414700239897,-0.0203452408314,-0.0133535508066
1970/01/01/01:00:08.343000,320,8,342000000,,-0.415109813213,-0.0206119101495,-0.0133131276816
1970/01/01/01:00:08.362000,321,8,361000000,,-0.415524721146,-0.020877763629,-0.0132721783593
1970/01/01/01:00:08.383000,322,8,382000000,,-0.415944933891,-0.0211427938193,-0.0132307056338
1970/01/01/01:00:08.402000,323,8,401000000,,-0.416370421648,-0.021406987682,-0.0131887104362
1970/01/01/01:00:08.422000,324,8,422000000,,-0.416801184416,-0.0216703377664,-0.0131461946294
1970/01/01/01:00:08.442000,325,8,441000000,,-0.417237222195,-0.0219328328967,-0.0131031600758
1970/01/01/01:00:08.462000,326,8,461000000,,-0.417678505182,-0.0221944600344,-0.0130596086383
1970/01/01/01:00:08.483000,327,8,482000000,,-0.418147474527,-0.0224682278931,-0.013013323769
1970/01/01/01:00:08.502000,328,8,501000000,,-0.418576717377,-0.0227150786668,-0.0129709588364
1970/01/01/01:00:08.522000,329,8,522000000,,-0.419056594372,-0.0229869727045,-0.0129235973582
1970/01/01/01:00:08.543000,330,8,542000000,,-0.419518887997,-0.0232449900359,-0.0128779681399
1970/01/01/01:00:08.562000,331,8,561000000,,-0.419962882996,-0.0234892554581,-0.0128341494128
1970/01/01/01:00:08.587000,332,8,586000000,,-0.420554101467,-0.0238093808293,-0.0127757964656
1970/01/01/01:00:08.603000,333,8,601000000,,-0.42091268301,-0.0240007527173,-0.0127404071391
1970/01/01/01:00:08.624000,334,8,624000000,,-0.421419501305,-0.0242677778006,-0.0126903858036
1970/01/01/01:00:08.643000,335,8,642000000,,-0.421882897615,-0.0245084613562,-0.0126446522772
1970/01/01/01:00:08.663000,336,8,661000000,,-0.422375589609,-0.0247608684003,-0.0125960251316
1970/01/01/01:00:08.682000,337,8,681000000,,-0.422873318195,-0.0250122994184,-0.0125469006598
1970/01/01/01:00:08.702000,338,8,701000000,,-0.423376053572,-0.025262741372,-0.0124972816557
1970/01/01/01:00:08.723000,339,8,721000000,,-0.423883825541,-0.0255121868104,-0.0124471681193
1970/01/01/01:00:08.745000,340,8,743000000,,-0.424422323704,-0.0257730204612,-0.0123940203339
1970/01/01/01:00:08.763000,341,8,762000000,,-0.424940258265,-0.0260203909129,-0.0123429028317
1970/01/01/01:00:08.782000,342,8,781000000,,-0.425436854362,-0.0262544397265,-0.0122938891873
1970/01/01/01:00:08.804000,343,8,802000000,,-0.425990909338,-0.0265120379627,-0.0122392065823
1970/01/01/01:00:08.822000,344,8,821000000,,-0.426496833563,-0.0267441105098,-0.0121892727911
1970/01/01/01:00:08.842000,345,8,842000000,,-0.427034169436,-0.0269873663783,-0.0121362414211
1970/01/01/01:00:08.862000,346,8,861000000,,-0.427576333284,-0.0272295568138,-0.0120827313513
1970/01/01/01:00:08.883000,347,8,882000000,,-0.428123325109,-0.0274706725031,-0.0120287444443
1970/01/01/01:00:08.903000,348,8,902000000,,-0.428675144911,-0.0277107022703,-0.0119742825627
1970/01/01/01:00:08.922000,349,8,921000000,,-0.429231762886,-0.0279496405274,-0.0119193475693
1970/01/01/01:00:08.942000,350,8,942000000,,-0.429793119431,-0.0281874742359,-0.0118639422581
1970/01/01/01:00:08.962000,351,8,962000000,,-0.430359244347,-0.0284241940826,-0.0118080684915
1970/01/01/01:00:08.983000,352,8,981000000,,-0.430930107832,-0.028659792617,-0.0117517290637
1970/01/01/01:00:09.002000,353,9,1000000,,-0.431505650282,-0.0288942605257,-0.0116949249059
1970/01/01/01:00:09.022000,354,9,22000000,,-0.432085871696,-0.029127586633,-0.0116376597434
1970/01/01/01:00:09.041000,355,9,41000000,,-0.432670742273,-0.0293597634882,-0.0115799345076
1970/01/01/01:00:09.062000,356,9,61000000,,-0.43326023221,-0.0295907817781,-0.0115217529237
1970/01/01/01:00:09.083000,357,9,82000000,,-0.433854341507,-0.0298206303269,-0.0114631159231
1970/01/01/01:00:09.102000,358,9,101000000,,-0.434453070164,-0.0300493035465,-0.0114040262997
1970/01/01/01:00:09.123000,359,9,121000000,,-0.435056328773,-0.0302767883986,-0.0113444868475
1970/01/01/01:00:09.143000,360,9,142000000,,-0.435664117336,-0.0305030792952,-0.0112844994292
1970/01/01/01:00:09.162000,361,9,162000000,,-0.436276435852,-0.0307281669229,-0.0112240659073
1970/01/01/01:00:09.182000,362,9,181000000,,-0.436893224716,-0.0309520401061,-0.0111631900072
1970/01/01/01:00:09.202000,363,9,201000000,,-0.437514513731,-0.031174691394,-0.0111018726602
1970/01/01/01:00:09.223000,364,9,222000000,,-0.438171625137,-0.0314071513712,-0.0110370190814
1970/01/01/01:00:09.241000,365,9,241000000,,-0.438770353794,-0.0316162928939,-0.0109779266641
1970/01/01/01:00:09.262000,366,9,261000000,,-0.43940487504,-0.0318352244794,-0.0109153026715
1970/01/01/01:00:09.283000,367,9,281000000,,-0.440043747425,-0.0320529006422,-0.0108522474766
1970/01/01/01:00:09.302000,368,9,302000000,,-0.440719246864,-0.0322800986469,-0.0107855778188
1970/01/01/01:00:09.323000,369,9,322000000,,-0.44133451581,-0.0324844494462,-0.0107248537242
1970/01/01/01:00:09.342000,370,9,342000000,,-0.441986352205,-0.0326983034611,-0.0106605207548
1970/01/01/01:00:09.363000,371,9,361000000,,-0.44264242053,-0.0329108685255,-0.0105957668275
1970/01/01/01:00:09.382000,372,9,381000000,,-0.443302750587,-0.0331221334636,-0.0105305947363
1970/01/01/01:00:09.402000,373,9,401000000,,-0.443967312574,-0.0333320870996,-0.0104650072753
1970/01/01/01:00:09.422000,374,9,421000000,,-0.444636046886,-0.0335407294333,-0.0103990063071
1970/01/01/01:00:09.443000,375,9,442000000,,-0.445308923721,-0.0337480455637,-0.0103325946257
1970/01/01/01:00:09.462000,376,9,461000000,,-0.445985943079,-0.0339540317655,-0.0102657750249
1970/01/01/01:00:09.482000,377,9,481000000,,-0.446667075157,-0.0341586731374,-0.0101985502988
1970/01/01/01:00:09.502000,378,9,501000000,,-0.447352290154,-0.0343619696796,-0.0101309232414
1970/01/01/01:00:09.523000,379,9,522000000,,-0.448041558266,-0.0345639102161,-0.0100628957152
1970/01/01/01:00:09.542000,380,9,541000000,,-0.448734849691,-0.0347644835711,-0.00999447051436
1970/01/01/01:00:09.563000,381,9,561000000,,-0.449432134628,-0.0349636860192,-0.00992565136403
1970/01/01/01:00:09.583000,382,9,581000000,,-0.450133383274,-0.0351615063846,-0.00985644105822
1970/01/01/01:00:09.603000,383,9,602000000,,-0.450838565826,-0.035357940942,-0.00978684052825
1970/01/01/01:00:09.621000,384,9,621000000,,-0.451547682285,-0.0355529785156,-0.00971685443074
1970/01/01/01:00:09.642000,385,9,641000000,,-0.452260673046,-0.0357466116548,-0.009646483697
1970/01/01/01:00:09.663000,386,9,662000000,,-0.452977538109,-0.0359388329089,-0.00957573298365
1970/01/01/01:00:09.682000,387,9,682000000,,-0.453734368086,-0.0361391417682,-0.0095010381192
1970/01/01/01:00:09.703000,388,9,701000000,,-0.454422712326,-0.0363190174103,-0.00943310000002
1970/01/01/01:00:09.723000,389,9,722000000,,-0.455150991678,-0.0365069583058,-0.00936122331768
1970/01/01/01:00:09.745000,390,9,745000000,,-0.455882996321,-0.0366934612393,-0.00928897690028
1970/01/01/01:00:09.765000,391,9,765000000,,-0.456655591726,-0.0368877314031,-0.00921272393316
1970/01/01/01:00:09.782000,392,9,781000000,,-0.457358121872,-0.0370621159673,-0.0091433878988
1970/01/01/01:00:09.802000,393,9,801000000,,-0.458101183176,-0.0372442491353,-0.00907004997134
1970/01/01/01:00:09.823000,394,9,823000000,,-0.458847880363,-0.0374249145389,-0.00899635441601
1970/01/01/01:00:09.845000,395,9,845000000,,-0.45963576436,-0.0376130230725,-0.008918591775
1970/01/01/01:00:09.864000,396,9,862000000,,-0.460352033377,-0.0377818048,-0.00884789973497
1970/01/01/01:00:09.896000,397,9,896000000,,-0.461679786444,-0.0380891896784,-0.00871685612947
1970/01/01/01:00:09.904000,398,9,903000000,,-0.461870342493,-0.0381327271461,-0.0086980490014
1970/01/01/01:00:09.922000,399,9,922000000,,-0.46263474226,-0.0383059345186,-0.00862260628492
1970/01/01/01:00:09.944000,400,9,944000000,,-0.463402569294,-0.0384776294231,-0.0085468236357
1970/01/01/01:00:09.962000,401,9,961000000,,-0.464173823595,-0.0386478044093,-0.00847070384771
1970/01/01/01:00:09.981000,402,9,981000000,,-0.464948475361,-0.0388164557517,-0.00839424971491
1970/01/01/01:00:10.002000,403,10,1000000,,-0.465726464987,-0.0389835722744,-0.00831746403128
1970/01/01/01:00:10.024000,404,10,23000000,,-0.466507792473,-0.0391491502523,-0.00824034959078
1970/01/01/01:00:10.042000,405,10,42000000,,-0.467292428017,-0.0393131859601,-0.0081629101187
1970/01/01/01:00:10.063000,406,10,63000000,,-0.468080312014,-0.0394756644964,-0.00808514840901
1970/01/01/01:00:10.082000,407,10,82000000,,-0.468871444464,-0.0396365895867,-0.00800706725568
1970/01/01/01:00:10.103000,408,10,103000000,,-0.469705581665,-0.0398038737476,-0.00792474206537
1970/01/01/01:00:10.123000,409,10,122000000,,-0.470463275909,-0.0399537347257,-0.00784996058792
1970/01/01/01:00:10.144000,410,10,143000000,,-0.471304029226,-0.0401177108288,-0.0077669811435
1970/01/01/01:00:10.162000,411,10,161000000,,-0.472067654133,-0.0402645692229,-0.00769161386415
1970/01/01/01:00:10.182000,412,10,181000000,,-0.472874492407,-0.0404176041484,-0.00761198345572
1970/01/01/01:00:10.202000,413,10,201000000,,-0.473684340715,-0.0405690446496,-0.00753205269575
1970/01/01/01:00:10.223000,414,10,222000000,,-0.474497228861,-0.0407188870013,-0.00745182437822
1970/01/01/01:00:10.243000,415,10,242000000,,-0.475313097239,-0.0408671163023,-0.00737130176276
1970/01/01/01:00:10.263000,416,10,262000000,,-0.476131916046,-0.0410137362778,-0.00729048857465
1970/01/01/01:00:10.283000,417,10,282000000,,-0.476953625679,-0.0411587357521,-0.00720938714221
1970/01/01/01:00:10.304000,418,10,303000000,,-0.477778255939,-0.0413021109998,-0.00712800119072
1970/01/01/01:00:10.323000,419,10,322000000,,-0.478605717421,-0.0414438545704,-0.00704633397982
1970/01/01/01:00:10.343000,420,10,342000000,,-0.47943598032,-0.0415839627385,-0.00696438876912
1970/01/01/01:00:10.363000,421,10,362000000,,-0.480269044638,-0.0417224280536,-0.0068821683526
1970/01/01/01:00:10.386000,422,10,384000000,,-0.481188595295,-0.0418728366494,-0.00679141189903
1970/01/01/01:00:10.403000,423,10,403000000,,-0.481943428516,-0.0419944114983,-0.00671691540629
1970/01/01/01:00:10.423000,424,10,421000000,,-0.482784628868,-0.0421279221773,-0.0066338898614
1970/01/01/01:00:10.442000,425,10,441000000,,-0.483628511429,-0.0422597676516,-0.00655060214922
1970/01/01/01:00:10.462000,426,10,462000000,,-0.484475016594,-0.0423899441957,-0.00646705599502
1970/01/01/01:00:10.485000,427,10,484000000,,-0.485324114561,-0.0425184480846,-0.00638325465843
1970/01/01/01:00:10.502000,428,10,501000000,,-0.486175745726,-0.0426452718675,-0.00629920093343
1970/01/01/01:00:10.523000,429,10,522000000,,-0.487029910088,-0.0427704118192,-0.00621489901096
1970/01/01/01:00:10.543000,430,10,541000000,,-0.487886548042,-0.0428938642144,-0.00613035121933
1970/01/01/01:00:10.565000,431,10,563000000,,-0.488788664341,-0.0430216677487,-0.00604131631553
1970/01/01/01:00:10.583000,432,10,582000000,,-0.489650309086,-0.043141644448,-0.00595627585426
1970/01/01/01:00:10.603000,433,10,602000000,,-0.490471065044,-0.0432540439069,-0.00587527034804
1970/01/01/01:00:10.622000,434,10,621000000,,-0.491337329149,-0.0433706976473,-0.00578977447003
1970/01/01/01:00:10.643000,435,10,641000000,,-0.492205888033,-0.0434856340289,-0.00570405041799
1970/01/01/01:00:10.664000,436,10,663000000,,-0.493076741695,-0.043598856777,-0.00561810145155
1970/01/01/01:00:10.684000,437,10,682000000,,-0.493993550539,-0.0437158867717,-0.00552761601284
1970/01/01/01:00:10.702000,438,10,701000000,,-0.494825124741,-0.0438201315701,-0.00544554088265
1970/01/01/01:00:10.724000,439,10,723000000,,-0.495746552944,-0.0439335331321,-0.00535460095853
1970/01/01/01:00:10.743000,440,10,742000000,,-0.496582239866,-0.0440344884992,-0.00527212070301
1970/01/01/01:00:10.765000,441,10,764000000,,-0.497552275658,-0.0441494211555,-0.00517638260499
1970/01/01/01:00:10.783000,442,10,782000000,,-0.498347789049,-0.0442418903112,-0.00509786792099
1970/01/01/01:00:10.802000,443,10,801000000,,-0.499233663082,-0.0443429760635,-0.005010437686
1970/01/01/01:00:10.822000,444,10,821000000,,-0.500121533871,-0.044442307204,-0.00492281001061
1970/01/01/01:00:10.842000,445,10,841000000,,-0.501011312008,-0.0445398837328,-0.00483498768881
1970/01/01/01:00:10.863000,446,10,861000000,,-0.501903116703,-0.0446357056499,-0.00474697444588
1970/01/01/01:00:10.882000,447,10,881000000,,-0.502796769142,-0.0447297617793,-0.00465877400711
1970/01/01/01:00:10.902000,448,10,901000000,,-0.503692269325,-0.0448220558465,-0.00457038963214
1970/01/01/01:00:10.923000,449,10,922000000,,-0.504634559155,-0.0449170581996,-0.00447739195079
1970/01/01/01:00:10.943000,450,10,941000000,,-0.505488753319,-0.0450013279915,-0.0043930830434
1970/01/01/01:00:10.962000,451,10,962000000,,-0.506389677525,-0.0450882986188,-0.00430416781455
1970/01/01/01:00:10.984000,452,10,984000000,,-0.50729227066,-0.0451734922826,-0.00421508261934
1970/01/01/01:00:11.003000,453,11,2000000,,-0.508196592331,-0.0452569015324,-0.00412583118305
1970/01/01/01:00:11.022000,454,11,21000000,,-0.509102523327,-0.0453385263681,-0.0040364167653
1970/01/01/01:00:11.042000,455,11,41000000,,-0.510010123253,-0.0454183593392,-0.0039468430914
1970/01/01/01:00:11.063000,456,11,61000000,,-0.5109192729,-0.0454963967204,-0.00385711365379
1970/01/01/01:00:11.083000,457,11,82000000,,-0.511829972267,-0.0455726422369,-0.00376723171212
1970/01/01/01:00:11.103000,458,11,101000000,,-0.512742161751,-0.045647084713,-0.00367720122449
1970/01/01/01:00:11.122000,459,11,121000000,,-0.513655841351,-0.0457197278738,-0.00358702545054
1970/01/01/01:00:11.142000,460,11,142000000,,-0.514570951462,-0.0457905642688,-0.00349670811556
1970/01/01/01:00:11.164000,461,11,163000000,,-0.515533328056,-0.0458629988134,-0.0034017264843
1970/01/01/01:00:11.182000,462,11,181000000,,-0.516405284405,-0.0459268130362,-0.00331566296518
1970/01/01/01:00:11.202000,463,11,201000000,,-0.517324507236,-0.0459922216833,-0.00322494213469
1970/01/01/01:00:11.222000,464,11,222000000,,-0.518244981766,-0.0460558123887,-0.00313409417868
1970/01/01/01:00:11.243000,465,11,241000000,,-0.519166707993,-0.0461175851524,-0.00304312235676
1970/01/01/01:00:11.262000,466,11,262000000,,-0.520089685917,-0.0461775362492,-0.00295203039423
1970/01/01/01:00:11.284000,467,11,283000000,,-0.521060049534,-0.0462385229766,-0.00285625853576
1970/01/01/01:00:11.303000,468,11,302000000,,-0.521939098835,-0.0462919697165,-0.00276950048283
1970/01/01/01:00:11.322000,469,11,322000000,,-0.522865474224,-0.0463464446366,-0.00267806975171
1970/01/01/01:00:11.344000,470,11,343000000,,-0.523885726929,-0.0464042536914,-0.00257737399079
1970/01/01/01:00:11.364000,471,11,362000000,,-0.524767875671,-0.046452395618,-0.00249031023122
1970/01/01/01:00:11.383000,472,11,382000000,,-0.525650918484,-0.0464988835156,-0.00240315753035
1970/01/01/01:00:11.402000,473,11,401000000,,-0.526581346989,-0.0465460307896,-0.00231132563204
1970/01/01/01:00:11.422000,474,11,421000000,,-0.527512729168,-0.0465913377702,-0.00221940246411
1970/01/01/01:00:11.442000,475,11,441000000,,-0.528445005417,-0.0466348044574,-0.00212739151902
1970/01/01/01:00:11.462000,476,11,461000000,,-0.529378116131,-0.0466764308512,-0.00203529675491
1970/01/01/01:00:11.482000,477,11,481000000,,-0.53031206131,-0.0467162169516,-0.00194312166423
1970/01/01/01:00:11.503000,478,11,502000000,,-0.531246781349,-0.046754155308,-0.00185086973943
1970/01/01/01:00:11.529000,479,11,521000000,,-0.532182216644,-0.0467902496457,-0.00175854482222
1970/01/01/01:00:11.542000,480,11,541000000,,-0.533118367195,-0.0468244999647,-0.00166615052149
1970/01/01/01:00:11.563000,481,11,562000000,,-0.534055173397,-0.0468568950891,-0.00157369032968
1970/01/01/01:00:11.583000,482,11,582000000,,-0.53499263525,-0.0468874461949,-0.0014811680885
1970/01/01/01:00:11.604000,483,11,603000000,,-0.53593069315,-0.0469161421061,-0.00138858740684
1970/01/01/01:00:11.623000,484,11,621000000,,-0.536869287491,-0.0469429902732,-0.00129595177714
1970/01/01/01:00:11.643000,485,11,641000000,,-0.537808358669,-0.0469679795206,-0.00120326504111
1970/01/01/01:00:11.662000,486,11,661000000,,-0.53874796629,-0.0469911172986,-0.00111053092405
1970/01/01/01:00:11.684000,487,11,682000000,,-0.539735019207,-0.0470134168863,-0.00101311283652
1970/01/01/01:00:11.704000,488,11,702000000,,-0.540628433228,-0.047031827271,-0.000924934574869
1970/01/01/01:00:11.724000,489,11,723000000,,-0.541569292545,-0.0470493994653,-0.000832079793327
1970/01/01/01:00:11.743000,490,11,743000000,,-0.542510390282,-0.0470651127398,-0.000739192240871
1970/01/01/01:00:11.764000,491,11,763000000,,-0.543451845646,-0.0470789670944,-0.000646275409963
1970/01/01/01:00:11.783000,492,11,781000000,,-0.544393539429,-0.0470909625292,-0.000553333142307
1970/01/01/01:00:11.802000,493,11,802000000,,-0.54533547163,-0.0471010990441,-0.00046036898857
1970/01/01/01:00:11.823000,494,11,822000000,,-0.546277582645,-0.0471093766391,-0.000367386674043
1970/01/01/01:00:11.844000,495,11,843000000,,-0.547219872475,-0.0471157953143,-0.000274389836704
1970/01/01/01:00:11.863000,496,11,863000000,,-0.548209309578,-0.0471205301583,-0.000176731584361
1970/01/01/01:00:11.883000,497,11,881000000,,-0.549104630947,-0.0471230484545,-8.83673637873e-05
1970/01/01/01:00:11.903000,498,11,902000000,,-0.550094246864,-0.0471238791943,9.30188252823e-06
1970/01/01/01:00:11.924000,499,11,924000000,,-0.551130950451,-0.0471225492656,0.000111621535325
1970/01/01/01:00:11.947000,500,11,947000000,,-0.552167594433,-0.0471189692616,0.000213935869397
1970/01/01/01:00:11.967000,501,11,965000000,,-0.552874386311,-0.0471152365208,0.000283690053038
1970/01/01/01:00:11.986000,502,11,985000000,,-0.553910851479,-0.0471078716218,0.000385984400054
1970/01/01/01:00:12.002000,503,12,2000000,,-0.554758727551,-0.0471001714468,0.000469666265417
1970/01/01/01:00:12.023000,504,12,22000000,,-0.555747687817,-0.0470892824233,0.000567275972571
1970/01/01/01:00:12.043000,505,12,43000000,,-0.55664229393,-0.0470776632428,0.000655568321235
1970/01/01/01:00:12.062000,506,12,62000000,,-0.55758368969,-0.0470636226237,0.000748482358176
1970/01/01/01:00:12.083000,507,12,81000000,,-0.558524847031,-0.04704772681,0.000841366825625
1970/01/01/01:00:12.115000,508,12,115000000,,-0.560123920441,-0.0470164343715,0.000999192241579
1970/01/01/01:00:12.124000,509,12,123000000,,-0.560406029224,-0.047010358423,0.00102703250013
1970/01/01/01:00:12.143000,510,12,142000000,,-0.561345994473,-0.046988889575,0.00111980631482
1970/01/01/01:00:12.162000,511,12,161000000,,-0.562285542488,-0.0469655655324,0.0012125360081
1970/01/01/01:00:12.183000,512,12,181000000,,-0.563224613667,-0.0469403862953,0.00130521773826
1970/01/01/01:00:12.202000,513,12,202000000,,-0.564210057259,-0.0469119548798,0.00140247808304
1970/01/01/01:00:12.223000,514,12,221000000,,-0.565101146698,-0.0468844734132,0.00149042299017
1970/01/01/01:00:12.244000,515,12,242000000,,-0.566085398197,-0.0468521565199,0.00158756342717
1970/01/01/01:00:12.268000,516,12,264000000,,-0.567115724087,-0.046816110611,0.00168925535399
1970/01/01/01:00:12.284000,517,12,282000000,,-0.567958176136,-0.0467849560082,0.00177239812911
1970/01/01/01:00:12.305000,518,12,302000000,,-0.56884676218,-0.0467504449189,0.00186009833124
1970/01/01/01:00:12.322000,519,12,322000000,,-0.569828093052,-0.0467103682458,0.00195695296861
1970/01/01/01:00:12.346000,520,12,346000000,,-0.570808529854,-0.046668253839,0.00205372227356
1970/01/01/01:00:12.364000,521,12,364000000,,-0.571648240089,-0.0466305427253,0.00213659647852
1970/01/01/01:00:12.384000,522,12,382000000,,-0.572627007961,-0.0465846583247,0.00223319651559
1970/01/01/01:00:12.402000,523,12,401000000,,-0.573511719704,-0.0465413965285,0.0023205128964
1970/01/01/01:00:12.425000,524,12,423000000,,-0.574442088604,-0.0464940704405,0.00241233571433
1970/01/01/01:00:12.444000,525,12,443000000,,-0.575417935848,-0.0464424006641,0.00250864680856
1970/01/01/01:00:12.463000,526,12,461000000,,-0.576299846172,-0.0463939085603,0.00259569147602
1970/01/01/01:00:12.486000,527,12,481000000,,-0.57722723484,-0.0463410802186,0.0026872176677
1970/01/01/01:00:12.508000,528,12,503000000,,-0.57815349102,-0.046286419034,0.00277863768861
1970/01/01/01:00:12.524000,529,12,522000000,,-0.579124867916,-0.0462270602584,0.00287451036274
1970/01/01/01:00:12.541000,530,12,541000000,,-0.58000266552,-0.0461716242135,0.0029611447826
1970/01/01/01:00:12.566000,531,12,563000000,,-0.580971598625,-0.0461084358394,0.00305677577853
1970/01/01/01:00:12.591000,532,12,586000000,,-0.581847131252,-0.0460495352745,0.0031431845855
1970/01/01/01:00:12.604000,533,12,602000000,,-0.582767486572,-0.0459857620299,0.00323401996866
1970/01/01/01:00:12.625000,534,12,624000000,,-0.58368653059,-0.0459201745689,0.00332472776063
1970/01/01/01:00:12.644000,535,12,643000000,,-0.584604263306,-0.0458527728915,0.00341530446894
1970/01/01/01:00:12.664000,536,12,662000000,,-0.585520625114,-0.0457835644484,0.00350574613549
1970/01/01/01:00:12.683000,537,12,683000000,,-0.586435616016,-0.0457125455141,0.00359604950063
1970/01/01/01:00:12.705000,538,12,701000000,,-0.587349116802,-0.0456397235394,0.00368621083908
1970/01/01/01:00:12.725000,539,12,723000000,,-0.588306725025,-0.0455613173544,0.00378072354943
1970/01/01/01:00:12.743000,540,12,743000000,,-0.58917170763,-0.0454886741936,0.00386609346606
1970/01/01/01:00:12.764000,541,12,762000000,,-0.590080738068,-0.0454104542732,0.00395580753684
1970/01/01/01:00:12.783000,542,12,783000000,,-0.590988099575,-0.0453304424882,0.00404536537826
1970/01/01/01:00:12.804000,543,12,803000000,,-0.591893911362,-0.0452486425638,0.00413476396352
1970/01/01/01:00:12.824000,544,12,823000000,,-0.592843234539,-0.0451608262956,0.00422845641151
1970/01/01/01:00:12.843000,545,12,842000000,,-0.593700528145,-0.0450796820223,0.00431306706741
1970/01/01/01:00:12.863000,546,12,863000000,,-0.594601213932,-0.0449925325811,0.00440196506679
1970/01/01/01:00:12.883000,547,12,883000000,,-0.595500171185,-0.0449036061764,0.00449068937451
1970/01/01/01:00:12.904000,548,12,902000000,,-0.596397340298,-0.0448129065335,0.00457923626527
1970/01/01/01:00:12.924000,549,12,923000000,,-0.597337424755,-0.0447157658637,0.00467201601714
1970/01/01/01:00:12.948000,550,12,946000000,,-0.598186194897,-0.0446262024343,0.00475578429177
1970/01/01/01:00:12.962000,551,12,961000000,,-0.599077761173,-0.0445302054286,0.00484377844259
1970/01/01/01:00:12.984000,552,12,983000000,,-0.599967360497,-0.0444324538112,0.00493158120662
1970/01/01/01:00:13.005000,553,13,2000000,,-0.600899338722,-0.0443279221654,0.00502356467769
1970/01/01/01:00:13.024000,554,13,22000000,,-0.601740658283,-0.0442316867411,0.00510659953579
1970/01/01/01:00:13.045000,555,13,43000000,,-0.602712512016,-0.0441182851791,0.00520251784474
1970/01/01/01:00:13.064000,556,13,63000000,,-0.603549838066,-0.0440186522901,0.00528515642509
1970/01/01/01:00:13.083000,557,13,81000000,,-0.604385197163,-0.0439174510539,0.00536760641262
1970/01/01/01:00:13.105000,558,13,103000000,,-0.605306327343,-0.0438037775457,0.00545851327479
1970/01/01/01:00:13.125000,559,13,124000000,,-0.606181263924,-0.0436937436461,0.00554487016052
1970/01/01/01:00:13.142000,560,13,141000000,,-0.607010483742,-0.0435876101255,0.00562670640647
1970/01/01/01:00:13.162000,561,13,162000000,,-0.607924520969,-0.0434685014188,0.00571692362428
1970/01/01/01:00:13.183000,562,13,183000000,,-0.608749389648,-0.0433591082692,0.00579833472148
1970/01/01/01:00:13.203000,563,13,202000000,,-0.609615445137,-0.0432422868907,0.00588380685076
1970/01/01/01:00:13.222000,564,13,221000000,,-0.61047911644,-0.043123755604,0.00596904708073
1970/01/01/01:00:13.243000,565,13,241000000,,-0.611340343952,-0.0430035255849,0.00605405168608
1970/01/01/01:00:13.265000,566,13,264000000,,-0.612199246883,-0.0428815968335,0.00613881694153
1970/01/01/01:00:13.283000,567,13,282000000,,-0.61309838295,-0.0427517481148,0.0062275598757
1970/01/01/01:00:13.302000,568,13,301000000,,-0.613909542561,-0.0426326654851,0.00630761776119
1970/01/01/01:00:13.324000,569,13,321000000,,-0.614760935307,-0.0425056703389,0.00639164634049
1970/01/01/01:00:13.344000,570,13,343000000,,-0.615609765053,-0.042376998812,0.00647542253137
1970/01/01/01:00:13.362000,571,13,362000000,,-0.616455972195,-0.042246658355,0.00655894260854
1970/01/01/01:00:13.383000,572,13,382000000,,-0.617341697216,-0.0421079993248,0.00664636073634
1970/01/01/01:00:13.402000,573,13,401000000,,-0.61814057827,-0.0419809706509,0.00672520371154
1970/01/01/01:00:13.423000,574,13,422000000,,-0.61902064085,-0.0418388284743,0.00681206723675
1970/01/01/01:00:13.442000,575,13,441000000,,-0.619814395905,-0.0417086556554,0.00689040264115
1970/01/01/01:00:13.462000,576,13,461000000,,-0.620647192001,-0.0415700227022,0.00697259558365
1970/01/01/01:00:13.483000,577,13,483000000,,-0.62147718668,-0.0414297506213,0.00705451332033
1970/01/01/01:00:13.508000,578,13,506000000,,-0.622469425201,-0.0412592664361,0.00715244654566
1970/01/01/01:00:13.523000,579,13,522000000,,-0.623169779778,-0.0411370880902,0.00722157070413
1970/01/01/01:00:13.543000,580,13,541000000,,-0.623950123787,-0.040999148041,0.00729858269915
1970/01/01/01:00:13.564000,581,13,563000000,,-0.624768614769,-0.040852367878,0.00737936701626
1970/01/01/01:00:13.583000,582,13,581000000,,-0.625584185123,-0.0407039746642,0.00745986029506
1970/01/01/01:00:13.604000,583,13,604000000,,-0.626396775246,-0.0405539758503,0.00754005881026
1970/01/01/01:00:13.623000,584,13,622000000,,-0.62724673748,-0.0403947532177,0.00762394722551
1970/01/01/01:00:13.644000,585,13,643000000,,-0.628012835979,-0.0402491763234,0.00769955990836
1970/01/01/01:00:13.665000,586,13,664000000,,-0.628816306591,-0.0400943942368,0.00777885643765
1970/01/01/01:00:13.684000,587,13,684000000,,-0.629656553268,-0.039930164814,0.00786178652197
1970/01/01/01:00:13.705000,588,13,704000000,,-0.630533099174,-0.0397562533617,0.00794829893857
1970/01/01/01:00:13.722000,589,13,721000000,,-0.631207823753,-0.0396205671132,0.00801488943398
1970/01/01/01:00:13.743000,590,13,743000000,,-0.631998598576,-0.0394594892859,0.00809293892235
1970/01/01/01:00:13.767000,591,13,767000000,,-0.632864773273,-0.0392805039883,0.00817842409015
1970/01/01/01:00:13.785000,592,13,781000000,,-0.633570492268,-0.0391326621175,0.00824807584286
1970/01/01/01:00:13.803000,593,13,802000000,,-0.634351491928,-0.0389669314027,0.00832515675575
1970/01/01/01:00:13.824000,594,13,822000000,,-0.635129153728,-0.0387996584177,0.00840190984309
1970/01/01/01:00:13.842000,595,13,842000000,,-0.635942101479,-0.0386223755777,0.00848214328289
1970/01/01/01:00:13.863000,596,13,862000000,,-0.63667434454,-0.0384605266154,0.00855441763997
1970/01/01/01:00:13.883000,597,13,882000000,,-0.637480139732,-0.0382800512016,0.00863394420594
1970/01/01/01:00:13.902000,598,13,902000000,,-0.638205885887,-0.0381153225899,0.0087055740878
1970/01/01/01:00:13.924000,599,13,922000000,,-0.638966441154,-0.0379404611886,0.00878063868731
1970/01/01/01:00:13.945000,600,13,942000000,,-0.639723539352,-0.0377641022205,0.00885535590351
1970/01/01/01:00:13.963000,601,13,961000000,,-0.640477001667,-0.0375862494111,0.00892972387373
1970/01/01/01:00:13.983000,602,13,982000000,,-0.641226947308,-0.0374069139361,0.00900373980403
1970/01/01/01:00:14.004000,603,14,3000000,,-0.642010509968,-0.0372170247138,0.00908107310534
1970/01/01/01:00:14.022000,604,14,21000000,,-0.642715990543,-0.0370438210666,0.00915070157498
1970/01/01/01:00:14.041000,605,14,41000000,,-0.643455028534,-0.0368600748479,0.0092236418277
1970/01/01/01:00:14.064000,606,14,63000000,,-0.644190371037,-0.036674875766,0.0092962179333
1970/01/01/01:00:14.084000,607,14,82000000,,-0.644922018051,-0.0364882312715,0.00936842802912
1970/01/01/01:00:14.102000,608,14,101000000,,-0.645649909973,-0.0363001413643,0.00944026745856
1970/01/01/01:00:14.124000,609,14,123000000,,-0.646373987198,-0.0361106209457,0.00951173342764
1970/01/01/01:00:14.144000,610,14,142000000,,-0.64709430933,-0.0359196774662,0.00958282500505
1970/01/01/01:00:14.165000,611,14,165000000,,-0.647810816765,-0.0357273109257,0.0096535384655
1970/01/01/01:00:14.184000,612,14,183000000,,-0.648558914661,-0.0355238094926,0.00972737651318
1970/01/01/01:00:14.205000,613,14,204000000,,-0.649267435074,-0.0353285633028,0.0097973048687
1970/01/01/01:00:14.227000,614,14,227000000,,-0.650112509727,-0.0350924246013,0.00988070853055
1970/01/01/01:00:14.242000,615,14,241000000,,-0.650637805462,-0.0349438264966,0.00993255153298
1970/01/01/01:00:14.264000,616,14,263000000,,-0.651334643364,-0.0347444862127,0.0100013315678
1970/01/01/01:00:14.283000,617,14,282000000,,-0.652027547359,-0.034543775022,0.0100697157905
1970/01/01/01:00:14.304000,618,14,303000000,,-0.652716398239,-0.0343417003751,0.0101377032697
1970/01/01/01:00:14.324000,619,14,323000000,,-0.653401196003,-0.0341382697225,0.0102052912116
1970/01/01/01:00:14.343000,620,14,342000000,,-0.654081940651,-0.0339334905148,0.0102724749595
1970/01/01/01:00:14.364000,621,14,363000000,,-0.654758572578,-0.0337273739278,0.0103392535821
1970/01/01/01:00:14.384000,622,14,383000000,,-0.655431032181,-0.033519923687,0.0104056242853
1970/01/01/01:00:14.403000,623,14,402000000,,-0.656099319458,-0.0333111509681,0.0104715842754
1970/01/01/01:00:14.426000,624,14,423000000,,-0.656796574593,-0.0330905243754,0.0105403969064
1970/01/01/01:00:14.442000,625,14,441000000,,-0.657423377037,-0.0328896678984,0.0106022609398
1970/01/01/01:00:14.464000,626,14,463000000,,-0.65807902813,-0.0326769761741,0.0106669729576
1970/01/01/01:00:14.484000,627,14,483000000,,-0.658762872219,-0.0324522592127,0.0107344677672
1970/01/01/01:00:14.503000,628,14,502000000,,-0.659377574921,-0.0322477295995,0.0107951313257
1970/01/01/01:00:14.523000,629,14,521000000,,-0.66002035141,-0.0320311896503,0.0108585720882
1970/01/01/01:00:14.542000,630,14,542000000,,-0.66065877676,-0.031813390553,0.0109215844423
1970/01/01/01:00:14.563000,631,14,562000000,,-0.661324441433,-0.0315833464265,0.010987283662
1970/01/01/01:00:14.585000,632,14,582000000,,-0.661953926086,-0.0313629768789,0.0110494093969
1970/01/01/01:00:14.602000,633,14,602000000,,-0.662547826767,-0.0311524812132,0.0111080240458
1970/01/01/01:00:14.628000,634,14,628000000,,-0.663323163986,-0.0308738220483,0.0111845470965
1970/01/01/01:00:14.642000,635,14,642000000,,-0.663784980774,-0.0307057127357,0.0112301288173
1970/01/01/01:00:14.663000,636,14,662000000,,-0.664396882057,-0.0304805040359,0.0112905176356
1970/01/01/01:00:14.683000,637,14,682000000,,-0.665004193783,-0.0302540939301,0.0113504603505
1970/01/01/01:00:14.704000,638,14,702000000,,-0.66560703516,-0.0300264898688,0.0114099550992
