time,.header.seq,.header.stamp.secs,.header.stamp.nsecs,.header.frame_id,.child_frame_id,.pose.pose.position.x,.pose.pose.position.y,.pose.pose.position.z,.pose.pose.orientation.x,.pose.pose.orientation.y,.pose.pose.orientation.z,.pose.pose.orientation.w,.pose.covariance,.twist.twist.linear.x,.twist.twist.linear.y,.twist.twist.linear.z,.twist.twist.angular.x,.twist.twist.angular.y,.twist.twist.angular.z,.twist.covariance
1970/01/01/01:00:10.527000,1,10,525000000,map,map,0.8,1.675,-0.606282001369,0.000262418359005,-9.60757373935e-05,-0.674718890569,-0.738074744478,"(111.7535290144, 0.0, 0.0, 0.0, 0.0, 0.0, 0.0, 111.7535290144, 0.0, 0.0, 0.0, 0.0, 0.0, 0.0, 0.010100255784411524, 0.0, 0.0, 0.0, 0.0, 0.0, 0.0, 0.0, 0.0, 0.0, 0.0, 0.0, 0.0, 0.0, 0.0, 0.0, 0.0, 0.0, 0.0, 0.0, 0.0, 0.0)",0.0,0.0,0.0,0.00516513120759,-0.000682444269607,-0.00367484695277,"(0.0, 0.0, 0.0, 0.0, 0.0, 0.0, 0.0, 0.0, 0.0, 0.0, 0.0, 0.0, 0.0, 0.0, 0.0, 0.0, 0.0, 0.0, 0.0, 0.0, 0.0, 0.0, 0.0, 0.0, 0.0, 0.0, 0.0, 0.0, 0.0, 0.0, 0.0, 0.0, 0.0, 0.0, 0.0, 0.0)"
1970/01/01/01:00:10.546000,2,10,545000000,map,map,0.8,1.675,-0.612952478867,0.000266854582344,-3.1258000287e-05,-0.674788904386,-0.738010715513,"(111.95302405220002, 0.0, 0.0, 0.0, 0.0, 0.0, 0.0, 111.95302405220002, 0.0, 0.0, 0.0, 0.0, 0.0, 0.0, 9.950496255160658e-05, 0.0, 0.0, 0.0, 0.0, 0.0, 0.0, 0.0, 0.0, 0.0, 0.0, 0.0, 0.0, 0.0, 0.0, 0.0, 0.0, 0.0, 0.0, 0.0, 0.0, 0.0)",0.0,0.0,0.0,0.00569652375399,-0.00369526606804,0.00881233179356,"(0.0, 0.0, 0.0, 0.0, 0.0, 0.0, 0.0, 0.0, 0.0, 0.0, 0.0, 0.0, 0.0, 0.0, 0.0, 0.0, 0.0, 0.0, 0.0, 0.0, 0.0, 0.0, 0.0, 0.0, 0.0, 0.0, 0.0, 0.0, 0.0, 0.0, 0.0, 0.0, 0.0, 0.0, 0.0, 0.0)"
1970/01/01/01:00:10.566000,3,10,565000000,map,map,0.8,1.675,-0.593189501843,0.000374195670205,-2.49143233596e-05,-0.674941681444,-0.737871088272,"(112.36360127450003, 0.0, 0.0, 0.0, 0.0, 0.0, 0.0, 112.36360127450003, 0.0, 0.0, 0.0, 0.0, 0.0, 0.0, 9.901957410246362e-05, 0.0, 0.0, 0.0, 0.0, 0.0, 0.0, 0.0, 0.0, 0.0, 0.0, 0.0, 0.0, 0.0, 0.0, 0.0, 0.0, 0.0, 0.0, 0.0, 0.0, 0.0)",0.032,0.04,-0.188254131445,-0.00267058210484,-0.00849800246897,0.0367562302874,"(0.0, 0.0, 0.0, 0.0, 0.0, 0.0, 0.0, 0.0, 0.0, 0.0, 0.0, 0.0, 0.0, 0.0, 0.0, 0.0, 0.0, 0.0, 0.0, 0.0, 0.0, 0.0, 0.0, 0.0, 0.0, 0.0, 0.0, 0.0, 0.0, 0.0, 0.0, 0.0, 0.0, 0.0, 0.0, 0.0)"
1970/01/01/01:00:10.587000,4,10,585000000,map,map,0.8,1.675,-0.624531411937,0.000349386508171,-0.000133195936255,-0.675539892738,-0.737323368902,"(112.81718481630001, 0.0, 0.0, 0.0, 0.0, 0.0, 0.0, 112.81718481630001, 0.0, 0.0, 0.0, 0.0, 0.0, 0.0, 9.901953472851191e-05, 0.0, 0.0, 0.0, 0.0, 0.0, 0.0, 0.0, 0.0, 0.0, 0.0, 0.0, 0.0, 0.0, 0.0, 0.0, 0.0, 0.0, 0.0, 0.0, 0.0, 0.0)",0.0608,0.076,-0.305919141562,-0.00505706922943,0.00995660562691,0.0889066252562,"(0.0, 0.0, 0.0, 0.0, 0.0, 0.0, 0.0, 0.0, 0.0, 0.0, 0.0, 0.0, 0.0, 0.0, 0.0, 0.0, 0.0, 0.0, 0.0, 0.0, 0.0, 0.0, 0.0, 0.0, 0.0, 0.0, 0.0, 0.0, 0.0, 0.0, 0.0, 0.0, 0.0, 0.0, 0.0, 0.0)"
1970/01/01/01:00:10.608000,5,10,608000000,map,map,0.0682636691484,2.0603191684,-0.603806149151,0.000376764703779,-0.000145617289577,-0.676616620911,-0.736335486286,"(0.7214019917097466, 0.0, 0.0, 0.0, 0.0, 0.0, 0.0, 0.030123399067499595, 0.0, 0.0, 0.0, 0.0, 0.0, 0.0, 9.901353782512902e-05, 0.0, 0.0, 0.0, 0.0, 0.0, 0.0, 0.0, 0.0, 0.0, 0.0, 0.0, 0.0, 0.0, 0.0, 0.0, 0.0, 0.0, 0.0, 0.0, 0.0, 0.0)",0.09057856,0.11326,-0.467026536844,-0.000166785788141,0.00130012388501,0.156961568106,"(0.0, 0.0, 0.0, 0.0, 0.0, 0.0, 0.0, 0.0, 0.0, 0.0, 0.0, 0.0, 0.0, 0.0, 0.0, 0.0, 0.0, 0.0, 0.0, 0.0, 0.0, 0.0, 0.0, 0.0, 0.0, 0.0, 0.0, 0.0, 0.0, 0.0, 0.0, 0.0, 0.0, 0.0, 0.0, 0.0)"
1970/01/01/01:00:10.626000,6,10,625000000,map,map,0.0667581339563,2.06111818741,-0.598863768766,0.000361613210142,-0.000122605470431,-0.677915268047,-0.735140014635,"(0.7343785830761117, 0.0, 0.0, 0.0, 0.0, 0.0, 0.0, 0.04025229265197531, 0.0, 0.0, 0.0, 0.0, 0.0, 0.0, 9.90195456812395e-05, 0.0, 0.0, 0.0, 0.0, 0.0, 0.0, 0.0, 0.0, 0.0, 0.0, 0.0, 0.0, 0.0, 0.0, 0.0, 0.0, 0.0, 0.0, 0.0, 0.0, 0.0)",0.085131041551,0.1376329,-0.5,0.00483497722336,0.000220251163476,0.186797558255,"(0.0, 0.0, 0.0, 0.0, 0.0, 0.0, 0.0, 0.0, 0.0, 0.0, 0.0, 0.0, 0.0, 0.0, 0.0, 0.0, 0.0, 0.0, 0.0, 0.0, 0.0, 0.0, 0.0, 0.0, 0.0, 0.0, 0.0, 0.0, 0.0, 0.0, 0.0, 0.0, 0.0, 0.0, 0.0, 0.0)"
1970/01/01/01:00:10.648000,7,10,646000000,map,map,0.0655946981826,2.06173087198,-0.596391471745,0.000372847166558,-0.000108848630006,-0.679158987302,-0.733991210083,"(0.7466894890755924, 0.0, 0.0, 0.0, 0.0, 0.0, 0.0, 0.05035870820386784, 0.0, 0.0, 0.0, 0.0, 0.0, 0.0, 9.901953607272094e-05, 0.0, 0.0, 0.0, 0.0, 0.0, 0.0, 0.0, 0.0, 0.0, 0.0, 0.0, 0.0, 0.0, 0.0, 0.0, 0.0, 0.0, 0.0, 0.0, 0.0, 0.0)",0.0788458379225,0.1651814455,-0.5,-0.000809349310526,-0.00121755160668,0.172352425215,"(0.0, 0.0, 0.0, 0.0, 0.0, 0.0, 0.0, 0.0, 0.0, 0.0, 0.0, 0.0, 0.0, 0.0, 0.0, 0.0, 0.0, 0.0, 0.0, 0.0, 0.0, 0.0, 0.0, 0.0, 0.0, 0.0, 0.0, 0.0, 0.0, 0.0, 0.0, 0.0, 0.0, 0.0, 0.0, 0.0)"
1970/01/01/01:00:10.667000,8,10,665000000,map,map,0.0642943871416,2.06241560414,-0.59028517685,0.000446508405254,-0.000111647248659,-0.68037252678,-0.732866347575,"(0.7592834962048578, 0.0, 0.0, 0.0, 0.0, 0.0, 0.0, 0.06048473700454674, 0.0, 0.0, 0.0, 0.0, 0.0, 0.0, 9.901954501473157e-05, 0.0, 0.0, 0.0, 0.0, 0.0, 0.0, 0.0, 0.0, 0.0, 0.0, 0.0, 0.0, 0.0, 0.0, 0.0, 0.0, 0.0, 0.0, 0.0, 0.0, 0.0)",0.0736441743299,0.187489208177,-0.5,-0.00635675087289,-0.00505968041845,0.165026070443,"(0.0, 0.0, 0.0, 0.0, 0.0, 0.0, 0.0, 0.0, 0.0, 0.0, 0.0, 0.0, 0.0, 0.0, 0.0, 0.0, 0.0, 0.0, 0.0, 0.0, 0.0, 0.0, 0.0, 0.0, 0.0, 0.0, 0.0, 0.0, 0.0, 0.0, 0.0, 0.0, 0.0, 0.0, 0.0, 0.0)"
1970/01/01/01:00:10.687000,9,10,686000000,map,map,0.0628572012423,2.06317241254,-0.580178863067,0.000431497562319,-5.40866926104e-05,-0.681479281948,-0.731837395489,"(0.7721644315091497, 0.0, 0.0, 0.0, 0.0, 0.0, 0.0, 0.07063282740925678, 0.0, 0.0, 0.0, 0.0, 0.0, 0.0, 9.901955629665171e-05, 0.0, 0.0, 0.0, 0.0, 0.0, 0.0, 0.0, 0.0, 0.0, 0.0, 0.0, 0.0, 0.0, 0.0, 0.0, 0.0, 0.0, 0.0, 0.0, 0.0, 0.0)",0.0683236098361,0.209802841319,-0.485202879968,0.00645184799345,-0.00214612199074,0.152827960551,"(0.0, 0.0, 0.0, 0.0, 0.0, 0.0, 0.0, 0.0, 0.0, 0.0, 0.0, 0.0, 0.0, 0.0, 0.0, 0.0, 0.0, 0.0, 0.0, 0.0, 0.0, 0.0, 0.0, 0.0, 0.0, 0.0, 0.0, 0.0, 0.0, 0.0, 0.0, 0.0, 0.0, 0.0, 0.0, 0.0)"
1970/01/01/01:00:10.705000,10,10,705000000,map,map,0.0614200153464,2.06392922118,-0.598477365309,0.000497405046529,-2.39031900062e-05,-0.682540128662,-0.730847945536,"(0.7850600213410907, 0.0, 0.0, 0.0, 0.0, 0.0, 0.0, 0.08079023899417699, 0.0, 0.0, 0.0, 0.0, 0.0, 0.0, 9.901956069008909e-05, 0.0, 0.0, 0.0, 0.0, 0.0, 0.0, 0.0, 0.0, 0.0, 0.0, 0.0, 0.0, 0.0, 0.0, 0.0, 0.0, 0.0, 0.0, 0.0, 0.0, 0.0)",0.0639018382818,0.227871571394,-0.44199979878,-0.00169026409343,-0.00215825258817,0.138820314332,"(0.0, 0.0, 0.0, 0.0, 0.0, 0.0, 0.0, 0.0, 0.0, 0.0, 0.0, 0.0, 0.0, 0.0, 0.0, 0.0, 0.0, 0.0, 0.0, 0.0, 0.0, 0.0, 0.0, 0.0, 0.0, 0.0, 0.0, 0.0, 0.0, 0.0, 0.0, 0.0, 0.0, 0.0, 0.0, 0.0)"
1970/01/01/01:00:10.736000,11,10,725000000,map,map,0.0598459546007,2.06475810666,-0.598408741083,0.000546890859094,-3.00810783451e-07,-0.683386034351,-0.730056999338,"(0.7982482996252578, 0.0, 0.0, 0.0, 0.0, 0.0, 0.0, 0.09097344070892256, 0.0, 0.0, 0.0, 0.0, 0.0, 0.0, 0.010099660137808488, 0.0, 0.0, 0.0, 0.0, 0.0, 0.0, 0.0, 0.0, 0.0, 0.0, 0.0, 0.0, 0.0, 0.0, 0.0, 0.0, 0.0, 0.0, 0.0, 0.0, 0.0)",0.059580105685,0.245084414254,-0.389692830056,0.00124025033861,-0.0064659550937,0.115778818737,"(0.0, 0.0, 0.0, 0.0, 0.0, 0.0, 0.0, 0.0, 0.0, 0.0, 0.0, 0.0, 0.0, 0.0, 0.0, 0.0, 0.0, 0.0, 0.0, 0.0, 0.0, 0.0, 0.0, 0.0, 0.0, 0.0, 0.0, 0.0, 0.0, 0.0, 0.0, 0.0, 0.0, 0.0, 0.0, 0.0)"
1970/01/01/01:00:10.764000,12,10,746000000,map,map,0.0586825183987,2.06537076123,-0.607651728631,0.000503922599786,3.10319960438e-05,-0.684078881125,-0.729407900992,"(0.810616282314927, 0.0, 0.0, 0.0, 0.0, 0.0, 0.0, 0.10111616796943632, 0.0, 0.0, 0.0, 0.0, 0.0, 0.0, 0.010099401921089463, 0.0, 0.0, 0.0, 0.0, 0.0, 0.0, 0.0, 0.0, 0.0, 0.0, 0.0, 0.0, 0.0, 0.0, 0.0, 0.0, 0.0, 0.0, 0.0, 0.0, 0.0)",0.0553762802856,0.261350550758,-0.362298464403,0.000618279027478,0.000380514246646,0.0898296515653,"(0.0, 0.0, 0.0, 0.0, 0.0, 0.0, 0.0, 0.0, 0.0, 0.0, 0.0, 0.0, 0.0, 0.0, 0.0, 0.0, 0.0, 0.0, 0.0, 0.0, 0.0, 0.0, 0.0, 0.0, 0.0, 0.0, 0.0, 0.0, 0.0, 0.0, 0.0, 0.0, 0.0, 0.0, 0.0, 0.0)"
1970/01/01/01:00:10.793000,13,10,765000000,map,map,0.291123019414,2.04250840957,-0.606234300435,0.00055069343914,1.42570770084e-06,-0.68455958964,-0.728956695271,"(0.2537429337431632, 0.0, 0.0, 0.0, 0.0, 0.0, 0.0, 0.07260437595762449, 0.0, 0.0, 0.0, 0.0, 0.0, 0.0, 0.01009957859067226, 0.0, 0.0, 0.0, 0.0, 0.0, 0.0, 0.0, 0.0, 0.0, 0.0, 0.0, 0.0, 0.0, 0.0, 0.0, 0.0, 0.0, 0.0, 0.0, 0.0, 0.0)",0.0518804271228,0.274522248436,-0.344395459114,-0.00578864448149,-0.00366229804797,0.0618228824258,"(0.0, 0.0, 0.0, 0.0, 0.0, 0.0, 0.0, 0.0, 0.0, 0.0, 0.0, 0.0, 0.0, 0.0, 0.0, 0.0, 0.0, 0.0, 0.0, 0.0, 0.0, 0.0, 0.0, 0.0, 0.0, 0.0, 0.0, 0.0, 0.0, 0.0, 0.0, 0.0, 0.0, 0.0, 0.0, 0.0)"
1970/01/01/01:00:10.793000,14,10,787000000,map,map,0.290228902375,2.04322519648,-0.578374735893,0.000581431292163,4.91589069549e-05,-0.684915613289,-0.728622250809,"(0.26459267282089816, 0.0, 0.0, 0.0, 0.0, 0.0, 0.0, 0.08272136851405404, 0.0, 0.0, 0.0, 0.0, 0.0, 0.0, 0.010099626966705171, 0.0, 0.0, 0.0, 0.0, 0.0, 0.0, 0.0, 0.0, 0.0, 0.0, 0.0, 0.0, 0.0, 0.0, 0.0, 0.0, 0.0, 0.0, 0.0, 0.0, 0.0)",0.0581019647697,0.28769741235,-0.31384063478,0.00377651810427,-0.00235141269051,0.048140951029,"(0.0, 0.0, 0.0, 0.0, 0.0, 0.0, 0.0, 0.0, 0.0, 0.0, 0.0, 0.0, 0.0, 0.0, 0.0, 0.0, 0.0, 0.0, 0.0, 0.0, 0.0, 0.0, 0.0, 0.0, 0.0, 0.0, 0.0, 0.0, 0.0, 0.0, 0.0, 0.0, 0.0, 0.0, 0.0, 0.0)"
1970/01/01/01:00:10.830000,15,10,805000000,map,map,0.289310069068,2.04389359331,-0.584170484396,0.000698613381037,-8.41021634675e-05,-0.685209596777,-0.728345631822,"(0.27540954695456643, 0.0, 0.0, 0.0, 0.0, 0.0, 0.0, 0.09284065921437008, 0.0, 0.0, 0.0, 0.0, 0.0, 0.0, 0.010099605105949101, 0.0, 0.0, 0.0, 0.0, 0.0, 0.0, 0.0, 0.0, 0.0, 0.0, 0.0, 0.0, 0.0, 0.0, 0.0, 0.0, 0.0, 0.0, 0.0, 0.0, 0.0)",0.0630645519169,0.298366158177,-0.236439084132,-0.0210974882704,0.00133337331842,0.0436646636838,"(0.0, 0.0, 0.0, 0.0, 0.0, 0.0, 0.0, 0.0, 0.0, 0.0, 0.0, 0.0, 0.0, 0.0, 0.0, 0.0, 0.0, 0.0, 0.0, 0.0, 0.0, 0.0, 0.0, 0.0, 0.0, 0.0, 0.0, 0.0, 0.0, 0.0, 0.0, 0.0, 0.0, 0.0, 0.0, 0.0)"
1970/01/01/01:00:10.830000,16,10,825000000,map,map,0.288294679781,2.04463237724,-0.597947934788,0.000764912616912,-9.28241533059e-05,-0.685365923389,-0.728198493223,"(0.286323328472901, 0.0, 0.0, 0.0, 0.0, 0.0, 0.0, 0.1029818279263667, 0.0, 0.0, 0.0, 0.0, 0.0, 0.0, 0.010099777793353406, 0.0, 0.0, 0.0, 0.0, 0.0, 0.0, 0.0, 0.0, 0.0, 0.0, 0.0, 0.0, 0.0, 0.0, 0.0, 0.0, 0.0, 0.0, 0.0, 0.0, 0.0)",0.067711158321,0.308529542359,-0.17016537186,-0.00117700585024,-0.00596799618445,0.0191988165557,"(0.0, 0.0, 0.0, 0.0, 0.0, 0.0, 0.0, 0.0, 0.0, 0.0, 0.0, 0.0, 0.0, 0.0, 0.0, 0.0, 0.0, 0.0, 0.0, 0.0, 0.0, 0.0, 0.0, 0.0, 0.0, 0.0, 0.0, 0.0, 0.0, 0.0, 0.0, 0.0, 0.0, 0.0, 0.0, 0.0)"
1970/01/01/01:00:10.871000,17,10,845000000,map,map,0.287375996863,2.04530080111,-0.586021790291,0.000771116023859,-7.39007945509e-05,-0.685460512771,-0.728109467225,"(0.2971600359467374, 0.0, 0.0, 0.0, 0.0, 0.0, 0.0, 0.11311805757135278, 0.0, 0.0, 0.0, 0.0, 0.0, 0.0, 0.010099679369815234, 0.0, 0.0, 0.0, 0.0, 0.0, 0.0, 0.0, 0.0, 0.0, 0.0, 0.0, 0.0, 0.0, 0.0, 0.0, 0.0, 0.0, 0.0, 0.0, 0.0, 0.0)",0.0718020368718,0.317676588123,-0.132227516558,0.00253892717583,-0.00294069620209,0.012090568131,"(0.0, 0.0, 0.0, 0.0, 0.0, 0.0, 0.0, 0.0, 0.0, 0.0, 0.0, 0.0, 0.0, 0.0, 0.0, 0.0, 0.0, 0.0, 0.0, 0.0, 0.0, 0.0, 0.0, 0.0, 0.0, 0.0, 0.0, 0.0, 0.0, 0.0, 0.0, 0.0, 0.0, 0.0, 0.0, 0.0)"
1970/01/01/01:00:10.871000,18,10,865000000,map,map,0.286360610711,2.0460395855,-0.583350447231,0.000725734425305,-8.33712202226e-05,-0.685599805471,-0.727978351014,"(0.3080959065179354, 0.0, 0.0, 0.0, 0.0, 0.0, 0.0, 0.12327811627458853, 0.0, 0.0, 0.0, 0.0, 0.0, 0.0, 0.01009986747999175, 0.0, 0.0, 0.0, 0.0, 0.0, 0.0, 0.0, 0.0, 0.0, 0.0, 0.0, 0.0, 0.0, 0.0, 0.0, 0.0, 0.0, 0.0, 0.0, 0.0, 0.0)",0.0753929113241,0.325908929311,-0.0763281457589,0.00735870246022,0.00457968744751,0.0119353591942,"(0.0, 0.0, 0.0, 0.0, 0.0, 0.0, 0.0, 0.0, 0.0, 0.0, 0.0, 0.0, 0.0, 0.0, 0.0, 0.0, 0.0, 0.0, 0.0, 0.0, 0.0, 0.0, 0.0, 0.0, 0.0, 0.0, 0.0, 0.0, 0.0, 0.0, 0.0, 0.0, 0.0, 0.0, 0.0, 0.0)"
1970/01/01/01:00:10.913000,19,10,885000000,map,map,0.285393576082,2.0467431896,-0.572739602147,0.000760788481931,-4.15232891798e-05,-0.685688743224,-0.727894555176,"(0.31899811538535455, 0.0, 0.0, 0.0, 0.0, 0.0, 0.0, 0.13343989524958452, 0.0, 0.0, 0.0, 0.0, 0.0, 0.0, 9.950500600512204e-05, 0.0, 0.0, 0.0, 0.0, 0.0, 0.0, 0.0, 0.0, 0.0, 0.0, 0.0, 0.0, 0.0, 0.0, 0.0, 0.0, 0.0, 0.0, 0.0, 0.0, 0.0)",0.0785266412556,0.33331803638,-0.022748826802,0.000654018043723,-0.00540773325456,0.017214478287,"(0.0, 0.0, 0.0, 0.0, 0.0, 0.0, 0.0, 0.0, 0.0, 0.0, 0.0, 0.0, 0.0, 0.0, 0.0, 0.0, 0.0, 0.0, 0.0, 0.0, 0.0, 0.0, 0.0, 0.0, 0.0, 0.0, 0.0, 0.0, 0.0, 0.0, 0.0, 0.0, 0.0, 0.0, 0.0, 0.0)"
1970/01/01/01:00:10.913000,20,10,905000000,map,map,0.335256404428,2.0040157686,-0.56072557768,0.000777100835189,-9.57516717571e-05,-0.685900550894,-0.727694885798,"(0.2028577428238214, 0.0, 0.0, 0.0, 0.0, 0.0, 0.0, 0.06393016740382068, 0.0, 0.0, 0.0, 0.0, 0.0, 0.0, 9.901964106654349e-05, 0.0, 0.0, 0.0, 0.0, 0.0, 0.0, 0.0, 0.0, 0.0, 0.0, 0.0, 0.0, 0.0, 0.0, 0.0, 0.0, 0.0, 0.0, 0.0, 0.0, 0.0)",0.0812480024797,0.339986232742,0.0403436416956,-0.00352536546064,0.00343009998588,0.0268482047566,"(0.0, 0.0, 0.0, 0.0, 0.0, 0.0, 0.0, 0.0, 0.0, 0.0, 0.0, 0.0, 0.0, 0.0, 0.0, 0.0, 0.0, 0.0, 0.0, 0.0, 0.0, 0.0, 0.0, 0.0, 0.0, 0.0, 0.0, 0.0, 0.0, 0.0, 0.0, 0.0, 0.0, 0.0, 0.0, 0.0)"
1970/01/01/01:00:10.955000,21,10,925000000,map,map,0.334323160002,2.0047244731,-0.579724338802,0.000786401294639,-7.68870880995e-05,-0.686090797817,-0.727515597056,"(0.21345734408841122, 0.0, 0.0, 0.0, 0.0, 0.0, 0.0, 0.07401991331796237, 0.0, 0.0, 0.0, 0.0, 0.0, 0.0, 9.90196081170097e-05, 0.0, 0.0, 0.0, 0.0, 0.0, 0.0, 0.0, 0.0, 0.0, 0.0, 0.0, 0.0, 0.0, 0.0, 0.0, 0.0, 0.0, 0.0, 0.0, 0.0, 0.0)",0.0856289194022,0.345987609468,0.111599284832,-0.00113110205048,-0.00165177527079,0.0292321788327,"(0.0, 0.0, 0.0, 0.0, 0.0, 0.0, 0.0, 0.0, 0.0, 0.0, 0.0, 0.0, 0.0, 0.0, 0.0, 0.0, 0.0, 0.0, 0.0, 0.0, 0.0, 0.0, 0.0, 0.0, 0.0, 0.0, 0.0, 0.0, 0.0, 0.0, 0.0, 0.0, 0.0, 0.0, 0.0, 0.0)"
1970/01/01/01:00:10.955000,22,10,945000000,map,map,0.33347885948,2.00536590174,-0.587242621148,0.000820121736898,-9.73551453159e-05,-0.686375630171,-0.727246780505,"(0.22400970208854692, 0.0, 0.0, 0.0, 0.0, 0.0, 0.0, 0.08410994300451627, 0.0, 0.0, 0.0, 0.0, 0.0, 0.0, 9.901959472731576e-05, 0.0, 0.0, 0.0, 0.0, 0.0, 0.0, 0.0, 0.0, 0.0, 0.0, 0.0, 0.0, 0.0, 0.0, 0.0, 0.0, 0.0, 0.0, 0.0, 0.0, 0.0)",0.0894694164535,0.351388848521,0.135594409414,-0.00573927502372,-0.00038030480907,0.0450887442213,"(0.0, 0.0, 0.0, 0.0, 0.0, 0.0, 0.0, 0.0, 0.0, 0.0, 0.0, 0.0, 0.0, 0.0, 0.0, 0.0, 0.0, 0.0, 0.0, 0.0, 0.0, 0.0, 0.0, 0.0, 0.0, 0.0, 0.0, 0.0, 0.0, 0.0, 0.0, 0.0, 0.0, 0.0, 0.0, 0.0)"
1970/01/01/01:00:10.999000,23,10,966000000,map,map,0.332590122046,2.00604109066,-0.568182347209,0.000822436726639,-7.99048271483e-05,-0.686799256048,-0.72684667257,"(0.23460133364639543, 0.0, 0.0, 0.0, 0.0, 0.0, 0.0, 0.09421385544123381, 0.0, 0.0, 0.0, 0.0, 0.0, 0.0, 9.901960714275916e-05, 0.0, 0.0, 0.0, 0.0, 0.0, 0.0, 0.0, 0.0, 0.0, 0.0, 0.0, 0.0, 0.0, 0.0, 0.0, 0.0, 0.0, 0.0, 0.0, 0.0, 0.0)",0.0929912972527,0.356493019426,0.13868734499,0.00167226626886,-0.00162452152287,0.0608650204222,"(0.0, 0.0, 0.0, 0.0, 0.0, 0.0, 0.0, 0.0, 0.0, 0.0, 0.0, 0.0, 0.0, 0.0, 0.0, 0.0, 0.0, 0.0, 0.0, 0.0, 0.0, 0.0, 0.0, 0.0, 0.0, 0.0, 0.0, 0.0, 0.0, 0.0, 0.0, 0.0, 0.0, 0.0, 0.0, 0.0)"
1970/01/01/01:00:10.999000,24,10,985000000,map,map,0.33170138485,2.00671627967,-0.568346225201,0.000877305626068,-5.03399242117e-05,-0.687315597089,-0.726358485623,"(0.2452035078545224, 0.0, 0.0, 0.0, 0.0, 0.0, 0.0, 0.10432722566831856, 0.0, 0.0, 0.0, 0.0, 0.0, 0.0, 9.901961114048199e-05, 0.0, 0.0, 0.0, 0.0, 0.0, 0.0, 0.0, 0.0, 0.0, 0.0, 0.0, 0.0, 0.0, 0.0, 0.0, 0.0, 0.0, 0.0, 0.0, 0.0, 0.0)",0.0957380135402,0.360626182581,0.166568310469,-0.000217647628694,-0.0112758997084,0.0770470755606,"(0.0, 0.0, 0.0, 0.0, 0.0, 0.0, 0.0, 0.0, 0.0, 0.0, 0.0, 0.0, 0.0, 0.0, 0.0, 0.0, 0.0, 0.0, 0.0, 0.0, 0.0, 0.0, 0.0, 0.0, 0.0, 0.0, 0.0, 0.0, 0.0, 0.0, 0.0, 0.0, 0.0, 0.0, 0.0, 0.0)"
1970/01/01/01:00:11.042000,25,11,5000000,map,map,0.330812647466,2.0073914686,-0.553815623027,0.000877965734619,8.50300321006e-06,-0.687848219984,-0.725854016823,"(0.2558163047129279, 0.0, 0.0, 0.0, 0.0, 0.0, 0.0, 0.11445013368577052, 0.0, 0.0, 0.0, 0.0, 0.0, 0.0, 9.901961505275908e-05, 0.0, 0.0, 0.0, 0.0, 0.0, 0.0, 0.0, 0.0, 0.0, 0.0, 0.0, 0.0, 0.0, 0.0, 0.0, 0.0, 0.0, 0.0, 0.0, 0.0, 0.0)",0.0982483993403,0.364563564323,0.185675606179,0.00578957187137,-0.0038157536989,0.0737297695639,"(0.0, 0.0, 0.0, 0.0, 0.0, 0.0, 0.0, 0.0, 0.0, 0.0, 0.0, 0.0, 0.0, 0.0, 0.0, 0.0, 0.0, 0.0, 0.0, 0.0, 0.0, 0.0, 0.0, 0.0, 0.0, 0.0, 0.0, 0.0, 0.0, 0.0, 0.0, 0.0, 0.0, 0.0, 0.0, 0.0)"
1970/01/01/01:00:11.042000,26,11,25000000,map,map,0.329835036537,2.0081341765,-0.553036398406,0.000942298124423,2.16679664691e-05,-0.688495153036,-0.725240464075,"(0.26650274501824545, 0.0, 0.0, 0.0, 0.0, 0.0, 0.0, 0.12459644325284178, 0.0, 0.0, 0.0, 0.0, 0.0, 0.0, 9.901964086954317e-05, 0.0, 0.0, 0.0, 0.0, 0.0, 0.0, 0.0, 0.0, 0.0, 0.0, 0.0, 0.0, 0.0, 0.0, 0.0, 0.0, 0.0, 0.0, 0.0, 0.0, 0.0)",0.100395606654,0.36810720789,0.219626836019,-0.0020855580517,-0.00199925200272,0.0897948083434,"(0.0, 0.0, 0.0, 0.0, 0.0, 0.0, 0.0, 0.0, 0.0, 0.0, 0.0, 0.0, 0.0, 0.0, 0.0, 0.0, 0.0, 0.0, 0.0, 0.0, 0.0, 0.0, 0.0, 0.0, 0.0, 0.0, 0.0, 0.0, 0.0, 0.0, 0.0, 0.0, 0.0, 0.0, 0.0, 0.0)"
1970/01/01/01:00:11.089000,27,11,45000000,map,map,0.395136303219,2.0081233502,-0.548742672923,0.000894684121725,1.25975036884e-05,-0.689123657377,-0.724643232695,"(0.1801757240934356, 0.0, 0.0, 0.0, 0.0, 0.0, 0.0, 0.04769482249370324, 0.0, 0.0, 0.0, 0.0, 0.0, 0.0, 9.900853271750684e-05, 0.0, 0.0, 0.0, 0.0, 0.0, 0.0, 0.0, 0.0, 0.0, 0.0, 0.0, 0.0, 0.0, 0.0, 0.0, 0.0, 0.0, 0.0, 0.0, 0.0, 0.0)",0.10221039008,0.371296487101,0.241897340721,0.00754559608517,0.00300795938027,0.0863711938015,"(0.0, 0.0, 0.0, 0.0, 0.0, 0.0, 0.0, 0.0, 0.0, 0.0, 0.0, 0.0, 0.0, 0.0, 0.0, 0.0, 0.0, 0.0, 0.0, 0.0, 0.0, 0.0, 0.0, 0.0, 0.0, 0.0, 0.0, 0.0, 0.0, 0.0, 0.0, 0.0, 0.0, 0.0, 0.0, 0.0)"
1970/01/01/01:00:11.089000,28,11,65000000,map,map,0.394319271301,2.0087890665,-0.552313683522,0.000872717340686,-1.53303399193e-05,-0.689765221974,-0.724032603886,"(0.1906029778132068, 0.0, 0.0, 0.0, 0.0, 0.0, 0.0, 0.05775587280144338, 0.0, 0.0, 0.0, 0.0, 0.0, 0.0, 9.901962550756792e-05, 0.0, 0.0, 0.0, 0.0, 0.0, 0.0, 0.0, 0.0, 0.0, 0.0, 0.0, 0.0, 0.0, 0.0, 0.0, 0.0, 0.0, 0.0, 0.0, 0.0, 0.0)",0.106375429345,0.374166838391,0.259549059087,-0.000202081162684,0.000745501276771,0.0865943662153,"(0.0, 0.0, 0.0, 0.0, 0.0, 0.0, 0.0, 0.0, 0.0, 0.0, 0.0, 0.0, 0.0, 0.0, 0.0, 0.0, 0.0, 0.0, 0.0, 0.0, 0.0, 0.0, 0.0, 0.0, 0.0, 0.0, 0.0, 0.0, 0.0, 0.0, 0.0, 0.0, 0.0, 0.0, 0.0, 0.0)"
1970/01/01/01:00:11.089000,29,11,86000000,map,map,0.393544018977,2.00942653873,-0.549514418099,0.000818752252435,-0.000125879794884,-0.690329149441,-0.723495144639,"(0.20101876998986315, 0.0, 0.0, 0.0, 0.0, 0.0, 0.0, 0.06782297578483469, 0.0, 0.0, 0.0, 0.0, 0.0, 0.0, 9.901961937756963e-05, 0.0, 0.0, 0.0, 0.0, 0.0, 0.0, 0.0, 0.0, 0.0, 0.0, 0.0, 0.0, 0.0, 0.0, 0.0, 0.0, 0.0, 0.0, 0.0, 0.0, 0.0)",0.110191219383,0.37687932036,0.25966082704,-0.00106903064128,0.00946795237217,0.0647223628675,"(0.0, 0.0, 0.0, 0.0, 0.0, 0.0, 0.0, 0.0, 0.0, 0.0, 0.0, 0.0, 0.0, 0.0, 0.0, 0.0, 0.0, 0.0, 0.0, 0.0, 0.0, 0.0, 0.0, 0.0, 0.0, 0.0, 0.0, 0.0, 0.0, 0.0, 0.0, 0.0, 0.0, 0.0, 0.0, 0.0)"
1970/01/01/01:00:11.132000,30,11,105000000,map,map,0.392687153211,2.01013106991,-0.553161250208,0.000750360388488,-5.69273449251e-05,-0.690779381833,-0.723065311322,"(0.21148964014279903, 0.0, 0.0, 0.0, 0.0, 0.0, 0.0, 0.07790752848797827, 0.0, 0.0, 0.0, 0.0, 0.0, 0.0, 9.901964675973596e-05, 0.0, 0.0, 0.0, 0.0, 0.0, 0.0, 0.0, 0.0, 0.0, 0.0, 0.0, 0.0, 0.0, 0.0, 0.0, 0.0, 0.0, 0.0, 0.0, 0.0, 0.0)",0.113166753611,0.379075784926,0.255542878554,0.0113091649866,0.00279051503329,0.0606345342907,"(0.0, 0.0, 0.0, 0.0, 0.0, 0.0, 0.0, 0.0, 0.0, 0.0, 0.0, 0.0, 0.0, 0.0, 0.0, 0.0, 0.0, 0.0, 0.0, 0.0, 0.0, 0.0, 0.0, 0.0, 0.0, 0.0, 0.0, 0.0, 0.0, 0.0, 0.0, 0.0, 0.0, 0.0, 0.0, 0.0)"
1970/01/01/01:00:11.132000,31,11,126000000,map,map,0.391871090516,2.0108020522,-0.543254186863,0.000715794642614,-0.000113640848101,-0.691227182879,-0.722637150708,"(0.22194920794143158, 0.0, 0.0, 0.0, 0.0, 0.0, 0.0, 0.087998272775953, 0.0, 0.0, 0.0, 0.0, 0.0, 0.0, 9.901963861920771e-05, 0.0, 0.0, 0.0, 0.0, 0.0, 0.0, 0.0, 0.0, 0.0, 0.0, 0.0, 0.0, 0.0, 0.0, 0.0, 0.0, 0.0, 0.0, 0.0, 0.0, 0.0)",0.116019149919,0.381272827509,0.236840552299,-0.00337972954359,0.00909712389742,0.0604304684515,"(0.0, 0.0, 0.0, 0.0, 0.0, 0.0, 0.0, 0.0, 0.0, 0.0, 0.0, 0.0, 0.0, 0.0, 0.0, 0.0, 0.0, 0.0, 0.0, 0.0, 0.0, 0.0, 0.0, 0.0, 0.0, 0.0, 0.0, 0.0, 0.0, 0.0, 0.0, 0.0, 0.0, 0.0, 0.0, 0.0)"
1970/01/01/01:00:11.146000,32,11,145000000,map,map,0.39105502793,2.01147303469,-0.543189694026,0.000693903614773,-7.48711187244e-05,-0.691686653333,-0.722197489272,"(0.23241970552926583, 0.0, 0.0, 0.0, 0.0, 0.0, 0.0, 0.09809906672639437, 0.0, 0.0, 0.0, 0.0, 0.0, 0.0, 0.010100359634947468, 0.0, 0.0, 0.0, 0.0, 0.0, 0.0, 0.0, 0.0, 0.0, 0.0, 0.0, 0.0, 0.0, 0.0, 0.0, 0.0, 0.0, 0.0, 0.0, 0.0, 0.0)",0.118207594335,0.383051908895,0.230662224879,0.00669360543389,-0.00338874946334,0.0630595718383,"(0.0, 0.0, 0.0, 0.0, 0.0, 0.0, 0.0, 0.0, 0.0, 0.0, 0.0, 0.0, 0.0, 0.0, 0.0, 0.0, 0.0, 0.0, 0.0, 0.0, 0.0, 0.0, 0.0, 0.0, 0.0, 0.0, 0.0, 0.0, 0.0, 0.0, 0.0, 0.0, 0.0, 0.0, 0.0, 0.0)"
1970/01/01/01:00:11.166000,33,11,165000000,map,map,0.39027976826,2.01211046765,-0.52438775953,0.000683257563677,-6.44949474e-05,-0.692033602239,-0.721865038882,"(0.24287687510495642, 0.0, 0.0, 0.0, 0.0, 0.0, 0.0, 0.10820420262917342, 0.0, 0.0, 0.0, 0.0, 0.0, 0.0, 0.010100266870766175, 0.0, 0.0, 0.0, 0.0, 0.0, 0.0, 0.0, 0.0, 0.0, 0.0, 0.0, 0.0, 0.0, 0.0, 0.0, 0.0, 0.0, 0.0, 0.0, 0.0, 0.0)",0.120171558536,0.384746718006,0.218001925055,0.0017565440588,-0.000261744358529,0.0470941345676,"(0.0, 0.0, 0.0, 0.0, 0.0, 0.0, 0.0, 0.0, 0.0, 0.0, 0.0, 0.0, 0.0, 0.0, 0.0, 0.0, 0.0, 0.0, 0.0, 0.0, 0.0, 0.0, 0.0, 0.0, 0.0, 0.0, 0.0, 0.0, 0.0, 0.0, 0.0, 0.0, 0.0, 0.0, 0.0, 0.0)"
1970/01/01/01:00:11.204000,34,11,185000000,map,map,0.589254009476,1.91017808775,-0.541855520086,0.000683068499665,-2.95566711301e-05,-0.692321162284,-0.721589279955,"(0.16895205638383015, 0.0, 0.0, 0.0, 0.0, 0.0, 0.0, 0.041489568262010994, 0.0, 0.0, 0.0, 0.0, 0.0, 0.0, 0.009978649616254666, 0.0, 0.0, 0.0, 0.0, 0.0, 0.0, 0.0, 0.0, 0.0, 0.0, 0.0, 0.0, 0.0, 0.0, 0.0, 0.0, 0.0, 0.0, 0.0, 0.0, 0.0)",0.121813549856,0.386272046205,0.23152150186,0.00396069110374,-0.00751762583295,0.0316240491889,"(0.0, 0.0, 0.0, 0.0, 0.0, 0.0, 0.0, 0.0, 0.0, 0.0, 0.0, 0.0, 0.0, 0.0, 0.0, 0.0, 0.0, 0.0, 0.0, 0.0, 0.0, 0.0, 0.0, 0.0, 0.0, 0.0, 0.0, 0.0, 0.0, 0.0, 0.0, 0.0, 0.0, 0.0, 0.0, 0.0)"
1970/01/01/01:00:11.248000,35,11,205000000,map,map,0.588595482414,1.91044379508,-0.544006206383,0.000672990998854,-1.95670036848e-07,-0.692545266297,-0.721374195367,"(0.1792881813245427, 0.0, 0.0, 0.0, 0.0, 0.0, 0.0, 0.05130273206648963, 0.0, 0.0, 0.0, 0.0, 0.0, 0.0, 0.010100470951912417, 0.0, 0.0, 0.0, 0.0, 0.0, 0.0, 0.0, 0.0, 0.0, 0.0, 0.0, 0.0, 0.0, 0.0, 0.0, 0.0, 0.0, 0.0, 0.0, 0.0, 0.0)",0.131154174445,0.387644841585,0.205957498207,0.00426684755683,-0.00379888570432,0.0274135895844,"(0.0, 0.0, 0.0, 0.0, 0.0, 0.0, 0.0, 0.0, 0.0, 0.0, 0.0, 0.0, 0.0, 0.0, 0.0, 0.0, 0.0, 0.0, 0.0, 0.0, 0.0, 0.0, 0.0, 0.0, 0.0, 0.0, 0.0, 0.0, 0.0, 0.0, 0.0, 0.0, 0.0, 0.0, 0.0, 0.0)"
1970/01/01/01:00:11.248000,36,11,225000000,map,map,0.587922890577,1.91110892805,-0.547656996689,0.000615496914642,-2.85389111725e-05,-0.692778236953,-0.721150412724,"(0.18967578760004075, 0.0, 0.0, 0.0, 0.0, 0.0, 0.0, 0.061371412060174234, 0.0, 0.0, 0.0, 0.0, 0.0, 0.0, 0.010100834424816105, 0.0, 0.0, 0.0, 0.0, 0.0, 0.0, 0.0, 0.0, 0.0, 0.0, 0.0, 0.0, 0.0, 0.0, 0.0, 0.0, 0.0, 0.0, 0.0, 0.0, 0.0)",0.139436944653,0.388880357426,0.174204434728,0.00142882250302,0.00559842083752,0.0249158958377,"(0.0, 0.0, 0.0, 0.0, 0.0, 0.0, 0.0, 0.0, 0.0, 0.0, 0.0, 0.0, 0.0, 0.0, 0.0, 0.0, 0.0, 0.0, 0.0, 0.0, 0.0, 0.0, 0.0, 0.0, 0.0, 0.0, 0.0, 0.0, 0.0, 0.0, 0.0, 0.0, 0.0, 0.0, 0.0, 0.0)"
1970/01/01/01:00:11.248000,37,11,245000000,map,map,0.587373272627,1.91165806071,-0.527953787787,0.00059600126013,-0.000133926756022,-0.693041762758,-0.720897255044,"(0.20000296840415854, 0.0, 0.0, 0.0, 0.0, 0.0, 0.0, 0.071436987435823, 0.0, 0.0, 0.0, 0.0, 0.0, 0.0, 0.010100274668108512, 0.0, 0.0, 0.0, 0.0, 0.0, 0.0, 0.0, 0.0, 0.0, 0.0, 0.0, 0.0, 0.0, 0.0, 0.0, 0.0, 0.0, 0.0, 0.0, 0.0, 0.0)",0.146759610827,0.389992321684,0.135852083496,-0.00714478941186,0.00994800857525,0.0372114776505,"(0.0, 0.0, 0.0, 0.0, 0.0, 0.0, 0.0, 0.0, 0.0, 0.0, 0.0, 0.0, 0.0, 0.0, 0.0, 0.0, 0.0, 0.0, 0.0, 0.0, 0.0, 0.0, 0.0, 0.0, 0.0, 0.0, 0.0, 0.0, 0.0, 0.0, 0.0, 0.0, 0.0, 0.0, 0.0, 0.0)"
1970/01/01/01:00:11.291000,38,11,266000000,map,map,0.586762540838,1.9122678814,-0.530960623131,0.000535780637018,-0.000156337457799,-0.693284332359,-0.72066395775,"(0.21037719068588479, 0.0, 0.0, 0.0, 0.0, 0.0, 0.0, 0.08151981462432847, 0.0, 0.0, 0.0, 0.0, 0.0, 0.0, 0.010100600201720123, 0.0, 0.0, 0.0, 0.0, 0.0, 0.0, 0.0, 0.0, 0.0, 0.0, 0.0, 0.0, 0.0, 0.0, 0.0, 0.0, 0.0, 0.0, 0.0, 0.0, 0.0)",0.153539319374,0.391043127907,0.132019568823,0.00773606892367,0.00535859199484,0.0258796363796,"(0.0, 0.0, 0.0, 0.0, 0.0, 0.0, 0.0, 0.0, 0.0, 0.0, 0.0, 0.0, 0.0, 0.0, 0.0, 0.0, 0.0, 0.0, 0.0, 0.0, 0.0, 0.0, 0.0, 0.0, 0.0, 0.0, 0.0, 0.0, 0.0, 0.0, 0.0, 0.0, 0.0, 0.0, 0.0, 0.0)"
1970/01/01/01:00:11.291000,39,11,285000000,map,map,0.586151809195,1.91287770253,-0.551122085888,0.000584257271283,-0.000168538702909,-0.693483816027,-0.72047197622,"(0.22076274144643324, 0.0, 0.0, 0.0, 0.0, 0.0, 0.0, 0.09161320987338546, 0.0, 0.0, 0.0, 0.0, 0.0, 0.0, 0.010100643690519611, 0.0, 0.0, 0.0, 0.0, 0.0, 0.0, 0.0, 0.0, 0.0, 0.0, 0.0, 0.0, 0.0, 0.0, 0.0, 0.0, 0.0, 0.0, 0.0, 0.0, 0.0)",0.158888947104,0.391894030756,0.120002328932,-0.00416032895632,-0.00714718066017,0.0240538779205,"(0.0, 0.0, 0.0, 0.0, 0.0, 0.0, 0.0, 0.0, 0.0, 0.0, 0.0, 0.0, 0.0, 0.0, 0.0, 0.0, 0.0, 0.0, 0.0, 0.0, 0.0, 0.0, 0.0, 0.0, 0.0, 0.0, 0.0, 0.0, 0.0, 0.0, 0.0, 0.0, 0.0, 0.0, 0.0, 0.0)"
1970/01/01/01:00:11.316000,40,11,314000000,map,map,0.58554107732,1.91348752365,-0.523684725919,0.000501571009377,-0.000208919242442,-0.693805702046,-0.720162059907,"(0.2311597006858039, 0.0, 0.0, 0.0, 0.0, 0.0, 0.0, 0.10171725318299375, 0.0, 0.0, 0.0, 0.0, 0.0, 0.0, 4.987596434198971e-05, 0.0, 0.0, 0.0, 0.0, 0.0, 0.0, 0.0, 0.0, 0.0, 0.0, 0.0, 0.0, 0.0, 0.0, 0.0, 0.0, 0.0, 0.0, 0.0, 0.0, 0.0)",0.166073849589,0.393069396296,0.0503597919775,0.00236353964064,0.0146610573407,0.0424473410036,"(0.0, 0.0, 0.0, 0.0, 0.0, 0.0, 0.0, 0.0, 0.0, 0.0, 0.0, 0.0, 0.0, 0.0, 0.0, 0.0, 0.0, 0.0, 0.0, 0.0, 0.0, 0.0, 0.0, 0.0, 0.0, 0.0, 0.0, 0.0, 0.0, 0.0, 0.0, 0.0, 0.0, 0.0, 0.0, 0.0)"
1970/01/01/01:00:11.331000,41,11,329000000,map,map,0.616947433231,1.91778924481,-0.527764083144,0.000473471563476,-0.000200516512923,-0.694091391824,-0.719886738253,"(0.16771592764921067, 0.0, 0.0, 0.0, 0.0, 0.0, 0.0, 0.02950969816340793, 0.0, 0.0, 0.0, 0.0, 0.0, 0.0, 0.009938016064144801, 0.0, 0.0, 0.0, 0.0, 0.0, 0.0, 0.0, 0.0, 0.0, 0.0, 0.0, 0.0, 0.0, 0.0, 0.0, 0.0, 0.0, 0.0, 0.0, 0.0, 0.0)",0.169094755434,0.393589191574,0.054730786185,0.00199882371026,0.00246768903873,0.0327069850643,"(0.0, 0.0, 0.0, 0.0, 0.0, 0.0, 0.0, 0.0, 0.0, 0.0, 0.0, 0.0, 0.0, 0.0, 0.0, 0.0, 0.0, 0.0, 0.0, 0.0, 0.0, 0.0, 0.0, 0.0, 0.0, 0.0, 0.0, 0.0, 0.0, 0.0, 0.0, 0.0, 0.0, 0.0, 0.0, 0.0)"
1970/01/01/01:00:11.355000,42,11,346000000,map,map,0.616683314248,1.91609824277,-0.554338122097,0.000417308397714,-0.000216261015599,-0.694431835627,-0.719558348448,"(0.17794782242257381, 0.0, 0.0, 0.0, 0.0, 0.0, 0.0, 0.03940636818570023, 0.0, 0.0, 0.0, 0.0, 0.0, 0.0, 9.950104868818145e-05, 0.0, 0.0, 0.0, 0.0, 0.0, 0.0, 0.0, 0.0, 0.0, 0.0, 0.0, 0.0, 0.0, 0.0, 0.0, 0.0, 0.0, 0.0, 0.0, 0.0, 0.0)",0.173244790166,0.39413411029,0.0520922756232,0.00439901506774,0.00343465015141,0.0469833271214,"(0.0, 0.0, 0.0, 0.0, 0.0, 0.0, 0.0, 0.0, 0.0, 0.0, 0.0, 0.0, 0.0, 0.0, 0.0, 0.0, 0.0, 0.0, 0.0, 0.0, 0.0, 0.0, 0.0, 0.0, 0.0, 0.0, 0.0, 0.0, 0.0, 0.0, 0.0, 0.0, 0.0, 0.0, 0.0, 0.0)"
1970/01/01/01:00:11.383000,43,11,365000000,map,map,0.616039185476,1.91678912139,-0.52943473578,0.000408169718983,-0.000261982706088,-0.694757305446,-0.719244089692,"(0.1882803233666791, 0.0, 0.0, 0.0, 0.0, 0.0, 0.0, 0.04945828913343574, 0.0, 0.0, 0.0, 0.0, 0.0, 0.0, 9.901976702398963e-05, 0.0, 0.0, 0.0, 0.0, 0.0, 0.0, 0.0, 0.0, 0.0, 0.0, 0.0, 0.0, 0.0, 0.0, 0.0, 0.0, 0.0, 0.0, 0.0, 0.0, 0.0)",0.177369539245,0.394691369813,0.00609593705764,-0.00237929965193,0.00513244440424,0.0370040784322,"(0.0, 0.0, 0.0, 0.0, 0.0, 0.0, 0.0, 0.0, 0.0, 0.0, 0.0, 0.0, 0.0, 0.0, 0.0, 0.0, 0.0, 0.0, 0.0, 0.0, 0.0, 0.0, 0.0, 0.0, 0.0, 0.0, 0.0, 0.0, 0.0, 0.0, 0.0, 0.0, 0.0, 0.0, 0.0, 0.0)"
1970/01/01/01:00:11.416000,44,11,386000000,map,map,0.615484514308,1.9173684002,-0.529608629178,0.000324941548261,-0.000342419677072,-0.695111691953,-0.718901588596,"(0.19857879036715795, 0.0, 0.0, 0.0, 0.0, 0.0, 0.0, 0.0595137664419629, 0.0, 0.0, 0.0, 0.0, 0.0, 0.0, 9.901967253969959e-05, 0.0, 0.0, 0.0, 0.0, 0.0, 0.0, 0.0, 0.0, 0.0, 0.0, 0.0, 0.0, 0.0, 0.0, 0.0, 0.0, 0.0, 0.0, 0.0, 0.0, 0.0)",0.181330071034,0.395248775982,0.00676596763136,0.00138988109813,0.00654169170254,0.0379728900094,"(0.0, 0.0, 0.0, 0.0, 0.0, 0.0, 0.0, 0.0, 0.0, 0.0, 0.0, 0.0, 0.0, 0.0, 0.0, 0.0, 0.0, 0.0, 0.0, 0.0, 0.0, 0.0, 0.0, 0.0, 0.0, 0.0, 0.0, 0.0, 0.0, 0.0, 0.0, 0.0, 0.0, 0.0, 0.0, 0.0)"
1970/01/01/01:00:11.416000,45,11,405000000,map,map,0.6148714538,1.91800868642,-0.522755937854,0.000285405678237,-0.000374632820281,-0.695410017883,-0.718613040735,"(0.20892095656867674, 0.0, 0.0, 0.0, 0.0, 0.0, 0.0, 0.06958663590777409, 0.0, 0.0, 0.0, 0.0, 0.0, 0.0, 9.90197111053594e-05, 0.0, 0.0, 0.0, 0.0, 0.0, 0.0, 0.0, 0.0, 0.0, 0.0, 0.0, 0.0, 0.0, 0.0, 0.0, 0.0, 0.0, 0.0, 0.0, 0.0, 0.0)",0.184374540402,0.395700142264,0.00676685883973,-0.00051026672708,0.00581319228495,0.0387644090786,"(0.0, 0.0, 0.0, 0.0, 0.0, 0.0, 0.0, 0.0, 0.0, 0.0, 0.0, 0.0, 0.0, 0.0, 0.0, 0.0, 0.0, 0.0, 0.0, 0.0, 0.0, 0.0, 0.0, 0.0, 0.0, 0.0, 0.0, 0.0, 0.0, 0.0, 0.0, 0.0, 0.0, 0.0, 0.0, 0.0)"
1970/01/01/01:00:11.444000,46,11,425000000,map,map,0.614316782768,1.91858796379,-0.523847362026,0.000271570681955,-0.000314630489238,-0.695746872619,-0.718286975592,"(0.21924171965665037, 0.0, 0.0, 0.0, 0.0, 0.0, 0.0, 0.07966308983145742, 0.0, 0.0, 0.0, 0.0, 0.0, 0.0, 9.901967940994129e-05, 0.0, 0.0, 0.0, 0.0, 0.0, 0.0, 0.0, 0.0, 0.0, 0.0, 0.0, 0.0, 0.0, 0.0, 0.0, 0.0, 0.0, 0.0, 0.0, 0.0, 0.0)",0.187112464789,0.396130128038,0.0179745152775,0.0045872859026,-0.00438044431933,0.0436496225931,"(0.0, 0.0, 0.0, 0.0, 0.0, 0.0, 0.0, 0.0, 0.0, 0.0, 0.0, 0.0, 0.0, 0.0, 0.0, 0.0, 0.0, 0.0, 0.0, 0.0, 0.0, 0.0, 0.0, 0.0, 0.0, 0.0, 0.0, 0.0, 0.0, 0.0, 0.0, 0.0, 0.0, 0.0, 0.0, 0.0)"
1970/01/01/01:00:11.447000,47,11,446000000,map,map,0.613732916874,1.91919774683,-0.520379755718,0.000287406422628,-0.000313898549173,-0.695990209424,-0.718051140926,"(0.22959092442572632, 0.0, 0.0, 0.0, 0.0, 0.0, 0.0, 0.08975444996091064, 0.0, 0.0, 0.0, 0.0, 0.0, 0.0, 9.9019700666412e-05, 0.0, 0.0, 0.0, 0.0, 0.0, 0.0, 0.0, 0.0, 0.0, 0.0, 0.0, 0.0, 0.0, 0.0, 0.0, 0.0, 0.0, 0.0, 0.0, 0.0, 0.0)",0.189521632538,0.396536464594,0.0252421143248,-0.00237617739185,0.00212352207381,0.03032416649,"(0.0, 0.0, 0.0, 0.0, 0.0, 0.0, 0.0, 0.0, 0.0, 0.0, 0.0, 0.0, 0.0, 0.0, 0.0, 0.0, 0.0, 0.0, 0.0, 0.0, 0.0, 0.0, 0.0, 0.0, 0.0, 0.0, 0.0, 0.0, 0.0, 0.0, 0.0, 0.0, 0.0, 0.0, 0.0, 0.0)"
1970/01/01/01:00:11.467000,48,11,465000000,map,map,0.707296006187,1.97064985641,-0.545691399009,0.000178123681883,-0.000230615137886,-0.696257279515,-0.717792331617,"(0.16620857553385981, 0.0, 0.0, 0.0, 0.0, 0.0, 0.0, 0.02681657519578392, 0.0, 0.0, 0.0, 0.0, 0.0, 0.0, 9.900871304010324e-05, 0.0, 0.0, 0.0, 0.0, 0.0, 0.0, 0.0, 0.0, 0.0, 0.0, 0.0, 0.0, 0.0, 0.0, 0.0, 0.0, 0.0, 0.0, 0.0, 0.0, 0.0)",0.191300982152,0.396865500457,0.0353294412841,0.0171758485593,0.0012113537112,0.0311211777373,"(0.0, 0.0, 0.0, 0.0, 0.0, 0.0, 0.0, 0.0, 0.0, 0.0, 0.0, 0.0, 0.0, 0.0, 0.0, 0.0, 0.0, 0.0, 0.0, 0.0, 0.0, 0.0, 0.0, 0.0, 0.0, 0.0, 0.0, 0.0, 0.0, 0.0, 0.0, 0.0, 0.0, 0.0, 0.0, 0.0)"
1970/01/01/01:00:11.491000,49,11,486000000,map,map,0.70675610297,1.9713426035,-0.527919370882,0.000218411650895,-0.000247576871336,-0.696511322937,-0.71754570604,"(0.17648239864418516, 0.0, 0.0, 0.0, 0.0, 0.0, 0.0, 0.036853817133775085, 0.0, 0.0, 0.0, 0.0, 0.0, 0.0, 9.901972734326582e-05, 0.0, 0.0, 0.0, 0.0, 0.0, 0.0, 0.0, 0.0, 0.0, 0.0, 0.0, 0.0, 0.0, 0.0, 0.0, 0.0, 0.0, 0.0, 0.0, 0.0, 0.0)",0.196859211504,0.397194622909,-0.000774422588546,-0.00650827303093,-0.00379994172844,0.0363746762889,"(0.0, 0.0, 0.0, 0.0, 0.0, 0.0, 0.0, 0.0, 0.0, 0.0, 0.0, 0.0, 0.0, 0.0, 0.0, 0.0, 0.0, 0.0, 0.0, 0.0, 0.0, 0.0, 0.0, 0.0, 0.0, 0.0, 0.0, 0.0, 0.0, 0.0, 0.0, 0.0, 0.0, 0.0, 0.0, 0.0)"
1970/01/01/01:00:11.516000,50,11,506000000,map,map,0.706292517617,1.97191464206,-0.519536484988,0.000178279275886,-0.000355438408722,-0.696675810233,-0.717386107779,"(0.18672763884199342, 0.0, 0.0, 0.0, 0.0, 0.0, 0.0, 0.046895720443606896, 0.0, 0.0, 0.0, 0.0, 0.0, 0.0, 9.901967521912799e-05, 0.0, 0.0, 0.0, 0.0, 0.0, 0.0, 0.0, 0.0, 0.0, 0.0, 0.0, 0.0, 0.0, 0.0, 0.0, 0.0, 0.0, 0.0, 0.0, 0.0, 0.0)",0.201414651379,0.397475160618,0.000445234359403,-0.00531848397089,0.0102096017911,0.0157582776734,"(0.0, 0.0, 0.0, 0.0, 0.0, 0.0, 0.0, 0.0, 0.0, 0.0, 0.0, 0.0, 0.0, 0.0, 0.0, 0.0, 0.0, 0.0, 0.0, 0.0, 0.0, 0.0, 0.0, 0.0, 0.0, 0.0, 0.0, 0.0, 0.0, 0.0, 0.0, 0.0, 0.0, 0.0, 0.0, 0.0)"
1970/01/01/01:00:11.543000,51,11,525000000,map,map,0.705674408943,1.97267716801,-0.539359105766,0.000145415003226,-0.000366714810389,-0.696901206969,-0.717167117364,"(0.19706986432633503, 0.0, 0.0, 0.0, 0.0, 0.0, 0.0, 0.05696601046323719, 0.0, 0.0, 0.0, 0.0, 0.0, 0.0, 9.90198041784815e-05, 0.0, 0.0, 0.0, 0.0, 0.0, 0.0, 0.0, 0.0, 0.0, 0.0, 0.0, 0.0, 0.0, 0.0, 0.0, 0.0, 0.0, 0.0, 0.0, 0.0, 0.0)",0.205142323228,0.39771502036,0.0146695996881,0.00620123128803,0.00493882036233,0.0305316604997,"(0.0, 0.0, 0.0, 0.0, 0.0, 0.0, 0.0, 0.0, 0.0, 0.0, 0.0, 0.0, 0.0, 0.0, 0.0, 0.0, 0.0, 0.0, 0.0, 0.0, 0.0, 0.0, 0.0, 0.0, 0.0, 0.0, 0.0, 0.0, 0.0, 0.0, 0.0, 0.0, 0.0, 0.0, 0.0, 0.0)"
1970/01/01/01:00:11.573000,52,11,546000000,map,map,0.705210822061,1.97324908058,-0.540654263487,0.000103829944629,-0.000342404053361,-0.697098503611,-0.716975384106,"(0.20733802715504007, 0.0, 0.0, 0.0, 0.0, 0.0, 0.0, 0.06702960698061891, 0.0, 0.0, 0.0, 0.0, 0.0, 0.0, 9.901968204527445e-05, 0.0, 0.0, 0.0, 0.0, 0.0, 0.0, 0.0, 0.0, 0.0, 0.0, 0.0, 0.0, 0.0, 0.0, 0.0, 0.0, 0.0, 0.0, 0.0, 0.0, 0.0)",0.208684286588,0.397954943222,-0.00730024049281,0.00292968792404,-0.00322149809328,0.0257773438715,"(0.0, 0.0, 0.0, 0.0, 0.0, 0.0, 0.0, 0.0, 0.0, 0.0, 0.0, 0.0, 0.0, 0.0, 0.0, 0.0, 0.0, 0.0, 0.0, 0.0, 0.0, 0.0, 0.0, 0.0, 0.0, 0.0, 0.0, 0.0, 0.0, 0.0, 0.0, 0.0, 0.0, 0.0, 0.0, 0.0)"
1970/01/01/01:00:11.573000,53,11,565000000,map,map,0.704541195986,1.97407517823,-0.540570536637,4.38114123627e-05,-0.000361357561106,-0.697315227316,-0.716764476666,"(0.21774289904104538, 0.0, 0.0, 0.0, 0.0, 0.0, 0.0, 0.07713806399440913, 0.0, 0.0, 0.0, 0.0, 0.0, 0.0, 0.010102699524206754, 0.0, 0.0, 0.0, 0.0, 0.0, 0.0, 0.0, 0.0, 0.0, 0.0, 0.0, 0.0, 0.0, 0.0, 0.0, 0.0, 0.0, 0.0, 0.0, 0.0, 0.0)",0.211371113709,0.398149223616,-0.0255418758888,0.00288889603507,0.00706868492961,0.0296646071646,"(0.0, 0.0, 0.0, 0.0, 0.0, 0.0, 0.0, 0.0, 0.0, 0.0, 0.0, 0.0, 0.0, 0.0, 0.0, 0.0, 0.0, 0.0, 0.0, 0.0, 0.0, 0.0, 0.0, 0.0, 0.0, 0.0, 0.0, 0.0, 0.0, 0.0, 0.0, 0.0, 0.0, 0.0, 0.0, 0.0)"
1970/01/01/01:00:11.599000,54,11,585000000,map,map,0.704180637803,1.97451997163,-0.563240167356,-8.38664662714e-06,-0.000395155104521,-0.697515492018,-0.716569606761,"(0.227969528442957, 0.0, 0.0, 0.0, 0.0, 0.0, 0.0, 0.08720463004538041, 0.0, 0.0, 0.0, 0.0, 0.0, 0.0, 0.010100130400242588, 0.0, 0.0, 0.0, 0.0, 0.0, 0.0, 0.0, 0.0, 0.0, 0.0, 0.0, 0.0, 0.0, 0.0, 0.0, 0.0, 0.0, 0.0, 0.0, 0.0, 0.0)",0.21374528497,0.398334301254,-0.0407245512467,-0.0017614927689,0.00748582903906,0.0256884857818,"(0.0, 0.0, 0.0, 0.0, 0.0, 0.0, 0.0, 0.0, 0.0, 0.0, 0.0, 0.0, 0.0, 0.0, 0.0, 0.0, 0.0, 0.0, 0.0, 0.0, 0.0, 0.0, 0.0, 0.0, 0.0, 0.0, 0.0, 0.0, 0.0, 0.0, 0.0, 0.0, 0.0, 0.0, 0.0, 0.0)"
1970/01/01/01:00:11.607000,55,11,605000000,map,map,0.70361402505,1.97521899512,-0.537040045981,2.77006972014e-05,-0.000323080032011,-0.697758194645,-0.716333310455,"(0.23833795345262376, 0.0, 0.0, 0.0, 0.0, 0.0, 0.0, 0.09732088294732617, 0.0, 0.0, 0.0, 0.0, 0.0, 0.0, 0.010101748415179452, 0.0, 0.0, 0.0, 0.0, 0.0, 0.0, 0.0, 0.0, 0.0, 0.0, 0.0, 0.0, 0.0, 0.0, 0.0, 0.0, 0.0, 0.0, 0.0, 0.0, 0.0)",0.215698519888,0.398500871129,-0.0898020135353,0.00265471481915,-0.00676184507847,0.0358401131959,"(0.0, 0.0, 0.0, 0.0, 0.0, 0.0, 0.0, 0.0, 0.0, 0.0, 0.0, 0.0, 0.0, 0.0, 0.0, 0.0, 0.0, 0.0, 0.0, 0.0, 0.0, 0.0, 0.0, 0.0, 0.0, 0.0, 0.0, 0.0, 0.0, 0.0, 0.0, 0.0, 0.0, 0.0, 0.0, 0.0)"
1970/01/01/01:00:11.645000,56,11,625000000,map,map,0.718409447716,1.97005562456,-0.53944364933,-4.63625726274e-05,-0.000343753349319,-0.698036736582,-0.716061933482,"(0.17097089315826525, 0.0, 0.0, 0.0, 0.0, 0.0, 0.0, 0.034994869937134646, 0.0, 0.0, 0.0, 0.0, 0.0, 0.0, 0.010101322651664248, 0.0, 0.0, 0.0, 0.0, 0.0, 0.0, 0.0, 0.0, 0.0, 0.0, 0.0, 0.0, 0.0, 0.0, 0.0, 0.0, 0.0, 0.0, 0.0, 0.0, 0.0)",0.217262770575,0.398650784016,-0.0840396293658,0.00355884737879,0.00834385670302,0.0363275037754,"(0.0, 0.0, 0.0, 0.0, 0.0, 0.0, 0.0, 0.0, 0.0, 0.0, 0.0, 0.0, 0.0, 0.0, 0.0, 0.0, 0.0, 0.0, 0.0, 0.0, 0.0, 0.0, 0.0, 0.0, 0.0, 0.0, 0.0, 0.0, 0.0, 0.0, 0.0, 0.0, 0.0, 0.0, 0.0, 0.0)"
1970/01/01/01:00:11.686000,57,11,645000000,map,map,0.717956913113,1.97058816025,-0.562533866546,-0.000128791199574,-0.00035194131101,-0.698198967704,-0.715903748457,"(0.18119450028529988, 0.0, 0.0, 0.0, 0.0, 0.0, 0.0, 0.045036310008712915, 0.0, 0.0, 0.0, 0.0, 0.0, 0.0, 0.010100928265230425, 0.0, 0.0, 0.0, 0.0, 0.0, 0.0, 0.0, 0.0, 0.0, 0.0, 0.0, 0.0, 0.0, 0.0, 0.0, 0.0, 0.0, 0.0, 0.0, 0.0, 0.0)",0.219089854285,0.398785705614,-0.0804423271615,0.00813158267161,0.00715251831535,0.0283375647144,"(0.0, 0.0, 0.0, 0.0, 0.0, 0.0, 0.0, 0.0, 0.0, 0.0, 0.0, 0.0, 0.0, 0.0, 0.0, 0.0, 0.0, 0.0, 0.0, 0.0, 0.0, 0.0, 0.0, 0.0, 0.0, 0.0, 0.0, 0.0, 0.0, 0.0, 0.0, 0.0, 0.0, 0.0, 0.0, 0.0)"
1970/01/01/01:00:11.686000,58,11,665000000,map,map,0.717452890132,1.97122023101,-0.556306579193,-9.08243594303e-05,-0.000488714687407,-0.698392230102,-0.715715206506,"(0.19145489457554524, 0.0, 0.0, 0.0, 0.0, 0.0, 0.0, 0.055093736230373676, 0.0, 0.0, 0.0, 0.0, 0.0, 0.0, 0.010101406705781624, 0.0, 0.0, 0.0, 0.0, 0.0, 0.0, 0.0, 0.0, 0.0, 0.0, 0.0, 0.0, 0.0, 0.0, 0.0, 0.0, 0.0, 0.0, 0.0, 0.0, 0.0)",0.220542318023,0.398907135053,-0.11324685978,-0.0160671878641,0.00982385289691,0.027102204641,"(0.0, 0.0, 0.0, 0.0, 0.0, 0.0, 0.0, 0.0, 0.0, 0.0, 0.0, 0.0, 0.0, 0.0, 0.0, 0.0, 0.0, 0.0, 0.0, 0.0, 0.0, 0.0, 0.0, 0.0, 0.0, 0.0, 0.0, 0.0, 0.0, 0.0, 0.0, 0.0, 0.0, 0.0, 0.0, 0.0)"
1970/01/01/01:00:11.686000,59,11,685000000,map,map,0.716948871485,1.97185220459,-0.558265871972,-5.35303459782e-05,-0.000416664752775,-0.698568114828,-0.715543536465,"(0.20172793718427448, 0.0, 0.0, 0.0, 0.0, 0.0, 0.0, 0.06516319239281324, 0.0, 0.0, 0.0, 0.0, 0.0, 0.0, 0.010101451461119376, 0.0, 0.0, 0.0, 0.0, 0.0, 0.0, 0.0, 0.0, 0.0, 0.0, 0.0, 0.0, 0.0, 0.0, 0.0, 0.0, 0.0, 0.0, 0.0, 0.0, 0.0)",0.221654102584,0.399016421548,-0.126430262712,0.0039100720761,-0.00743220351045,0.0266292904747,"(0.0, 0.0, 0.0, 0.0, 0.0, 0.0, 0.0, 0.0, 0.0, 0.0, 0.0, 0.0, 0.0, 0.0, 0.0, 0.0, 0.0, 0.0, 0.0, 0.0, 0.0, 0.0, 0.0, 0.0, 0.0, 0.0, 0.0, 0.0, 0.0, 0.0, 0.0, 0.0, 0.0, 0.0, 0.0, 0.0)"
1970/01/01/01:00:11.728000,60,11,705000000,map,map,0.716444849069,1.97248418374,-0.541362402256,-3.27981609652e-05,-0.000356208442757,-0.69874991921,-0.715366031062,"(0.21201370811148393, 0.0, 0.0, 0.0, 0.0, 0.0, 0.0, 0.07524475849359682, 0.0, 0.0, 0.0, 0.0, 0.0, 0.0, 0.010101491721559165, 0.0, 0.0, 0.0, 0.0, 0.0, 0.0, 0.0, 0.0, 0.0, 0.0, 0.0, 0.0, 0.0, 0.0, 0.0, 0.0, 0.0, 0.0, 0.0, 0.0, 0.0)",0.222458114089,0.399114779393,-0.136467577698,0.000349107797059,-0.00712455748552,0.0279584346647,"(0.0, 0.0, 0.0, 0.0, 0.0, 0.0, 0.0, 0.0, 0.0, 0.0, 0.0, 0.0, 0.0, 0.0, 0.0, 0.0, 0.0, 0.0, 0.0, 0.0, 0.0, 0.0, 0.0, 0.0, 0.0, 0.0, 0.0, 0.0, 0.0, 0.0, 0.0, 0.0, 0.0, 0.0, 0.0, 0.0)"
1970/01/01/01:00:11.730000,61,11,725000000,map,map,0.715890431524,1.97317935086,-0.558436522365,-7.86938666956e-05,-0.000295656417411,-0.698911913257,-0.715207830232,"(0.222342851939259, 0.0, 0.0, 0.0, 0.0, 0.0, 0.0, 0.08534856278324503, 0.0, 0.0, 0.0, 0.0, 0.0, 0.0, 0.01010205419394267, 0.0, 0.0, 0.0, 0.0, 0.0, 0.0, 0.0, 0.0, 0.0, 0.0, 0.0, 0.0, 0.0, 0.0, 0.0, 0.0, 0.0, 0.0, 0.0, 0.0, 0.0)",0.222984240265,0.399203301454,-0.112110638069,0.00692632820194,-0.00137193888895,0.0220304076531,"(0.0, 0.0, 0.0, 0.0, 0.0, 0.0, 0.0, 0.0, 0.0, 0.0, 0.0, 0.0, 0.0, 0.0, 0.0, 0.0, 0.0, 0.0, 0.0, 0.0, 0.0, 0.0, 0.0, 0.0, 0.0, 0.0, 0.0, 0.0, 0.0, 0.0, 0.0, 0.0, 0.0, 0.0, 0.0, 0.0)"
1970/01/01/01:00:11.746000,62,11,745000000,map,map,0.715436811656,1.97374813163,-0.544809676884,-7.26801617258e-05,-0.000261666548131,-0.699012581004,-0.715109438414,"(0.23262374732134303, 0.0, 0.0, 0.0, 0.0, 0.0, 0.0, 0.09544453291019223, 0.0, 0.0, 0.0, 0.0, 0.0, 0.0, 9.950517108147993e-05, 0.0, 0.0, 0.0, 0.0, 0.0, 0.0, 0.0, 0.0, 0.0, 0.0, 0.0, 0.0, 0.0, 0.0, 0.0, 0.0, 0.0, 0.0, 0.0, 0.0, 0.0)",0.22325761063,0.399282971308,-0.116533033958,0.00227571841092,-0.0041173539244,0.0163760683979,"(0.0, 0.0, 0.0, 0.0, 0.0, 0.0, 0.0, 0.0, 0.0, 0.0, 0.0, 0.0, 0.0, 0.0, 0.0, 0.0, 0.0, 0.0, 0.0, 0.0, 0.0, 0.0, 0.0, 0.0, 0.0, 0.0, 0.0, 0.0, 0.0, 0.0, 0.0, 0.0, 0.0, 0.0, 0.0, 0.0)"
1970/01/01/01:00:11.766000,63,11,766000000,map,map,0.687455864246,1.86244128729,-0.557685621882,-3.67418033025e-05,-0.000249539183482,-0.699128109467,-0.714996438762,"(0.168962327848967, 0.0, 0.0, 0.0, 0.0, 0.0, 0.0, 0.03475288789776008, 0.0, 0.0, 0.0, 0.0, 0.0, 0.0, 9.901980824477216e-05, 0.0, 0.0, 0.0, 0.0, 0.0, 0.0, 0.0, 0.0, 0.0, 0.0, 0.0, 0.0, 0.0, 0.0, 0.0, 0.0, 0.0, 0.0, 0.0, 0.0, 0.0)",0.223309586829,0.399358259321,-0.0924769945815,0.000681153950027,-0.00173572091695,0.0215857166378,"(0.0, 0.0, 0.0, 0.0, 0.0, 0.0, 0.0, 0.0, 0.0, 0.0, 0.0, 0.0, 0.0, 0.0, 0.0, 0.0, 0.0, 0.0, 0.0, 0.0, 0.0, 0.0, 0.0, 0.0, 0.0, 0.0, 0.0, 0.0, 0.0, 0.0, 0.0, 0.0, 0.0, 0.0, 0.0, 0.0)"
1970/01/01/01:00:11.803000,64,11,785000000,map,map,0.68693429195,1.86300767672,-0.563123044817,-9.25828224681e-05,-0.00024664508102,-0.699205576034,-0.714920658069,"(0.17919874264298077, 0.0, 0.0, 0.0, 0.0, 0.0, 0.0, 0.04480055797079546, 0.0, 0.0, 0.0, 0.0, 0.0, 0.0, 9.901976664414213e-05, 0.0, 0.0, 0.0, 0.0, 0.0, 0.0, 0.0, 0.0, 0.0, 0.0, 0.0, 0.0, 0.0, 0.0, 0.0, 0.0, 0.0, 0.0, 0.0, 0.0, 0.0)",0.2221102396,0.399419224685,-0.0917948435896,0.00390194134882,0.00406257315478,0.0119370526647,"(0.0, 0.0, 0.0, 0.0, 0.0, 0.0, 0.0, 0.0, 0.0, 0.0, 0.0, 0.0, 0.0, 0.0, 0.0, 0.0, 0.0, 0.0, 0.0, 0.0, 0.0, 0.0, 0.0, 0.0, 0.0, 0.0, 0.0, 0.0, 0.0, 0.0, 0.0, 0.0, 0.0, 0.0, 0.0, 0.0)"
1970/01/01/01:00:11.845000,65,11,805000000,map,map,0.686412717443,1.86357415277,-0.539557893424,-5.37298849641e-05,-0.000293901560934,-0.699291031403,-0.714837057161,"(0.18944821676373244, 0.0, 0.0, 0.0, 0.0, 0.0, 0.0, 0.054860689214054646, 0.0, 0.0, 0.0, 0.0, 0.0, 0.0, 9.901977049477785e-05, 0.0, 0.0, 0.0, 0.0, 0.0, 0.0, 0.0, 0.0, 0.0, 0.0, 0.0, 0.0, 0.0, 0.0, 0.0, 0.0, 0.0, 0.0, 0.0, 0.0, 0.0)",0.220777125377,0.399477302217,-0.0973471535088,-0.00504233077138,0.00209429737278,0.0181681808844,"(0.0, 0.0, 0.0, 0.0, 0.0, 0.0, 0.0, 0.0, 0.0, 0.0, 0.0, 0.0, 0.0, 0.0, 0.0, 0.0, 0.0, 0.0, 0.0, 0.0, 0.0, 0.0, 0.0, 0.0, 0.0, 0.0, 0.0, 0.0, 0.0, 0.0, 0.0, 0.0, 0.0, 0.0, 0.0, 0.0)"
1970/01/01/01:00:11.845000,66,11,825000000,map,map,0.685838992828,1.86419726911,-0.564095260982,-1.80967104715e-05,-0.000318742631507,-0.699418889136,-0.71471198112,"(0.19973781641894134, 0.0, 0.0, 0.0, 0.0, 0.0, 0.0, 0.06494132083069858, 0.0, 0.0, 0.0, 0.0, 0.0, 0.0, 9.901982853454431e-05, 0.0, 0.0, 0.0, 0.0, 0.0, 0.0, 0.0, 0.0, 0.0, 0.0, 0.0, 0.0, 0.0, 0.0, 0.0, 0.0, 0.0, 0.0, 0.0, 0.0, 0.0)",0.219378771405,0.399529571995,-0.0594539210026,-0.00404815479927,-0.00108116893593,0.0194159301788,"(0.0, 0.0, 0.0, 0.0, 0.0, 0.0, 0.0, 0.0, 0.0, 0.0, 0.0, 0.0, 0.0, 0.0, 0.0, 0.0, 0.0, 0.0, 0.0, 0.0, 0.0, 0.0, 0.0, 0.0, 0.0, 0.0, 0.0, 0.0, 0.0, 0.0, 0.0, 0.0, 0.0, 0.0, 0.0, 0.0)"
1970/01/01/01:00:11.887000,67,11,845000000,map,map,0.685369577362,1.86470709369,-0.553724451978,-8.32171413873e-05,-0.000344770893191,-0.699559276338,-0.714574544198,"(0.209986655385449, 0.0, 0.0, 0.0, 0.0, 0.0, 0.0, 0.07501864760462158, 0.0, 0.0, 0.0, 0.0, 0.0, 0.0, 9.901972883882214e-05, 0.0, 0.0, 0.0, 0.0, 0.0, 0.0, 0.0, 0.0, 0.0, 0.0, 0.0, 0.0, 0.0, 0.0, 0.0, 0.0, 0.0, 0.0, 0.0, 0.0, 0.0)",0.217920682145,0.399576614796,-0.0667900424781,0.00140910559141,0.00847327277245,0.0165700653018,"(0.0, 0.0, 0.0, 0.0, 0.0, 0.0, 0.0, 0.0, 0.0, 0.0, 0.0, 0.0, 0.0, 0.0, 0.0, 0.0, 0.0, 0.0, 0.0, 0.0, 0.0, 0.0, 0.0, 0.0, 0.0, 0.0, 0.0, 0.0, 0.0, 0.0, 0.0, 0.0, 0.0, 0.0, 0.0, 0.0)"
1970/01/01/01:00:11.887000,68,11,865000000,map,map,0.68484800679,1.86527356442,-0.558707565364,-9.07901562749e-05,-0.000332167503762,-0.699666227258,-0.714469784913,"(0.22027577948641391, 0.0, 0.0, 0.0, 0.0, 0.0, 0.0, 0.08511663435192894, 0.0, 0.0, 0.0, 0.0, 0.0, 0.0, 9.901978153669885e-05, 0.0, 0.0, 0.0, 0.0, 0.0, 0.0, 0.0, 0.0, 0.0, 0.0, 0.0, 0.0, 0.0, 0.0, 0.0, 0.0, 0.0, 0.0, 0.0, 0.0, 0.0)",0.216414122176,0.399618953316,-0.0533924606175,0.00228539124907,-5.52648142262e-05,0.0200182874453,"(0.0, 0.0, 0.0, 0.0, 0.0, 0.0, 0.0, 0.0, 0.0, 0.0, 0.0, 0.0, 0.0, 0.0, 0.0, 0.0, 0.0, 0.0, 0.0, 0.0, 0.0, 0.0, 0.0, 0.0, 0.0, 0.0, 0.0, 0.0, 0.0, 0.0, 0.0, 0.0, 0.0, 0.0, 0.0, 0.0)"
1970/01/01/01:00:11.887000,69,11,885000000,map,map,0.684326434715,1.86584003586,-0.553056027802,-0.000104282138331,-0.000343573443191,-0.69978172477,-0.714356731919,"(0.23057828291411656, 0.0, 0.0, 0.0, 0.0, 0.0, 0.0, 0.09522740226725221, 0.0, 0.0, 0.0, 0.0, 0.0, 0.0, 9.901978588658795e-05, 0.0, 0.0, 0.0, 0.0, 0.0, 0.0, 0.0, 0.0, 0.0, 0.0, 0.0, 0.0, 0.0, 0.0, 0.0, 0.0, 0.0, 0.0, 0.0, 0.0, 0.0)",0.214863018835,0.399657057984,-0.0487532493572,-0.000357889792704,0.00283082369767,0.0171566370345,"(0.0, 0.0, 0.0, 0.0, 0.0, 0.0, 0.0, 0.0, 0.0, 0.0, 0.0, 0.0, 0.0, 0.0, 0.0, 0.0, 0.0, 0.0, 0.0, 0.0, 0.0, 0.0, 0.0, 0.0, 0.0, 0.0, 0.0, 0.0, 0.0, 0.0, 0.0, 0.0, 0.0, 0.0, 0.0, 0.0)"
1970/01/01/01:00:11.924000,70,11,905000000,map,map,0.668023253593,1.81030557171,-0.546766474802,-1.67173581294e-06,-0.000352070385734,-0.699969487663,-0.714172762243,"(0.17037461243105048, 0.0, 0.0, 0.0, 0.0, 0.0, 0.0, 0.02531129730902583, 0.0, 0.0, 0.0, 0.0, 0.0, 0.0, 9.900999443768637e-05, 0.0, 0.0, 0.0, 0.0, 0.0, 0.0, 0.0, 0.0, 0.0, 0.0, 0.0, 0.0, 0.0, 0.0, 0.0, 0.0, 0.0, 0.0, 0.0, 0.0, 0.0)",0.213273031647,0.399691352186,-0.033842902391,-0.00676445990056,-0.00517352798698,0.0272659449711,"(0.0, 0.0, 0.0, 0.0, 0.0, 0.0, 0.0, 0.0, 0.0, 0.0, 0.0, 0.0, 0.0, 0.0, 0.0, 0.0, 0.0, 0.0, 0.0, 0.0, 0.0, 0.0, 0.0, 0.0, 0.0, 0.0, 0.0, 0.0, 0.0, 0.0, 0.0, 0.0, 0.0, 0.0, 0.0, 0.0)"
1970/01/01/01:00:11.926000,71,11,926000000,map,map,0.667516739179,1.81079117776,-0.561126298409,1.46577498919e-05,-0.000295874323615,-0.700071253863,-0.714072934798,"(0.18059758199857753, 0.0, 0.0, 0.0, 0.0, 0.0, 0.0, 0.03534685074902867, 0.0, 0.0, 0.0, 0.0, 0.0, 0.0, 9.901976560167132e-05, 0.0, 0.0, 0.0, 0.0, 0.0, 0.0, 0.0, 0.0, 0.0, 0.0, 0.0, 0.0, 0.0, 0.0, 0.0, 0.0, 0.0, 0.0, 0.0, 0.0, 0.0)",0.210905275211,0.399723760206,-0.00860512946297,0.00324085967847,-0.00429055258409,0.0212705153518,"(0.0, 0.0, 0.0, 0.0, 0.0, 0.0, 0.0, 0.0, 0.0, 0.0, 0.0, 0.0, 0.0, 0.0, 0.0, 0.0, 0.0, 0.0, 0.0, 0.0, 0.0, 0.0, 0.0, 0.0, 0.0, 0.0, 0.0, 0.0, 0.0, 0.0, 0.0, 0.0, 0.0, 0.0, 0.0, 0.0)"
1970/01/01/01:00:11.966000,72,11,945000000,map,map,0.666958249905,1.81134989387,-0.543345854851,-3.38630685937e-05,-0.000308910891275,-0.700233529766,-0.713913777761,"(0.19085825813242685, 0.0, 0.0, 0.0, 0.0, 0.0, 0.0, 0.04539977759892547, 0.0, 0.0, 0.0, 0.0, 0.0, 0.0, 9.901982593538468e-05, 0.0, 0.0, 0.0, 0.0, 0.0, 0.0, 0.0, 0.0, 0.0, 0.0, 0.0, 0.0, 0.0, 0.0, 0.0, 0.0, 0.0, 0.0, 0.0, 0.0, 0.0)",0.208798516823,0.399750002987,-0.0121772416862,0.00125572813445,0.00382352862326,0.023125697425,"(0.0, 0.0, 0.0, 0.0, 0.0, 0.0, 0.0, 0.0, 0.0, 0.0, 0.0, 0.0, 0.0, 0.0, 0.0, 0.0, 0.0, 0.0, 0.0, 0.0, 0.0, 0.0, 0.0, 0.0, 0.0, 0.0, 0.0, 0.0, 0.0, 0.0, 0.0, 0.0, 0.0, 0.0, 0.0, 0.0)"
1970/01/01/01:00:12.007000,73,11,966000000,map,map,0.666452940647,1.81185517995,-0.565098832114,-9.21947391026e-05,-0.000303968432424,-0.700362807321,-0.713787029017,"(0.20110706036600645, 0.0, 0.0, 0.0, 0.0, 0.0, 0.0, 0.055460050109109045, 0.0, 0.0, 0.0, 0.0, 0.0, 0.0, 9.901977373849684e-05, 0.0, 0.0, 0.0, 0.0, 0.0, 0.0, 0.0, 0.0, 0.0, 0.0, 0.0, 0.0, 0.0, 0.0, 0.0, 0.0, 0.0, 0.0, 0.0, 0.0, 0.0)",0.206608924673,0.399775002688,0.0146836309914,0.0055647680449,0.00574459008594,0.016980270646,"(0.0, 0.0, 0.0, 0.0, 0.0, 0.0, 0.0, 0.0, 0.0, 0.0, 0.0, 0.0, 0.0, 0.0, 0.0, 0.0, 0.0, 0.0, 0.0, 0.0, 0.0, 0.0, 0.0, 0.0, 0.0, 0.0, 0.0, 0.0, 0.0, 0.0, 0.0, 0.0, 0.0, 0.0, 0.0, 0.0)"
1970/01/01/01:00:12.007000,74,11,985000000,map,map,0.665894438766,1.81241365801,-0.565041720629,-0.000172160383865,-0.000309287264896,-0.700517743088,-0.71363504353,"(0.21139645631690715, 0.0, 0.0, 0.0, 0.0, 0.0, 0.0, 0.06554044542728767, 0.0, 0.0, 0.0, 0.0, 0.0, 0.0, 0.010102357445268922, 0.0, 0.0, 0.0, 0.0, 0.0, 0.0, 0.0, 0.0, 0.0, 0.0, 0.0, 0.0, 0.0, 0.0, 0.0, 0.0, 0.0, 0.0, 0.0, 0.0, 0.0)",0.204451040476,0.399797502419,0.0366739939133,0.00601986387511,0.00797031565375,0.0236855618899,"(0.0, 0.0, 0.0, 0.0, 0.0, 0.0, 0.0, 0.0, 0.0, 0.0, 0.0, 0.0, 0.0, 0.0, 0.0, 0.0, 0.0, 0.0, 0.0, 0.0, 0.0, 0.0, 0.0, 0.0, 0.0, 0.0, 0.0, 0.0, 0.0, 0.0, 0.0, 0.0, 0.0, 0.0, 0.0, 0.0)"
1970/01/01/01:00:12.007000,75,12,5000000,map,map,0.665362532395,1.81294554182,-0.566644903398,-0.00020098190324,-0.000318682194614,-0.700709394028,-0.713446764338,"(0.22168621151418033, 0.0, 0.0, 0.0, 0.0, 0.0, 0.0, 0.07563054162466684, 0.0, 0.0, 0.0, 0.0, 0.0, 0.0, 0.01010209536968919, 0.0, 0.0, 0.0, 0.0, 0.0, 0.0, 0.0, 0.0, 0.0, 0.0, 0.0, 0.0, 0.0, 0.0, 0.0, 0.0, 0.0, 0.0, 0.0, 0.0, 0.0)",0.202321317562,0.399817752177,0.0175212968642,0.00329327115916,-0.00108272031975,0.0314259598406,"(0.0, 0.0, 0.0, 0.0, 0.0, 0.0, 0.0, 0.0, 0.0, 0.0, 0.0, 0.0, 0.0, 0.0, 0.0, 0.0, 0.0, 0.0, 0.0, 0.0, 0.0, 0.0, 0.0, 0.0, 0.0, 0.0, 0.0, 0.0, 0.0, 0.0, 0.0, 0.0, 0.0, 0.0, 0.0, 0.0)"
1970/01/01/01:00:12.050000,76,12,26000000,map,map,0.664830624482,1.81347742614,-0.553607012283,-0.000140525207356,-0.000247314455498,-0.700844981098,-0.713313537491,"(0.23198984281480886, 0.0, 0.0, 0.0, 0.0, 0.0, 0.0, 0.085733918044178, 0.0, 0.0, 0.0, 0.0, 0.0, 0.0, 0.010102132350551218, 0.0, 0.0, 0.0, 0.0, 0.0, 0.0, 0.0, 0.0, 0.0, 0.0, 0.0, 0.0, 0.0, 0.0, 0.0, 0.0, 0.0, 0.0, 0.0, 0.0, 0.0)",0.200114650466,0.399836888199,-0.00265612828895,0.00224794053087,-0.0118612920486,0.0185151080811,"(0.0, 0.0, 0.0, 0.0, 0.0, 0.0, 0.0, 0.0, 0.0, 0.0, 0.0, 0.0, 0.0, 0.0, 0.0, 0.0, 0.0, 0.0, 0.0, 0.0, 0.0, 0.0, 0.0, 0.0, 0.0, 0.0, 0.0, 0.0, 0.0, 0.0, 0.0, 0.0, 0.0, 0.0, 0.0, 0.0)"
1970/01/01/01:00:12.050000,77,12,45000000,map,map,0.732415148622,1.75174857424,-0.562368282214,-8.62781797375e-05,-0.000265140843739,-0.701007930034,-0.713153454541,"(0.18806392629145677, 0.0, 0.0, 0.0, 0.0, 0.0, 0.0, 0.03236302101168039, 0.0, 0.0, 0.0, 0.0, 0.0, 0.0, 0.010050253985575684, 0.0, 0.0, 0.0, 0.0, 0.0, 0.0, 0.0, 0.0, 0.0, 0.0, 0.0, 0.0, 0.0, 0.0, 0.0, 0.0, 0.0, 0.0, 0.0, 0.0, 0.0)",0.198146110604,0.39985238382,0.00298256135414,-0.005267520673,-0.00220942059913,0.0198365657951,"(0.0, 0.0, 0.0, 0.0, 0.0, 0.0, 0.0, 0.0, 0.0, 0.0, 0.0, 0.0, 0.0, 0.0, 0.0, 0.0, 0.0, 0.0, 0.0, 0.0, 0.0, 0.0, 0.0, 0.0, 0.0, 0.0, 0.0, 0.0, 0.0, 0.0, 0.0, 0.0, 0.0, 0.0, 0.0, 0.0)"
1970/01/01/01:00:12.066000,78,12,65000000,map,map,0.731738893222,1.7521247865,-0.564308406414,-4.63035402862e-05,-0.000219989241854,-0.701137445324,-0.713026130887,"(0.19826723532853302, 0.0, 0.0, 0.0, 0.0, 0.0, 0.0, 0.04236485992588226, 0.0, 0.0, 0.0, 0.0, 0.0, 0.0, 0.010102527878734589, 0.0, 0.0, 0.0, 0.0, 0.0, 0.0, 0.0, 0.0, 0.0, 0.0, 0.0, 0.0, 0.0, 0.0, 0.0, 0.0, 0.0, 0.0, 0.0, 0.0, 0.0)",0.198822111198,0.399867145438,-0.00672771961633,-0.0010152813798,-0.00871434415705,0.016201234583,"(0.0, 0.0, 0.0, 0.0, 0.0, 0.0, 0.0, 0.0, 0.0, 0.0, 0.0, 0.0, 0.0, 0.0, 0.0, 0.0, 0.0, 0.0, 0.0, 0.0, 0.0, 0.0, 0.0, 0.0, 0.0, 0.0, 0.0, 0.0, 0.0, 0.0, 0.0, 0.0, 0.0, 0.0, 0.0, 0.0)"
1970/01/01/01:00:12.086000,79,12,85000000,map,map,0.731240168478,1.75260622153,-0.579398664296,-3.52837548926e-05,-0.000241690433951,-0.701321812103,-0.712844882975,"(0.20854036604341147, 0.0, 0.0, 0.0, 0.0, 0.0, 0.0, 0.052427142156522465, 0.0, 0.0, 0.0, 0.0, 0.0, 0.0, 0.010102254849679798, 0.0, 0.0, 0.0, 0.0, 0.0, 0.0, 0.0, 0.0, 0.0, 0.0, 0.0, 0.0, 0.0, 0.0, 0.0, 0.0, 0.0, 0.0, 0.0, 0.0, 0.0)",0.199244944628,0.399880430894,-0.0178289034377,-0.00361558151477,0.00174227635948,0.0246726972184,"(0.0, 0.0, 0.0, 0.0, 0.0, 0.0, 0.0, 0.0, 0.0, 0.0, 0.0, 0.0, 0.0, 0.0, 0.0, 0.0, 0.0, 0.0, 0.0, 0.0, 0.0, 0.0, 0.0, 0.0, 0.0, 0.0, 0.0, 0.0, 0.0, 0.0, 0.0, 0.0, 0.0, 0.0, 0.0, 0.0)"
1970/01/01/01:00:12.129000,80,12,106000000,map,map,0.730753947025,1.75309825424,-0.554553358065,-8.00035882449e-05,-0.000288349701459,-0.701387721213,-0.712779901096,"(0.21882765102666776, 0.0, 0.0, 0.0, 0.0, 0.0, 0.0, 0.06250297729398974, 0.0, 0.0, 0.0, 0.0, 0.0, 0.0, 0.010102291581022601, 0.0, 0.0, 0.0, 0.0, 0.0, 0.0, 0.0, 0.0, 0.0, 0.0, 0.0, 0.0, 0.0, 0.0, 0.0, 0.0, 0.0, 0.0, 0.0, 0.0, 0.0)",0.199456565207,0.39989298565,-0.0533263789539,0.00148271662285,0.00954221671614,0.0123963611854,"(0.0, 0.0, 0.0, 0.0, 0.0, 0.0, 0.0, 0.0, 0.0, 0.0, 0.0, 0.0, 0.0, 0.0, 0.0, 0.0, 0.0, 0.0, 0.0, 0.0, 0.0, 0.0, 0.0, 0.0, 0.0, 0.0, 0.0, 0.0, 0.0, 0.0, 0.0, 0.0, 0.0, 0.0, 0.0, 0.0)"
1970/01/01/01:00:12.129000,81,12,125000000,map,map,0.73021888904,1.75363930604,-0.554507454734,9.41139333052e-06,-0.000256445987992,-0.701468119619,-0.712700767095,"(0.2291600996532022, 0.0, 0.0, 0.0, 0.0, 0.0, 0.0, 0.07260213866989781, 0.0, 0.0, 0.0, 0.0, 0.0, 0.0, 0.010103019718809805, 0.0, 0.0, 0.0, 0.0, 0.0, 0.0, 0.0, 0.0, 0.0, 0.0, 0.0, 0.0, 0.0, 0.0, 0.0, 0.0, 0.0, 0.0, 0.0, 0.0, 0.0)",0.199450453609,0.399903152013,-0.0387674095965,-0.00570298047493,-0.00744357370743,0.0122484331919,"(0.0, 0.0, 0.0, 0.0, 0.0, 0.0, 0.0, 0.0, 0.0, 0.0, 0.0, 0.0, 0.0, 0.0, 0.0, 0.0, 0.0, 0.0, 0.0, 0.0, 0.0, 0.0, 0.0, 0.0, 0.0, 0.0, 0.0, 0.0, 0.0, 0.0, 0.0, 0.0, 0.0, 0.0, 0.0, 0.0)"
1970/01/01/01:00:12.172000,82,12,145000000,map,map,0.729781115544,1.75408198482,-0.565010669308,-1.47722748976e-05,-0.000222810806668,-0.701544674759,-0.712625560653,"(0.23944497636655265, 0.0, 0.0, 0.0, 0.0, 0.0, 0.0, 0.08269560444825799, 0.0, 0.0, 0.0, 0.0, 0.0, 0.0, 9.950524859653126e-05, 0.0, 0.0, 0.0, 0.0, 0.0, 0.0, 0.0, 0.0, 0.0, 0.0, 0.0, 0.0, 0.0, 0.0, 0.0, 0.0, 0.0, 0.0, 0.0, 0.0, 0.0)",0.199271642199,0.399912836812,-0.0245887983466,0.00579449587317,0.00126672455681,0.0121413152367,"(0.0, 0.0, 0.0, 0.0, 0.0, 0.0, 0.0, 0.0, 0.0, 0.0, 0.0, 0.0, 0.0, 0.0, 0.0, 0.0, 0.0, 0.0, 0.0, 0.0, 0.0, 0.0, 0.0, 0.0, 0.0, 0.0, 0.0, 0.0, 0.0, 0.0, 0.0, 0.0, 0.0, 0.0, 0.0, 0.0)"
1970/01/01/01:00:12.172000,83,12,165000000,map,map,0.729294702304,1.75457385021,-0.591673107238,2.65256377142e-05,-0.000327486898671,-0.701553788357,-0.712616447056,"(0.24977517632256305, 0.0, 0.0, 0.0, 0.0, 0.0, 0.0, 0.0928125560646026, 0.0, 0.0, 0.0, 0.0, 0.0, 0.0, 9.901988611975584e-05, 0.0, 0.0, 0.0, 0.0, 0.0, 0.0, 0.0, 0.0, 0.0, 0.0, 0.0, 0.0, 0.0, 0.0, 0.0, 0.0, 0.0, 0.0, 0.0, 0.0, 0.0)",0.198933640627,0.399921553131,-0.0294590199838,-0.00962048994371,0.00147124736124,0.000605879648892,"(0.0, 0.0, 0.0, 0.0, 0.0, 0.0, 0.0, 0.0, 0.0, 0.0, 0.0, 0.0, 0.0, 0.0, 0.0, 0.0, 0.0, 0.0, 0.0, 0.0, 0.0, 0.0, 0.0, 0.0, 0.0, 0.0, 0.0, 0.0, 0.0, 0.0, 0.0, 0.0, 0.0, 0.0, 0.0, 0.0)"
1970/01/01/01:00:12.216000,84,12,185000000,map,map,0.708229393627,1.78157417505,-0.577500413361,0.000126718183781,-0.000270409796609,-0.701578966818,-0.712591774357,"(0.20765201811559358, 0.0, 0.0, 0.0, 0.0, 0.0, 0.0, 0.03253173353650353, 0.0, 0.0, 0.0, 0.0, 0.0, 0.0, 9.901289215979093e-05, 0.0, 0.0, 0.0, 0.0, 0.0, 0.0, 0.0, 0.0, 0.0, 0.0, 0.0, 0.0, 0.0, 0.0, 0.0, 0.0, 0.0, 0.0, 0.0, 0.0, 0.0)",0.198450565369,0.399929397818,-0.0769729672317,0.000847489985533,-0.00956144780073,0.00687328579547,"(0.0, 0.0, 0.0, 0.0, 0.0, 0.0, 0.0, 0.0, 0.0, 0.0, 0.0, 0.0, 0.0, 0.0, 0.0, 0.0, 0.0, 0.0, 0.0, 0.0, 0.0, 0.0, 0.0, 0.0, 0.0, 0.0, 0.0, 0.0, 0.0, 0.0, 0.0, 0.0, 0.0, 0.0, 0.0, 0.0)"
1970/01/01/01:00:12.216000,85,12,205000000,map,map,0.707730110999,1.78208123849,-0.579156779988,4.49186829246e-05,-0.000258475653035,-0.701637957589,-0.712533710817,"(0.21794020948202994, 0.0, 0.0, 0.0, 0.0, 0.0, 0.0, 0.04258215301665626, 0.0, 0.0, 0.0, 0.0, 0.0, 0.0, 9.9019846450039e-05, 0.0, 0.0, 0.0, 0.0, 0.0, 0.0, 0.0, 0.0, 0.0, 0.0, 0.0, 0.0, 0.0, 0.0, 0.0, 0.0, 0.0, 0.0, 0.0, 0.0, 0.0)",0.197014038377,0.399936458036,-0.0903810012353,0.00876961460751,0.00485143591226,0.0062412359972,"(0.0, 0.0, 0.0, 0.0, 0.0, 0.0, 0.0, 0.0, 0.0, 0.0, 0.0, 0.0, 0.0, 0.0, 0.0, 0.0, 0.0, 0.0, 0.0, 0.0, 0.0, 0.0, 0.0, 0.0, 0.0, 0.0, 0.0, 0.0, 0.0, 0.0, 0.0, 0.0, 0.0, 0.0, 0.0, 0.0)"
1970/01/01/01:00:12.258000,86,12,225000000,map,map,0.7071797207,1.782641912,-0.569333607791,5.50460633367e-05,-0.00020226734096,-0.701700860114,-0.712471735522,"(0.22827406557629687, 0.0, 0.0, 0.0, 0.0, 0.0, 0.0, 0.05265377008166274, 0.0, 0.0, 0.0, 0.0, 0.0, 0.0, 9.901992101553568e-05, 0.0, 0.0, 0.0, 0.0, 0.0, 0.0, 0.0, 0.0, 0.0, 0.0, 0.0, 0.0, 0.0, 0.0, 0.0, 0.0, 0.0, 0.0, 0.0, 0.0, 0.0)",0.195542432327,0.399942812232,-0.10130227391,0.0056602346067,-0.00480588628191,0.00813505626512,"(0.0, 0.0, 0.0, 0.0, 0.0, 0.0, 0.0, 0.0, 0.0, 0.0, 0.0, 0.0, 0.0, 0.0, 0.0, 0.0, 0.0, 0.0, 0.0, 0.0, 0.0, 0.0, 0.0, 0.0, 0.0, 0.0, 0.0, 0.0, 0.0, 0.0, 0.0, 0.0, 0.0, 0.0, 0.0, 0.0)"
1970/01/01/01:00:12.258000,87,12,246000000,map,map,0.706729450629,1.7831005278,-0.581003446952,3.47183635634e-05,-0.000207099364984,-0.701779657269,-0.712394202772,"(0.23856041062361605, 0.0, 0.0, 0.0, 0.0, 0.0, 0.0, 0.06272500278099925, 0.0, 0.0, 0.0, 0.0, 0.0, 0.0, 9.901979109606639e-05, 0.0, 0.0, 0.0, 0.0, 0.0, 0.0, 0.0, 0.0, 0.0, 0.0, 0.0, 0.0, 0.0, 0.0, 0.0, 0.0, 0.0, 0.0, 0.0, 0.0, 0.0)",0.193963156424,0.399948816948,-0.0901222565672,-0.00755727917097,2.16192395036e-05,0.0107870773373,"(0.0, 0.0, 0.0, 0.0, 0.0, 0.0, 0.0, 0.0, 0.0, 0.0, 0.0, 0.0, 0.0, 0.0, 0.0, 0.0, 0.0, 0.0, 0.0, 0.0, 0.0, 0.0, 0.0, 0.0, 0.0, 0.0, 0.0, 0.0, 0.0, 0.0, 0.0, 0.0, 0.0, 0.0, 0.0, 0.0)"
1970/01/01/01:00:12.303000,88,12,265000000,map,map,0.706254163847,1.783584624,-0.581109826365,8.61704562618e-05,-0.000240203399293,-0.701869873257,-0.712305166896,"(0.2488756171229387, 0.0, 0.0, 0.0, 0.0, 0.0, 0.0, 0.07281260616303578, 0.0, 0.0, 0.0, 0.0, 0.0, 0.0, 9.90198246003056e-05, 0.0, 0.0, 0.0, 0.0, 0.0, 0.0, 0.0, 0.0, 0.0, 0.0, 0.0, 0.0, 0.0, 0.0, 0.0, 0.0, 0.0, 0.0, 0.0, 0.0, 0.0)",0.192511165838,0.399953679338,-0.0972401508079,-9.84643949505e-05,0.0039090845099,0.0119377863796,"(0.0, 0.0, 0.0, 0.0, 0.0, 0.0, 0.0, 0.0, 0.0, 0.0, 0.0, 0.0, 0.0, 0.0, 0.0, 0.0, 0.0, 0.0, 0.0, 0.0, 0.0, 0.0, 0.0, 0.0, 0.0, 0.0, 0.0, 0.0, 0.0, 0.0, 0.0, 0.0, 0.0, 0.0, 0.0, 0.0)"
