time,.header.seq,.header.stamp.secs,.header.stamp.nsecs,.header.frame_id,.position,.velocity,.acceleration
1970/01/01/01:00:00.470000,1,0,469000000,,-0.527978777885,0.0466133020818,-0.00217340770178
1970/01/01/01:00:00.470000,2,0,470000000,,-0.527932167053,0.0466111265123,-0.00217800820246
1970/01/01/01:00:00.490000,3,0,489000000,,-0.527046978474,0.0465689152479,-0.00226537510753
1970/01/01/01:00:00.508000,4,0,508000000,,-0.526162564754,0.0465250425041,-0.00235266145319
1970/01/01/01:00:00.528000,5,0,528000000,,-0.525232553482,0.0464770719409,-0.00244445120916
1970/01/01/01:00:00.549000,6,0,548000000,,-0.524303495884,0.0464272648096,-0.00253614434041
1970/01/01/01:00:00.568000,7,0,568000000,,-0.523375451565,0.0463756248355,-0.00262773758732
1970/01/01/01:00:00.589000,8,0,589000000,,-0.52240216732,0.0463194362819,-0.00272379862145
1970/01/01/01:00:00.609000,9,0,608000000,,-0.521522581577,0.0462668575346,-0.00281060882844
1970/01/01/01:00:00.629000,10,0,629000000,,-0.520597815514,0.0462097339332,-0.00290187983774
1970/01/01/01:00:00.648000,11,0,648000000,,-0.519674181938,0.0461507812142,-0.00299303629436
1970/01/01/01:00:00.671000,12,0,671000000,,-0.518613517284,0.046080738306,-0.00309771997854
1970/01/01/01:00:00.688000,13,0,688000000,,-0.517830610275,0.0460274219513,-0.0031749913469
1970/01/01/01:00:00.709000,14,0,709000000,,-0.516910731792,0.045963011682,-0.00326578249224
1970/01/01/01:00:00.731000,15,0,731000000,,-0.515900313854,0.0458900667727,-0.00336550385691
1970/01/01/01:00:00.748000,16,0,748000000,,-0.515074849129,0.045828755945,-0.00344697455876
1970/01/01/01:00:00.768000,17,0,768000000,,-0.514158964157,0.0457589104772,-0.00353736826219
1970/01/01/01:00:00.789000,18,0,788000000,,-0.513244509697,0.0456872619689,-0.00362762226723
1970/01/01/01:00:00.809000,19,0,808000000,,-0.512331485748,0.0456138066947,-0.00371773308143
1970/01/01/01:00:00.828000,20,0,828000000,,-0.511419951916,0.0455385521054,-0.00380769721232
1970/01/01/01:00:00.849000,21,0,848000000,,-0.510509967804,0.0454615019262,-0.00389751093462
1970/01/01/01:00:00.869000,22,0,868000000,,-0.509601533413,0.045382656157,-0.00398717075586
1970/01/01/01:00:00.889000,23,0,888000000,,-0.508694648743,0.0453020147979,-0.00407667318359
1970/01/01/01:00:00.910000,24,0,909000000,,-0.507744252682,0.0452154204249,-0.00417047785595
1970/01/01/01:00:00.929000,25,0,929000000,,-0.506885886192,0.0451353751123,-0.00425519188866
1970/01/01/01:00:00.949000,26,0,949000000,,-0.505939006805,0.0450450368226,-0.00434864684939
1970/01/01/01:00:00.969000,27,0,968000000,,-0.505083918571,0.0449616089463,-0.00443303864449
1970/01/01/01:00:00.993000,28,0,993000000,,-0.503961265087,0.0448493994772,-0.00454383902252
1970/01/01/01:00:01.009000,29,1,8000000,,-0.503289043903,0.044780742377,-0.00461018504575
1970/01/01/01:00:01.028000,30,1,28000000,,-0.502394378185,0.0446876548231,-0.00469848746434
1970/01/01/01:00:01.049000,31,1,49000000,,-0.501501560211,0.0445928052068,-0.00478660361841
1970/01/01/01:00:01.069000,32,1,69000000,,-0.500610649586,0.0444961935282,-0.00487453164533
1970/01/01/01:00:01.088000,33,1,88000000,,-0.499721735716,0.0443978235126,-0.00496226642281
1970/01/01/01:00:01.120000,34,1,120000000,,-0.498303562403,0.0442367903888,-0.00510223396122
1970/01/01/01:00:01.129000,35,1,128000000,,-0.497949838638,0.0441958345473,-0.00513714598492
1970/01/01/01:00:01.148000,36,1,148000000,,-0.497066944838,0.0440922193229,-0.00522428285331
1970/01/01/01:00:01.169000,37,1,168000000,,-0.496186167002,0.043986864388,-0.0053112138994
1970/01/01/01:00:01.188000,38,1,188000000,,-0.495307475328,0.0438797697425,-0.00539793493226
1970/01/01/01:00:01.209000,39,1,208000000,,-0.494430989027,0.0437709465623,-0.00548444315791
1970/01/01/01:00:01.228000,40,1,228000000,,-0.493556648493,0.0436603948474,-0.0055707343854
1970/01/01/01:00:01.249000,41,1,248000000,,-0.492684572935,0.0435481183231,-0.00565680628642
1970/01/01/01:00:01.269000,42,1,268000000,,-0.491814732552,0.04343412444,-0.00574265467003
1970/01/01/01:00:01.289000,43,1,289000000,,-0.490903913975,0.0433125831187,-0.00583255104721
1970/01/01/01:00:01.309000,44,1,308000000,,-0.490082025528,0.0432009957731,-0.00591366784647
1970/01/01/01:00:01.328000,45,1,328000000,,-0.48921918869,0.0430818684399,-0.00599882565439
1970/01/01/01:00:01.349000,46,1,349000000,,-0.488358765841,0.0429610423744,-0.00608374690637
1970/01/01/01:00:01.368000,47,1,368000000,,-0.487500756979,0.0428385213017,-0.00616842787713
1970/01/01/01:00:01.388000,48,1,388000000,,-0.48664522171,0.0427143089473,-0.00625286530703
1970/01/01/01:00:01.409000,49,1,408000000,,-0.485792189837,0.0425884090364,-0.00633705640212
1970/01/01/01:00:01.429000,50,1,428000000,,-0.48494169116,0.0424608290195,-0.00642099650577
1970/01/01/01:00:01.449000,51,1,448000000,,-0.484093785286,0.0423315688968,-0.00650468375534
1970/01/01/01:00:01.469000,52,1,469000000,,-0.483248442411,0.0422006435692,-0.00658811395988
1970/01/01/01:00:01.488000,53,1,488000000,,-0.482405751944,0.0420680455863,-0.00667128385976
1970/01/01/01:00:01.509000,54,1,508000000,,-0.481565743685,0.0419337935746,-0.00675419066101
1970/01/01/01:00:01.529000,55,1,529000000,,-0.480686634779,0.0417910441756,-0.00684095593169
1970/01/01/01:00:01.549000,56,1,548000000,,-0.479893833399,0.0416603200138,-0.0069192009978
1970/01/01/01:00:01.569000,57,1,568000000,,-0.479062020779,0.0415211170912,-0.00700129801407
1970/01/01/01:00:01.588000,58,1,588000000,,-0.478233009577,0.0413802713156,-0.00708311889321
1970/01/01/01:00:01.609000,59,1,608000000,,-0.477406829596,0.0412377938628,-0.0071646599099
1970/01/01/01:00:01.629000,60,1,628000000,,-0.476583510637,0.0410936847329,-0.0072459182702
1970/01/01/01:00:01.648000,61,1,648000000,,-0.475763082504,0.040947958827,-0.00732689024881
1970/01/01/01:00:01.668000,62,1,668000000,,-0.474945604801,0.0408006124198,-0.00740757305175
1970/01/01/01:00:01.688000,63,1,688000000,,-0.474131077528,0.0406516566873,-0.00748796341941
1970/01/01/01:00:01.708000,64,1,708000000,,-0.473319530487,0.0405010953546,-0.00756805855781
1970/01/01/01:00:01.729000,65,1,729000000,,-0.472511023283,0.0403489358723,-0.007647854276
1970/01/01/01:00:01.748000,66,1,748000000,,-0.471705585718,0.0401951819658,-0.00772734871134
1970/01/01/01:00:01.769000,67,1,768000000,,-0.470903247595,0.040039844811,-0.00780653767288
1970/01/01/01:00:01.788000,68,1,788000000,,-0.470104008913,0.0398829244077,-0.0078854188323
1970/01/01/01:00:01.808000,69,1,808000000,,-0.469307929277,0.0397244282067,-0.00796398799866
1970/01/01/01:00:01.829000,70,1,829000000,,-0.46851503849,0.0395643673837,-0.00804224330932
1970/01/01/01:00:01.849000,71,1,849000000,,-0.467725366354,0.0394027419388,-0.00812018103898
1970/01/01/01:00:01.869000,72,1,868000000,,-0.466938942671,0.0392395630479,-0.00819779839367
1970/01/01/01:00:01.889000,73,1,889000000,,-0.466155797243,0.0390748307109,-0.0082750916481
1970/01/01/01:00:01.908000,74,1,908000000,,-0.465375959873,0.038908559829,-0.00835205800831
1970/01/01/01:00:01.928000,75,1,928000000,,-0.464599460363,0.0387407504022,-0.00842869561166
1970/01/01/01:00:01.949000,76,1,948000000,,-0.463826328516,0.0385714136064,-0.00850499980152
1970/01/01/01:00:01.968000,77,1,968000000,,-0.463056623936,0.0384005531669,-0.00858096778393
1970/01/01/01:00:02.001000,78,2,0,,-0.461832225323,0.0381240285933,-0.0087018115446
1970/01/01/01:00:02.009000,79,2,9000000,,-0.461489439011,0.0380455590785,-0.0087356409058
1970/01/01/01:00:02.029000,80,2,28000000,,-0.460768163204,0.0378789044917,-0.00880682934076
1970/01/01/01:00:02.050000,81,2,48000000,,-0.460012346506,0.0377020202577,-0.00888142455369
1970/01/01/01:00:02.068000,82,2,68000000,,-0.459260106087,0.0375236496329,-0.00895566958934
1970/01/01/01:00:02.089000,83,2,88000000,,-0.458511412144,0.0373437963426,-0.00902956165373
1970/01/01/01:00:02.109000,84,2,109000000,,-0.457766354084,0.0371624715626,-0.00910309609026
1970/01/01/01:00:02.128000,85,2,128000000,,-0.457024931908,0.036979675293,-0.00917627196759
1970/01/01/01:00:02.149000,86,2,149000000,,-0.456250369549,0.036786172539,-0.00925271585584
1970/01/01/01:00:02.168000,87,2,168000000,,-0.455553114414,0.0366097167134,-0.00932153314352
1970/01/01/01:00:02.189000,88,2,188000000,,-0.454822808504,0.0364225618541,-0.00939361378551
1970/01/01/01:00:02.209000,89,2,209000000,,-0.45405998826,0.0362245067954,-0.00946889910847
1970/01/01/01:00:02.229000,90,2,229000000,,-0.453373432159,0.0360439531505,-0.00953665841371
1970/01/01/01:00:02.249000,91,2,248000000,,-0.452654480934,0.0358525104821,-0.00960761774331
1970/01/01/01:00:02.269000,92,2,268000000,,-0.451939344406,0.0356596522033,-0.00967819802463
1970/01/01/01:00:02.288000,93,2,288000000,,-0.451228111982,0.0354653820395,-0.00974839553237
1970/01/01/01:00:02.309000,94,2,308000000,,-0.45052075386,0.0352697186172,-0.00981820840389
1970/01/01/01:00:02.329000,95,2,329000000,,-0.449782252312,0.0350627675653,-0.0098910946399
1970/01/01/01:00:02.349000,96,2,349000000,,-0.449082970619,0.0348642542958,-0.00996011029929
1970/01/01/01:00:02.369000,97,2,369000000,,-0.448422372341,0.0346743948758,-0.0100253112614
1970/01/01/01:00:02.389000,98,2,388000000,,-0.447730898857,0.0344732031226,-0.010093556717
1970/01/01/01:00:02.408000,99,2,408000000,,-0.447043448687,0.0342706553638,-0.0101614044979
1970/01/01/01:00:02.429000,100,2,429000000,,-0.44632601738,0.0340565219522,-0.0102322129533
1970/01/01/01:00:02.450000,101,2,449000000,,-0.44564691186,0.0338512063026,-0.0102992355824
1970/01/01/01:00:02.469000,102,2,468000000,,-0.445005625486,0.0336549170315,-0.0103625301272
1970/01/01/01:00:02.491000,103,2,490000000,,-0.444267719984,0.0334261395037,-0.0104353576899
1970/01/01/01:00:02.509000,104,2,509000000,,-0.44366773963,0.0332377701998,-0.0104945730418
1970/01/01/01:00:02.528000,105,2,528000000,,-0.443005084991,0.0330272242427,-0.0105599742383
1970/01/01/01:00:02.549000,106,2,548000000,,-0.442346662283,0.032815374434,-0.0106249582022
1970/01/01/01:00:02.569000,107,2,568000000,,-0.441692501307,0.0326022282243,-0.0106895230711
1970/01/01/01:00:02.588000,108,2,588000000,,-0.44104257226,0.0323877967894,-0.0107536660507
1970/01/01/01:00:02.609000,109,2,608000000,,-0.440396994352,0.0321720838547,-0.0108173843473
1970/01/01/01:00:02.629000,110,2,628000000,,-0.439755707979,0.0319551043212,-0.0108806751668
1970/01/01/01:00:02.649000,111,2,648000000,,-0.439118772745,0.0317368619144,-0.0109435366467
1970/01/01/01:00:02.668000,112,2,668000000,,-0.438486248255,0.0315173640847,-0.0110059669241
1970/01/01/01:00:02.688000,113,2,688000000,,-0.437858104706,0.0312966257334,-0.0110679613426
1970/01/01/01:00:02.709000,114,2,708000000,,-0.437234371901,0.031074648723,-0.0111295199022
1970/01/01/01:00:02.729000,115,2,728000000,,-0.436615109444,0.0308514479548,-0.0111906388775
1970/01/01/01:00:02.749000,116,2,749000000,,-0.436000347137,0.030627027154,-0.0112513154745
1970/01/01/01:00:02.769000,117,2,768000000,,-0.43539005518,0.0304013974965,-0.011311548762
1970/01/01/01:00:02.789000,118,2,789000000,,-0.434754133224,0.0301631949842,-0.011374312453
1970/01/01/01:00:02.808000,119,2,808000000,,-0.434183061123,0.0299465470016,-0.0114306723699
1970/01/01/01:00:02.830000,120,2,829000000,,-0.433556735516,0.0297058522701,-0.0114924907684
1970/01/01/01:00:02.849000,121,2,849000000,,-0.432994395494,0.0294869672507,-0.0115479910746
1970/01/01/01:00:02.869000,122,2,869000000,,-0.432406961918,0.0292554274201,-0.0116059677675
1970/01/01/01:00:02.888000,123,2,888000000,,-0.431824177504,0.0290227327496,-0.0116634862497
1970/01/01/01:00:02.909000,124,2,908000000,,-0.431246072054,0.0287888906896,-0.0117205437273
1970/01/01/01:00:02.931000,125,2,930000000,,-0.430644094944,0.0285421349108,-0.0117799565196
1970/01/01/01:00:02.949000,126,2,949000000,,-0.430103927851,0.0283178091049,-0.0118332691491
1970/01/01/01:00:02.969000,127,2,969000000,,-0.4295399189,0.028080586344,-0.0118889324367
1970/01/01/01:00:02.989000,128,2,989000000,,-0.428952872753,0.0278303083032,-0.0119468737394
1970/01/01/01:00:03.009000,129,3,9000000,,-0.428426235914,0.0276028234512,-0.0119988489896
1970/01/01/01:00:03.029000,130,3,29000000,,-0.427876591682,0.0273623038083,-0.0120530975983
1970/01/01/01:00:03.049000,131,3,48000000,,-0.427331745625,0.0271207038313,-0.0121068703011
1970/01/01/01:00:03.069000,132,3,69000000,,-0.426791757345,0.0268780328333,-0.0121601652354
1970/01/01/01:00:03.089000,133,3,88000000,,-0.426256656647,0.0266343001276,-0.0122129796073
1970/01/01/01:00:03.110000,134,3,110000000,,-0.425726413727,0.02638951689,-0.0122653124854
1970/01/01/01:00:03.129000,135,3,128000000,,-0.425201058388,0.0261436905712,-0.0123171601444
1970/01/01/01:00:03.151000,136,3,150000000,,-0.4246288836,0.0258720908314,-0.0123736318201
1970/01/01/01:00:03.169000,137,3,168000000,,-0.424165219069,0.0256489533931,-0.0124193960801
1970/01/01/01:00:03.189000,138,3,188000000,,-0.423654705286,0.0254000611603,-0.0124697797
1970/01/01/01:00:03.208000,139,3,208000000,,-0.423149198294,0.0251501649618,-0.0125196715817
1970/01/01/01:00:03.229000,140,3,229000000,,-0.422648727894,0.0248992759734,-0.0125690679997
1970/01/01/01:00:03.249000,141,3,248000000,,-0.422153234482,0.0246474053711,-0.0126179689541
1970/01/01/01:00:03.268000,142,3,268000000,,-0.421662837267,0.0243945606053,-0.012666371651
1970/01/01/01:00:03.288000,143,3,288000000,,-0.421177476645,0.0241407547146,-0.0127142742276
1970/01/01/01:00:03.309000,144,3,309000000,,-0.420697212219,0.023885993287,-0.0127616748214
1970/01/01/01:00:03.328000,145,3,328000000,,-0.420222043991,0.0236302912235,-0.0128085715696
1970/01/01/01:00:03.348000,146,3,348000000,,-0.419752001762,0.0233736541122,-0.0128549626097
1970/01/01/01:00:03.369000,147,3,369000000,,-0.419263988733,0.0231031924486,-0.0129031278193
1970/01/01/01:00:03.389000,148,3,389000000,,-0.418804496527,0.0228446759284,-0.0129484767094
1970/01/01/01:00:03.408000,149,3,408000000,,-0.418372809887,0.0225982498378,-0.0129910847172
1970/01/01/01:00:03.428000,150,3,428000000,,-0.417923420668,0.0223379842937,-0.0130354342982
1970/01/01/01:00:03.448000,151,3,448000000,,-0.417479276657,0.0220768358558,-0.0130792707205
1970/01/01/01:00:03.468000,152,3,468000000,,-0.417040377855,0.0218148157001,-0.0131225902587
1970/01/01/01:00:03.488000,153,3,488000000,,-0.41660669446,0.0215519350022,-0.0131653910503
1970/01/01/01:00:03.509000,154,3,509000000,,-0.416178286076,0.0212882049382,-0.0132076730952
1970/01/01/01:00:03.529000,155,3,529000000,,-0.415734142065,0.0210103821009,-0.0132515076548
1970/01/01/01:00:03.549000,156,3,549000000,,-0.415316611528,0.0207449384034,-0.0132927186787
1970/01/01/01:00:03.569000,157,3,569000000,,-0.414924860001,0.0204920098186,-0.0133313825354
1970/01/01/01:00:03.589000,158,3,588000000,,-0.41451767087,0.0202249791473,-0.0133715691045
1970/01/01/01:00:03.609000,159,3,609000000,,-0.414095908403,0.0199437383562,-0.0134131964296
1970/01/01/01:00:03.630000,160,3,629000000,,-0.41369971633,0.0196750815958,-0.0134522989392
1970/01/01/01:00:03.650000,161,3,649000000,,-0.413308918476,0.0194056499749,-0.0134908696637
1970/01/01/01:00:03.669000,162,3,668000000,,-0.412942647934,0.0191489774734,-0.0135270198807
1970/01/01/01:00:03.689000,163,3,689000000,,-0.41254350543,0.0188644956797,-0.013566412963
1970/01/01/01:00:03.709000,164,3,709000000,,-0.412187516689,0.0186064001173,-0.0136015461758
1970/01/01/01:00:03.729000,165,3,729000000,,-0.411799788475,0.0183203648776,-0.0136398142204
1970/01/01/01:00:03.748000,166,3,748000000,,-0.411454170942,0.0180608835071,-0.0136739257723
1970/01/01/01:00:03.769000,167,3,769000000,,-0.411095678806,0.0177870504558,-0.0137093067169
1970/01/01/01:00:03.789000,168,3,789000000,,-0.4107427001,0.0175125151873,-0.0137441456318
1970/01/01/01:00:03.809000,169,3,809000000,,-0.410395175219,0.0172372870147,-0.0137784425169
1970/01/01/01:00:03.829000,170,3,828000000,,-0.410053193569,0.0169613808393,-0.0138121955097
1970/01/01/01:00:03.848000,171,3,848000000,,-0.409716725349,0.0166848041117,-0.0138454027474
1970/01/01/01:00:03.868000,172,3,868000000,,-0.409385800362,0.0164075680077,-0.0138780642301
1970/01/01/01:00:03.889000,173,3,889000000,,-0.409044325352,0.0161157734692,-0.0139117687941
1970/01/01/01:00:03.908000,174,3,908000000,,-0.408740639687,0.0158511642367,-0.0139417406172
1970/01/01/01:00:03.927000,175,3,928000000,,-0.408426403999,0.0155720189214,-0.0139727545902
1970/01/01/01:00:03.948000,176,3,948000000,,-0.408117741346,0.0152922580019,-0.014003216289
1970/01/01/01:00:03.968000,177,3,968000000,,-0.407814711332,0.0150118935853,-0.0140331257135
1970/01/01/01:00:03.988000,178,3,988000000,,-0.407517284155,0.0147309368476,-0.014062481001
1970/01/01/01:00:04.009000,179,4,8000000,,-0.407225489616,0.0144493980333,-0.014091280289
1970/01/01/01:00:04.028000,180,4,28000000,,-0.406939297915,0.0141672892496,-0.0141195245087
1970/01/01/01:00:04.049000,181,4,49000000,,-0.406644910574,0.0138704730198,-0.0141485799104
1970/01/01/01:00:04.068000,182,4,68000000,,-0.406383931637,0.0136014046147,-0.0141743384302
1970/01/01/01:00:04.089000,183,4,88000000,,-0.406114727259,0.0133176511154,-0.0142009062693
1970/01/01/01:00:04.109000,184,4,108000000,,-0.405851215124,0.01303337235,-0.0142269134521
1970/01/01/01:00:04.129000,185,4,129000000,,-0.405593395233,0.0127485785633,-0.0142523599789
1970/01/01/01:00:04.148000,186,4,148000000,,-0.405341297388,0.0124632818624,-0.0142772430554
1970/01/01/01:00:04.169000,187,4,169000000,,-0.405082702637,0.0121631901711,-0.0143027631566
1970/01/01/01:00:04.190000,188,4,188000000,,-0.404854178429,0.0118912225589,-0.0143253169954
1970/01/01/01:00:04.209000,189,4,208000000,,-0.404619216919,0.0116044832394,-0.0143485069275
1970/01/01/01:00:04.229000,190,4,228000000,,-0.404390007257,0.0113172866404,-0.0143711296842
1970/01/01/01:00:04.249000,191,4,249000000,,-0.404166549444,0.0110296420753,-0.0143931852654
1970/01/01/01:00:04.269000,192,4,269000000,,-0.403938084841,0.0107271475717,-0.0144157325849
1970/01/01/01:00:04.290000,193,4,289000000,,-0.403736889362,0.010453059338,-0.0144355911762
1970/01/01/01:00:04.315000,194,4,314000000,,-0.40348008275,0.0100918505341,-0.01446093712
1970/01/01/01:00:04.329000,195,4,329000000,,-0.403320461512,0.00986034888774,-0.0144766913727
1970/01/01/01:00:04.349000,196,4,348000000,,-0.403135716915,0.00958511792123,-0.0144949238747
1970/01/01/01:00:04.369000,197,4,368000000,,-0.402946919203,0.00929503235966,-0.0145135577768
1970/01/01/01:00:04.389000,198,4,388000000,,-0.402763932943,0.00900457985699,-0.0145316189155
1970/01/01/01:00:04.410000,199,4,409000000,,-0.402578026056,0.00869922153652,-0.0145499650389
1970/01/01/01:00:04.428000,200,4,428000000,,-0.402415364981,0.00842261873186,-0.0145660191774
1970/01/01/01:00:04.450000,201,4,450000000,,-0.402241706848,0.0081165516749,-0.0145831583068
1970/01/01/01:00:04.470000,202,4,469000000,,-0.402082294226,0.00782473012805,-0.0145988920704
1970/01/01/01:00:04.489000,203,4,488000000,,-0.401936262846,0.00754721323028,-0.0146133052185
1970/01/01/01:00:04.509000,204,4,509000000,,-0.401788234711,0.00725480029359,-0.0146279139444
1970/01/01/01:00:04.528000,205,4,528000000,,-0.401646077633,0.00696210050955,-0.0146419452503
1970/01/01/01:00:04.551000,206,4,550000000,,-0.401496440172,0.0066398140043,-0.0146567132324
1970/01/01/01:00:04.569000,207,4,568000000,,-0.401379317045,0.00637588836253,-0.0146682737395
1970/01/01/01:00:04.589000,208,4,589000000,,-0.401254713535,0.0060823992826,-0.0146805699915
1970/01/01/01:00:04.609000,209,4,608000000,,-0.401136010885,0.0057886694558,-0.0146922860295
1970/01/01/01:00:04.629000,210,4,628000000,,-0.401023179293,0.00549471145496,-0.0147034227848
1970/01/01/01:00:04.649000,211,4,648000000,,-0.400916218758,0.00520053645596,-0.0147139783949
1970/01/01/01:00:04.669000,212,4,668000000,,-0.400815159082,0.00490615610033,-0.014723953791
1970/01/01/01:00:04.694000,213,4,693000000,,-0.400697112083,0.00453790975735,-0.0147356046364
1970/01/01/01:00:04.709000,214,4,708000000,,-0.400630712509,0.00431682635099,-0.0147421592847
1970/01/01/01:00:04.729000,215,4,729000000,,-0.400543302298,0.00400714902207,-0.0147507851943
1970/01/01/01:00:04.749000,216,4,748000000,,-0.400469809771,0.00372681464069,-0.0147580364719
1970/01/01/01:00:04.769000,217,4,768000000,,-0.400398254395,0.0034315821249,-0.014765101485
1970/01/01/01:00:04.789000,218,4,789000000,,-0.400329440832,0.00312144262716,-0.0147718926892
1970/01/01/01:00:04.809000,219,4,808000000,,-0.400272786617,0.00284072267823,-0.0147774834186
1970/01/01/01:00:04.829000,220,4,829000000,,-0.400218933821,0.0025451190304,-0.0147827984765
1970/01/01/01:00:04.850000,221,4,849000000,,-0.400170981884,0.00224941479973,-0.0147875305265
1970/01/01/01:00:04.869000,222,4,868000000,,-0.400128960609,0.00195362162776,-0.0147916786373
1970/01/01/01:00:04.889000,223,4,889000000,,-0.400092840195,0.00165775138885,-0.0147952437401
1970/01/01/01:00:04.910000,224,4,909000000,,-0.400062650442,0.00136181584094,-0.014798223041
1970/01/01/01:00:04.929000,225,4,928000000,,-0.400038361549,0.00106582639273,-0.014800619334
1970/01/01/01:00:04.949000,226,4,949000000,,-0.400019258261,0.000754992419388,-0.0148025061935
1970/01/01/01:00:04.969000,227,4,968000000,,-0.40000757575,0.000473733030958,-0.0148036582395
1970/01/01/01:00:04.989000,228,4,988000000,,-0.400001078844,0.00017765245866,-0.0148043017834
1970/01/01/01:00:05.009000,229,5,8000000,,-0.400000482798,-0.000118435127661,-0.0148043595254
1970/01/01/01:00:05.029000,230,5,29000000,,-0.400006234646,-0.00042932186625,-0.01480379235
1970/01/01/01:00:05.048000,231,5,48000000,,-0.400017052889,-0.000710584572516,-0.0148027231917
1970/01/01/01:00:05.068000,232,5,68000000,,-0.400034219027,-0.00100662303157,-0.0148010281846
1970/01/01/01:00:05.089000,233,5,88000000,,-0.400057315826,-0.001302621793,-0.0147987492383
1970/01/01/01:00:05.110000,234,5,110000000,,-0.400087922812,-0.0016133650206,-0.0147957280278
1970/01/01/01:00:05.129000,235,5,129000000,,-0.400123149157,-0.0019092457369,-0.0147922504693
1970/01/01/01:00:05.149000,236,5,148000000,,-0.400162100792,-0.00219026277773,-0.0147884069011
1970/01/01/01:00:05.170000,237,5,169000000,,-0.400208860636,-0.00248598586768,-0.0147837921977
1970/01/01/01:00:05.189000,238,5,188000000,,-0.400261551142,-0.0027816107031,-0.0147785926238
1970/01/01/01:00:05.208000,239,5,208000000,,-0.400320142508,-0.00307712564245,-0.0147728109732
1970/01/01/01:00:05.229000,240,5,229000000,,-0.400384634733,-0.00337251904421,-0.0147664453834
1970/01/01/01:00:05.249000,241,5,248000000,,-0.400455027819,-0.00366777949966,-0.0147594967857
1970/01/01/01:00:05.269000,242,5,268000000,,-0.400531351566,-0.00396289490163,-0.01475196518
1970/01/01/01:00:05.288000,243,5,288000000,,-0.400613546371,-0.00425785407424,-0.0147438514978
1970/01/01/01:00:05.310000,244,5,309000000,,-0.400701642036,-0.00455264514312,-0.0147351557389
1970/01/01/01:00:05.329000,245,5,329000000,,-0.400795668364,-0.00484725646675,-0.0147258788347
1970/01/01/01:00:05.349000,246,5,348000000,,-0.400895535946,-0.00514167640358,-0.0147160198539
1970/01/01/01:00:05.369000,247,5,369000000,,-0.40100133419,-0.0054358933121,-0.0147055806592
1970/01/01/01:00:05.388000,248,5,388000000,,-0.40111297369,-0.00572989601642,-0.0146945603192
1970/01/01/01:00:05.409000,249,5,409000000,,-0.40123051405,-0.00602367194369,-0.0146829597652
1970/01/01/01:00:05.430000,250,5,429000000,,-0.401360243559,-0.00633188104257,-0.0146701559424
1970/01/01/01:00:05.453000,251,5,452000000,,-0.401483207941,-0.00661049922928,-0.0146580208093
1970/01/01/01:00:05.467000,252,5,468000000,,-0.401618331671,-0.00690352730453,-0.0146446824074
1970/01/01/01:00:05.490000,253,5,488000000,,-0.401759326458,-0.00719628296793,-0.0146307665855
1970/01/01/01:00:05.508000,254,5,508000000,,-0.401906192303,-0.00748875411227,-0.0146162733436
1970/01/01/01:00:05.535000,255,5,535000000,,-0.402113705873,-0.00788311939687,-0.0145957916975
1970/01/01/01:00:05.550000,256,5,549000000,,-0.402217417955,-0.00807279814035,-0.0145855555311
1970/01/01/01:00:05.575000,257,5,574000000,,-0.402432233095,-0.00845174957067,-0.0145643530414
1970/01/01/01:00:05.588000,258,5,588000000,,-0.402552008629,-0.00865556765348,-0.0145525345579
1970/01/01/01:00:05.616000,259,5,616000000,,-0.402790993452,-0.0090481704101,-0.0145289460197
1970/01/01/01:00:05.629000,260,5,628000000,,-0.402909845114,-0.00923697091639,-0.0145172160119
1970/01/01/01:00:05.649000,261,5,649000000,,-0.403097480536,-0.00952713098377,-0.0144986957312
1970/01/01/01:00:05.671000,262,5,670000000,,-0.403310596943,-0.00984587147832,-0.0144776636735
1970/01/01/01:00:05.688000,263,5,688000000,,-0.403490155935,-0.0101063111797,-0.0144599406049
1970/01/01/01:00:05.709000,264,5,709000000,,-0.403695195913,-0.0103953080252,-0.0144397066906
1970/01/01/01:00:05.729000,265,5,729000000,,-0.40390598774,-0.0106838950887,-0.0144189018756
1970/01/01/01:00:05.749000,266,5,748000000,,-0.404122531414,-0.0109720602632,-0.0143975280225
1970/01/01/01:00:05.769000,267,5,768000000,,-0.404344856739,-0.0112597923726,-0.0143755860627
1970/01/01/01:00:05.789000,268,5,788000000,,-0.404572933912,-0.0115470802411,-0.0143530769274
1970/01/01/01:00:05.809000,269,5,809000000,,-0.404806733131,-0.0118339117616,-0.0143300006166
1970/01/01/01:00:05.830000,270,5,829000000,,-0.405058413744,-0.0121345827356,-0.0143051613122
1970/01/01/01:00:05.849000,271,5,849000000,,-0.405303955078,-0.012420443818,-0.0142809264362
1970/01/01/01:00:05.869000,272,5,869000000,,-0.405542522669,-0.01269155927,-0.0142573816702
1970/01/01/01:00:05.889000,273,5,888000000,,-0.405799210072,-0.0129764545709,-0.0142320478335
1970/01/01/01:00:05.909000,274,5,908000000,,-0.406061589718,-0.013260836713,-0.0142061524093
1970/01/01/01:00:05.929000,275,5,929000000,,-0.406329631805,-0.0135446963832,-0.0141796963289
1970/01/01/01:00:05.949000,276,5,948000000,,-0.406603366137,-0.0138280214742,-0.0141526805237
1970/01/01/01:00:05.970000,277,5,968000000,,-0.406882762909,-0.0141107998788,-0.0141251059249
1970/01/01/01:00:05.989000,278,5,989000000,,-0.40716779232,-0.0143930213526,-0.0140969734639
1970/01/01/01:00:06.010000,279,6,9000000,,-0.407458484173,-0.0146746756509,-0.0140682850033
1970/01/01/01:00:06.032000,280,6,31000000,,-0.407799690962,-0.0149978604168,-0.0140346065164
1970/01/01/01:00:06.049000,281,6,48000000,,-0.40805670619,-0.0152362333611,-0.0140092428774
1970/01/01/01:00:06.069000,282,6,68000000,,-0.408364206553,-0.0155161153525,-0.0139788910747
1970/01/01/01:00:06.090000,283,6,89000000,,-0.408677339554,-0.015795385465,-0.013947987929
1970/01/01/01:00:06.110000,284,6,109000000,,-0.409012109041,-0.0160879474133,-0.0139149464667
1970/01/01/01:00:06.129000,285,6,129000000,,-0.409320294857,-0.0163520425558,-0.0138845304027
1970/01/01/01:00:06.148000,286,6,148000000,,-0.409650117159,-0.016629409045,-0.0138519788161
1970/01/01/01:00:06.172000,287,6,171000000,,-0.40998545289,-0.0169061180204,-0.0138188805431
1970/01/01/01:00:06.189000,288,6,188000000,,-0.410326361656,-0.0171821601689,-0.0137852365151
1970/01/01/01:00:06.210000,289,6,209000000,,-0.410672754049,-0.0174575243145,-0.0137510485947
1970/01/01/01:00:06.229000,290,6,229000000,,-0.411024659872,-0.0177321992815,-0.0137163177133
1970/01/01/01:00:06.249000,291,6,249000000,,-0.41138201952,-0.0180061738938,-0.0136810448021
1970/01/01/01:00:06.269000,292,6,269000000,,-0.411744892597,-0.0182794369757,-0.0136452326551
1970/01/01/01:00:06.289000,293,6,288000000,,-0.412113189697,-0.018551979214,-0.0136088812724
1970/01/01/01:00:06.310000,294,6,309000000,,-0.412486970425,-0.0188237894326,-0.0135719925165
1970/01/01/01:00:06.330000,295,6,329000000,,-0.412866145372,-0.0190948545933,-0.0135345682502
1970/01/01/01:00:06.350000,296,6,349000000,,-0.413270115852,-0.019378663972,-0.0134946983308
1970/01/01/01:00:06.369000,297,6,369000000,,-0.413640737534,-0.0196347162127,-0.013458118774
1970/01/01/01:00:06.390000,298,6,389000000,,-0.414056032896,-0.0199169069529,-0.0134171303362
1970/01/01/01:00:06.415000,299,6,412000000,,-0.41451767087,-0.0202249791473,-0.0133715691045
1970/01/01/01:00:06.429000,300,6,428000000,,-0.414842993021,-0.0204386673868,-0.0133394626901
1970/01/01/01:00:06.449000,301,6,448000000,,-0.415254414082,-0.0207050517201,-0.0132988551632
1970/01/01/01:00:06.470000,302,6,469000000,,-0.415692150593,-0.0209838747978,-0.0132556520402
1970/01/01/01:00:06.489000,303,6,488000000,,-0.41609326005,-0.0212353561074,-0.0132160671055
1970/01/01/01:00:06.510000,304,6,508000000,,-0.416520595551,-0.0214992575347,-0.0131738893688
1970/01/01/01:00:06.529000,305,6,528000000,,-0.416953206062,-0.0217623095959,-0.013131191954
1970/01/01/01:00:06.549000,306,6,548000000,,-0.417391091585,-0.0220245011151,-0.0130879757926
1970/01/01/01:00:06.570000,307,6,569000000,,-0.417834192514,-0.0222858246416,-0.0130442427471
1970/01/01/01:00:06.590000,308,6,589000000,,-0.41828250885,-0.0225462671369,-0.0129999956116
1970/01/01/01:00:06.609000,309,6,608000000,,-0.418736040592,-0.0228058211505,-0.012955234386
1970/01/01/01:00:06.630000,310,6,629000000,,-0.419194728136,-0.0230644736439,-0.0129099618644
1970/01/01/01:00:06.649000,311,6,648000000,,-0.419658601284,-0.0233222153038,-0.0128641799092
1970/01/01/01:00:06.670000,312,6,669000000,,-0.420127630234,-0.023579036817,-0.0128178903833
1970/01/01/01:00:06.689000,313,6,689000000,,-0.420601755381,-0.0238349288702,-0.0127710942179
1970/01/01/01:00:06.709000,314,6,708000000,,-0.421081006527,-0.024089878425,-0.012723794207
1970/01/01/01:00:06.730000,315,6,729000000,,-0.42156535387,-0.0243438761681,-0.0126759922132
1970/01/01/01:00:06.749000,316,6,749000000,,-0.422054767609,-0.024596914649,-0.0126276891679
1970/01/01/01:00:06.768000,317,6,768000000,,-0.422549217939,-0.0248489808291,-0.0125788878649
1970/01/01/01:00:06.789000,318,6,788000000,,-0.423048704863,-0.0251000672579,-0.0125295901671
1970/01/01/01:00:06.810000,319,6,809000000,,-0.423553198576,-0.0253501608968,-0.012479797937
1970/01/01/01:00:06.829000,320,6,829000000,,-0.42406269908,-0.0255992542952,-0.0124295121059
1970/01/01/01:00:06.849000,321,6,849000000,,-0.424603015184,-0.025859715417,-0.0123761845753
1970/01/01/01:00:06.869000,322,6,869000000,,-0.425096601248,-0.0260944012552,-0.012327471748
1970/01/01/01:00:06.889000,323,6,888000000,,-0.425620943308,-0.0263404343277,-0.0122757209465
1970/01/01/01:00:06.909000,324,6,909000000,,-0.426176786423,-0.026597648859,-0.0122208604589
1970/01/01/01:00:06.929000,325,6,928000000,,-0.426684349775,-0.0268293693662,-0.0121707664803
1970/01/01/01:00:06.949000,326,6,949000000,,-0.42722338438,-0.0270722545683,-0.0121175674722
1970/01/01/01:00:06.969000,327,6,968000000,,-0.427767246962,-0.0273140706122,-0.0120638897642
1970/01/01/01:00:06.989000,328,6,988000000,,-0.428315937519,-0.0275548063219,-0.0120097361505
1970/01/01/01:00:07.009000,329,7,8000000,,-0.42886942625,-0.0277944561094,-0.0119551084936
1970/01/01/01:00:07.030000,330,7,29000000,,-0.429455727339,-0.0280449073762,-0.0118972416967
1970/01/01/01:00:07.050000,331,7,49000000,,-0.430019021034,-0.0282822959125,-0.0118416491896
1970/01/01/01:00:07.069000,332,7,69000000,,-0.430558502674,-0.0285067819059,-0.011788402684
1970/01/01/01:00:07.090000,333,7,89000000,,-0.431131005287,-0.0287419855595,-0.0117319002748
1970/01/01/01:00:07.109000,334,7,108000000,,-0.431708186865,-0.0289760548621,-0.0116749340668
1970/01/01/01:00:07.129000,335,7,129000000,,-0.432290047407,-0.0292089805007,-0.0116175077856
1970/01/01/01:00:07.150000,336,7,149000000,,-0.432905972004,-0.0294523108751,-0.0115567166358
1970/01/01/01:00:07.169000,337,7,169000000,,-0.433497339487,-0.029682861641,-0.0114983525127
1970/01/01/01:00:07.189000,338,7,189000000,,-0.434063374996,-0.0299008004367,-0.0114424852654
1970/01/01/01:00:07.209000,339,7,209000000,,-0.434663683176,-0.0301290582865,-0.0113832382485
1970/01/01/01:00:07.229000,340,7,228000000,,-0.435268521309,-0.0303561277688,-0.0113235414028
1970/01/01/01:00:07.249000,341,7,249000000,,-0.43590849638,-0.0305932592601,-0.0112603791058
1970/01/01/01:00:07.276000,342,7,274000000,,-0.436676859856,-0.0308738220483,-0.0111845470965
1970/01/01/01:00:07.289000,343,7,288000000,,-0.437110185623,-0.0310301072896,-0.0111417789012
1970/01/01/01:00:07.309000,344,7,308000000,,-0.437732994556,-0.0312523283064,-0.0110803088173
1970/01/01/01:00:07.329000,345,7,329000000,,-0.43839174509,-0.0314843319356,-0.0110152941197
1970/01/01/01:00:07.349000,346,7,349000000,,-0.438991934061,-0.0316930599511,-0.0109560573474
1970/01/01/01:00:07.370000,347,7,369000000,,-0.439659893513,-0.0319224484265,-0.0108901318163
1970/01/01/01:00:07.390000,348,7,389000000,,-0.440300524235,-0.0321396179497,-0.010826905258
1970/01/01/01:00:07.409000,349,7,409000000,,-0.440913110971,-0.0323447547853,-0.0107664437965
1970/01/01/01:00:07.429000,350,7,428000000,,-0.441562175751,-0.0325594432652,-0.0107023855671
1970/01/01/01:00:07.448000,351,7,448000000,,-0.442215502262,-0.0327728502452,-0.0106379045174
1970/01/01/01:00:07.469000,352,7,469000000,,-0.442873060703,-0.032984957099,-0.0105730043724
1970/01/01/01:00:07.489000,353,7,488000000,,-0.443534880877,-0.0331957675517,-0.0105076860636
1970/01/01/01:00:07.508000,354,7,508000000,,-0.444200903177,-0.0334052629769,-0.0104419533163
1970/01/01/01:00:07.534000,355,7,534000000,,-0.445072948933,-0.0336756370962,-0.0103558851406
1970/01/01/01:00:07.550000,356,7,550000000,,-0.445545405149,-0.0338202938437,-0.0103092538193
1970/01/01/01:00:07.569000,357,7,569000000,,-0.446223884821,-0.0340258106589,-0.0102422926575
1970/01/01/01:00:07.589000,358,7,588000000,,-0.446906447411,-0.0342299826443,-0.0101749263704
1970/01/01/01:00:07.609000,359,7,609000000,,-0.447593063116,-0.0344328023493,-0.0101071586832
1970/01/01/01:00:07.630000,360,7,629000000,,-0.448283731937,-0.0346342660487,-0.0100389914587
1970/01/01/01:00:07.649000,361,7,648000000,,-0.448978424072,-0.0348343588412,-0.00997042935342
1970/01/01/01:00:07.669000,362,7,668000000,,-0.449677109718,-0.0350330807269,-0.00990147236735
1970/01/01/01:00:07.689000,363,7,688000000,,-0.450379759073,-0.0352304168046,-0.00983212515712
1970/01/01/01:00:07.710000,364,7,709000000,,-0.451086312532,-0.035426363349,-0.00976238865405
1970/01/01/01:00:07.729000,365,7,728000000,,-0.451796799898,-0.0356209091842,-0.00969226844609
1970/01/01/01:00:07.750000,366,7,749000000,,-0.452511131763,-0.035814050585,-0.00962176453322
1970/01/01/01:00:07.770000,367,7,769000000,,-0.453229337931,-0.0360057763755,-0.00955088064075
1970/01/01/01:00:07.789000,368,7,789000000,,-0.453951358795,-0.0361960828304,-0.00947962049395
1970/01/01/01:00:07.809000,369,7,809000000,,-0.454713582993,-0.0363943651319,-0.00940439384431
1970/01/01/01:00:07.829000,370,7,829000000,,-0.455406755209,-0.0365724004805,-0.00933597888798
1970/01/01/01:00:07.850000,371,7,849000000,,-0.456140071154,-0.0367583967745,-0.00926360394806
1970/01/01/01:00:07.871000,372,7,870000000,,-0.456950992346,-0.0369613170624,-0.00918356981128
1970/01/01/01:00:07.889000,373,7,889000000,,-0.457617759705,-0.0371260270476,-0.00911775976419
1970/01/01/01:00:07.909000,374,7,908000000,,-0.458362102509,-0.0373076498508,-0.00904429703951
1970/01/01/01:00:07.930000,375,7,929000000,,-0.459110081196,-0.0374877974391,-0.00897047668695
1970/01/01/01:00:07.950000,376,7,949000000,,-0.459899276495,-0.0376753620803,-0.00889258366078
1970/01/01/01:00:07.969000,377,7,968000000,,-0.460616707802,-0.0378436483443,-0.00882177613676
1970/01/01/01:00:07.988000,378,7,988000000,,-0.461375355721,-0.03801933676,-0.00874690245837
1970/01/01/01:00:08.009000,379,8,9000000,,-0.462137490511,-0.0381935201585,-0.00867168325931
1970/01/01/01:00:08.029000,380,8,28000000,,-0.462903082371,-0.0383661985397,-0.00859612133354
1970/01/01/01:00:08.049000,381,8,49000000,,-0.463710665703,-0.038545884192,-0.00851641595364
1970/01/01/01:00:08.069000,382,8,68000000,,-0.464444577694,-0.0387070067227,-0.00844398327172
1970/01/01/01:00:08.090000,383,8,89000000,,-0.465259283781,-0.0388834886253,-0.00836357474327
1970/01/01/01:00:08.109000,384,8,109000000,,-0.465999573469,-0.0390417017043,-0.00829051062465
1970/01/01/01:00:08.129000,385,8,128000000,,-0.466782033443,-0.0392067395151,-0.00821328256279
1970/01/01/01:00:08.149000,386,8,148000000,,-0.467567831278,-0.0393702313304,-0.00813573040068
1970/01/01/01:00:08.170000,387,8,169000000,,-0.468356847763,-0.0395321659744,-0.00805785600096
1970/01/01/01:00:08.189000,388,8,188000000,,-0.469149082899,-0.039692543447,-0.00797966402024
1970/01/01/01:00:08.210000,389,8,209000000,,-0.469944536686,-0.0398513525724,-0.00790115725249
1970/01/01/01:00:08.229000,390,8,229000000,,-0.470783144236,-0.0400164052844,-0.00781838968396
1970/01/01/01:00:08.249000,391,8,248000000,,-0.471544861794,-0.0401642434299,-0.00774321099743
1970/01/01/01:00:08.269000,392,8,268000000,,-0.472349703312,-0.0403183139861,-0.00766377756372
1970/01/01/01:00:08.289000,393,8,288000000,,-0.473157584667,-0.040470790118,-0.00758404145017
1970/01/01/01:00:08.309000,394,8,308000000,,-0.473968505859,-0.0406216718256,-0.00750400638208
1970/01/01/01:00:08.329000,395,8,328000000,,-0.474782437086,-0.0407709516585,-0.00742367468774
1970/01/01/01:00:08.350000,396,8,349000000,,-0.475599348545,-0.0409186184406,-0.00734305009246
1970/01/01/01:00:08.368000,397,8,369000000,,-0.476419180632,-0.0410646684468,-0.00726213539019
1970/01/01/01:00:08.389000,398,8,389000000,,-0.477283149958,-0.0412162803113,-0.00717686675489
1970/01/01/01:00:08.409000,399,8,409000000,,-0.478067547083,-0.0413519069552,-0.00709944963455
1970/01/01/01:00:08.430000,400,8,430000000,,-0.478937476873,-0.0415000915527,-0.00701358914375
1970/01/01/01:00:08.449000,401,8,449000000,,-0.479727238417,-0.0416326113045,-0.00693564256653
1970/01/01/01:00:08.471000,402,8,471000000,,-0.480686634779,-0.0417910441756,-0.00684095593169
1970/01/01/01:00:08.490000,403,8,489000000,,-0.481439977884,-0.0419135093689,-0.00676660379395
1970/01/01/01:00:08.510000,404,8,509000000,,-0.482279598713,-0.0420480147004,-0.00668373703957
1970/01/01/01:00:08.529000,405,8,528000000,,-0.483079701662,-0.042174257338,-0.00660476880148
1970/01/01/01:00:08.549000,406,8,549000000,,-0.483924508095,-0.0423055179417,-0.00652139028534
1970/01/01/01:00:08.569000,407,8,568000000,,-0.48477190733,-0.0424351096153,-0.00643775425851
1970/01/01/01:00:08.589000,408,8,589000000,,-0.485621899366,-0.0425630249083,-0.00635386444628
1970/01/01/01:00:08.609000,409,8,608000000,,-0.486474424601,-0.0426892638206,-0.00626972364262
1970/01/01/01:00:08.629000,410,8,629000000,,-0.487372279167,-0.0428199954331,-0.00618110923097
1970/01/01/01:00:08.649000,411,8,648000000,,-0.488186955452,-0.0429366752505,-0.00610070256516
1970/01/01/01:00:08.668000,412,8,668000000,,-0.489046901464,-0.0430578403175,-0.00601582881063
1970/01/01/01:00:08.691000,413,8,690000000,,-0.48995244503,-0.0431832335889,-0.0059264563024
1970/01/01/01:00:08.709000,414,8,709000000,,-0.490773975849,-0.0432950668037,-0.00584537303075
1970/01/01/01:00:08.729000,415,8,729000000,,-0.491641044617,-0.0434111207724,-0.005759797059
1970/01/01/01:00:08.749000,416,8,749000000,,-0.492510408163,-0.0435254573822,-0.00567399384454
1970/01/01/01:00:08.770000,417,8,769000000,,-0.493382066488,-0.0436380766332,-0.005587966647
1970/01/01/01:00:08.789000,418,8,789000000,,-0.494255930185,-0.0437489748001,-0.00550171872601
1970/01/01/01:00:08.809000,419,8,808000000,,-0.495131999254,-0.0438581444323,-0.00541525380686
1970/01/01/01:00:08.830000,420,8,829000000,,-0.496010243893,-0.0439655855298,-0.00532857468352
1970/01/01/01:00:08.849000,421,8,849000000,,-0.496890634298,-0.0440712869167,-0.00524168554693
1970/01/01/01:00:08.869000,422,8,868000000,,-0.497773081064,-0.0441752485931,-0.00515458965674
1970/01/01/01:00:08.889000,423,8,889000000,,-0.498657613993,-0.0442774705589,-0.0050672898069
1970/01/01/01:00:08.910000,424,8,908000000,,-0.499544173479,-0.0443779416382,-0.00497979018837
1970/01/01/01:00:08.929000,425,8,929000000,,-0.500477194786,-0.044481549412,-0.00488770427182
1970/01/01/01:00:08.949000,426,8,948000000,,-0.501323223114,-0.044573623687,-0.00480420468375
1970/01/01/01:00:08.974000,427,8,973000000,,-0.502349674702,-0.0446829535067,-0.00470289774239
1970/01/01/01:00:08.989000,428,8,988000000,,-0.50310999155,-0.0447622649372,-0.00462786015123
1970/01/01/01:00:09.008000,429,9,8000000,,-0.504006147385,-0.0448539406061,-0.00453941244632
1970/01/01/01:00:09.029000,430,9,28000000,,-0.504904091358,-0.0449438430369,-0.00445078499615
1970/01/01/01:00:09.050000,431,9,49000000,,-0.505803883076,-0.0450319685042,-0.00436198245734
1970/01/01/01:00:09.069000,432,9,68000000,,-0.506705403328,-0.0451183207333,-0.00427300715819
1970/01/01/01:00:09.089000,433,9,89000000,,-0.507653832436,-0.0452070720494,-0.00417940178886
1970/01/01/01:00:09.109000,434,9,108000000,,-0.508513510227,-0.0452856719494,-0.00409455457702
1970/01/01/01:00:09.129000,435,9,128000000,,-0.50942003727,-0.0453666709363,-0.00400508381426
1970/01/01/01:00:09.149000,436,9,148000000,,-0.510328114033,-0.0454458743334,-0.00391545519233
1970/01/01/01:00:09.169000,437,9,168000000,,-0.511237859726,-0.0455232858658,-0.00382567220367
1970/01/01/01:00:09.189000,438,9,188000000,,-0.512149035931,-0.0455989018083,-0.0037357378751
1970/01/01/01:00:09.210000,439,9,209000000,,-0.513061761856,-0.0456727147102,-0.0036456559319
1970/01/01/01:00:09.230000,440,9,229000000,,-0.513975977898,-0.045744728297,-0.0035554303322
1970/01/01/01:00:09.248000,441,9,248000000,,-0.514891564846,-0.0458149313927,-0.00346506433561
1970/01/01/01:00:09.269000,442,9,269000000,,-0.515808522701,-0.0458833277225,-0.00337456143461
1970/01/01/01:00:09.289000,443,9,289000000,,-0.516726851463,-0.0459499135613,-0.00328392535448
1970/01/01/01:00:09.309000,444,9,308000000,,-0.517646551132,-0.0460146851838,-0.00319315958768
1970/01/01/01:00:09.328000,445,9,328000000,,-0.518567442894,-0.0460776388645,-0.0031022678595
1970/01/01/01:00:09.349000,446,9,349000000,,-0.519489645958,-0.0461387746036,-0.00301125366241
1970/01/01/01:00:09.368000,447,9,368000000,,-0.52041298151,-0.0461980886757,-0.00292012048885
1970/01/01/01:00:09.389000,448,9,388000000,,-0.521337509155,-0.0462555773556,-0.00282887206413
1970/01/01/01:00:09.409000,449,9,408000000,,-0.522263228893,-0.0463112406433,-0.0027375118807
1970/01/01/01:00:09.429000,450,9,428000000,,-0.52318996191,-0.0463650785387,-0.00264604389668
1970/01/01/01:00:09.449000,451,9,449000000,,-0.524117767811,-0.0464170835912,-0.00255447113886
1970/01/01/01:00:09.469000,452,9,468000000,,-0.525046646595,-0.046467255801,-0.00246279779822
1970/01/01/01:00:09.489000,453,9,488000000,,-0.525976479053,-0.0465155951679,-0.00237102690153
1970/01/01/01:00:09.510000,454,9,509000000,,-0.526907265186,-0.0465620979667,-0.00227916263975
1970/01/01/01:00:09.529000,455,9,529000000,,-0.527838945389,-0.0466067604721,-0.00218720850535
1970/01/01/01:00:09.549000,456,9,548000000,,-0.528771519661,-0.0466495864093,-0.00209516775794
1970/01/01/01:00:09.569000,457,9,569000000,,-0.529704928398,-0.0466905683279,-0.00200304435566
1970/01/01/01:00:09.589000,458,9,589000000,,-0.530639111996,-0.0467297062278,-0.00191084202379
1970/01/01/01:00:09.609000,459,9,609000000,,-0.531574070454,-0.046767000109,-0.00181856413838
1970/01/01/01:00:09.629000,460,9,628000000,,-0.532509803772,-0.0468024462461,-0.00172621454112
1970/01/01/01:00:09.649000,461,9,649000000,,-0.533446192741,-0.0468360483646,-0.00163379672449
1970/01/01/01:00:09.670000,462,9,669000000,,-0.534430086613,-0.0468693375587,-0.00153668876737
1970/01/01/01:00:09.690000,463,9,689000000,,-0.535367786884,-0.0468991473317,-0.00144414266106
1970/01/01/01:00:09.710000,464,9,709000000,,-0.536259114742,-0.0469257496297,-0.0013561709784
1970/01/01/01:00:09.732000,465,9,732000000,,-0.537338733673,-0.0469557158649,-0.00124961463735
1970/01/01/01:00:09.748000,466,9,748000000,,-0.538137197495,-0.0469762906432,-0.00117081333883
1970/01/01/01:00:09.769000,467,9,769000000,,-0.539076924324,-0.0469987802207,-0.00107806338929
1970/01/01/01:00:09.790000,468,9,789000000,,-0.540017127991,-0.0470194108784,-0.000985270831734
1970/01/01/01:00:09.810000,469,9,809000000,,-0.54100471735,-0.0470390804112,-0.000887796864845
1970/01/01/01:00:09.829000,470,9,829000000,,-0.541945695877,-0.0470559075475,-0.000794928520918
1970/01/01/01:00:09.850000,471,9,849000000,,-0.542839884758,-0.047070171684,-0.000706674472895
1970/01/01/01:00:09.869000,472,9,869000000,,-0.543781399727,-0.0470833778381,-0.00061374832876
1970/01/01/01:00:09.889000,473,9,888000000,,-0.544723212719,-0.0470947213471,-0.000520797970239
1970/01/01/01:00:09.909000,474,9,909000000,,-0.545665204525,-0.0471042096615,-0.00042782703531
1970/01/01/01:00:09.930000,475,9,929000000,,-0.546654462814,-0.0471121668816,-0.00033018947579
1970/01/01/01:00:09.949000,476,9,949000000,,-0.547549664974,-0.0471176020801,-0.000241838206421
1970/01/01/01:00:09.969000,477,9,968000000,,-0.548492074013,-0.0471215099096,-0.000148827617522
1970/01/01/01:00:09.989000,478,9,989000000,,-0.549434542656,-0.047123555094,-5.58111642022e-05
1970/01/01/01:00:10.009000,479,10,9000000,,-0.550377011299,-0.0471237413585,3.72074937331e-05
1970/01/01/01:00:10.028000,480,10,28000000,,-0.551319479942,-0.0471220649779,0.000130224681925
1970/01/01/01:00:10.050000,481,10,49000000,,-0.552261888981,-0.0471185334027,0.000223236726015
1970/01/01/01:00:10.069000,482,10,69000000,,-0.55320417881,-0.047113135457,0.000316239980748
1970/01/01/01:00:10.090000,483,10,89000000,,-0.55414634943,-0.0471058823168,0.000409230706282
1970/01/01/01:00:10.109000,484,10,109000000,,-0.555088400841,-0.0470967665315,0.000502205337398
1970/01/01/01:00:10.129000,485,10,129000000,,-0.556030213833,-0.0470857955515,0.000595160061494
1970/01/01/01:00:10.149000,486,10,149000000,,-0.556971848011,-0.0470729619265,0.000688091327902
1970/01/01/01:00:10.169000,487,10,168000000,,-0.557913124561,-0.0470582693815,0.00078099546954
1970/01/01/01:00:10.189000,488,10,189000000,,-0.558854162693,-0.047041721642,0.000873868761119
1970/01/01/01:00:10.210000,489,10,210000000,,-0.559841811657,-0.0470223464072,0.000971348490566
1970/01/01/01:00:10.229000,490,10,228000000,,-0.560735046864,-0.0470030531287,0.00105950818397
1970/01/01/01:00:10.249000,491,10,248000000,,-0.561674892902,-0.0469809360802,0.00115226686466
1970/01/01/01:00:10.270000,492,10,269000000,,-0.562661230564,-0.0469557158649,0.00124961463735
1970/01/01/01:00:10.289000,493,10,288000000,,-0.563553154469,-0.0469311363995,0.00133764441125
1970/01/01/01:00:10.310000,494,10,309000000,,-0.564491510391,-0.0469034574926,0.00143025571015
1970/01/01/01:00:10.329000,495,10,329000000,,-0.565429270267,-0.0468739271164,0.00152281054761
1970/01/01/01:00:10.349000,496,10,348000000,,-0.566366493702,-0.0468425452709,0.00161530531477
1970/01/01/01:00:10.369000,497,10,369000000,,-0.567349791527,-0.0468076057732,0.00171235611197
1970/01/01/01:00:10.389000,498,10,388000000,,-0.568238854408,-0.046774238348,0.00180009985343
1970/01/01/01:00:10.408000,499,10,408000000,,-0.569173932076,-0.0467373132706,0.00189239240717
1970/01/01/01:00:10.429000,500,10,428000000,,-0.570108294487,-0.0466985404491,0.00198461022228
1970/01/01/01:00:10.449000,501,10,448000000,,-0.571041882038,-0.0466579273343,0.00207674968988
1970/01/01/01:00:10.468000,502,10,468000000,,-0.571974635124,-0.0466154739261,0.00216880720109
1970/01/01/01:00:10.489000,503,10,489000000,,-0.572906494141,-0.0465711764991,0.00226077903062
1970/01/01/01:00:10.510000,504,10,508000000,,-0.573837459087,-0.0465250425041,0.00235266145319
1970/01/01/01:00:10.528000,505,10,528000000,,-0.57476747036,-0.0464770719409,0.00244445120916
1970/01/01/01:00:10.551000,506,10,551000000,,-0.575789391994,-0.0464221835136,0.00254530832171
1970/01/01/01:00:10.569000,507,10,569000000,,-0.576624572277,-0.0463756248355,0.00262773758732
1970/01/01/01:00:10.588000,508,10,588000000,,-0.577551543713,-0.0463221557438,0.00271922675893
1970/01/01/01:00:10.609000,509,10,609000000,,-0.578477442265,-0.0462668575346,0.00281060882844
1970/01/01/01:00:10.629000,510,10,628000000,,-0.579402208328,-0.0462097339332,0.00290187983774
1970/01/01/01:00:10.649000,511,10,648000000,,-0.580325782299,-0.0461507812142,0.00299303629436
1970/01/01/01:00:10.669000,512,10,669000000,,-0.581248223782,-0.0460900105536,0.00308407470584
1970/01/01/01:00:10.689000,513,10,688000000,,-0.582169413567,-0.0460274219513,0.0031749913469
1970/01/01/01:00:10.708000,514,10,708000000,,-0.583089292049,-0.045963011682,0.00326578249224
1970/01/01/01:00:10.729000,515,10,728000000,,-0.584007918835,-0.0458967909217,0.0033564446494
1970/01/01/01:00:10.751000,516,10,750000000,,-0.584971010685,-0.0458253063262,0.00345149752684
1970/01/01/01:00:10.769000,517,10,769000000,,-0.585841059685,-0.0457589104772,0.00353736826219
1970/01/01/01:00:10.800000,518,10,799000000,,-0.587257862091,-0.045647084713,0.00367720122449
1970/01/01/01:00:10.812000,519,10,810000000,,-0.587668538094,-0.0456138066947,0.00371773308143
1970/01/01/01:00:10.833000,520,10,832000000,,-0.588762164116,-0.0455232858658,0.00382567220367
1970/01/01/01:00:10.849000,521,10,848000000,,-0.589490056038,-0.0454615019262,0.00389751093462
1970/01/01/01:00:10.870000,522,10,869000000,,-0.590398490429,-0.045382656157,0.00398717075586
1970/01/01/01:00:10.889000,523,10,889000000,,-0.591305315495,-0.0453020147979,0.00407667318359
1970/01/01/01:00:10.909000,524,10,908000000,,-0.592210531235,-0.0452195890248,0.00416601495817
1970/01/01/01:00:10.930000,525,10,929000000,,-0.593159258366,-0.0451311171055,0.00425964640453
1970/01/01/01:00:10.950000,526,10,949000000,,-0.594015955925,-0.045049380511,0.00434420118108
1970/01/01/01:00:10.969000,527,10,968000000,,-0.594916045666,-0.0449616089463,0.00443303864449
1970/01/01/01:00:10.988000,528,10,988000000,,-0.595814406872,-0.0448720604181,0.00452170101926
1970/01/01/01:00:11.009000,529,11,9000000,,-0.596710920334,-0.044780742377,0.00461018504575
1970/01/01/01:00:11.031000,530,11,29000000,,-0.597605645657,-0.0446876548231,0.00469848746434
1970/01/01/01:00:11.049000,531,11,49000000,,-0.598498463631,-0.0445928052068,0.00478660361841
1970/01/01/01:00:11.070000,532,11,69000000,,-0.599389314651,-0.0444961935282,0.00487453164533
1970/01/01/01:00:11.089000,533,11,89000000,,-0.600278258324,-0.0443978235126,0.00496226642281
1970/01/01/01:00:11.110000,534,11,109000000,,-0.601209521294,-0.0442926511168,0.00505417771637
1970/01/01/01:00:11.130000,535,11,129000000,,-0.602050185204,-0.0441958345473,0.00513714598492
1970/01/01/01:00:11.149000,536,11,149000000,,-0.602933049202,-0.0440922193229,0.00522428285331
1970/01/01/01:00:11.169000,537,11,168000000,,-0.603813827038,-0.043986864388,0.0053112138994
1970/01/01/01:00:11.189000,538,11,189000000,,-0.604692518711,-0.0438797697425,0.00539793493226
1970/01/01/01:00:11.210000,539,11,209000000,,-0.605569005013,-0.0437709465623,0.00548444315791
1970/01/01/01:00:11.231000,540,11,229000000,,-0.606443345547,-0.0436603948474,0.0055707343854
1970/01/01/01:00:11.249000,541,11,249000000,,-0.607315421104,-0.0435481183231,0.00565680628642
1970/01/01/01:00:11.268000,542,11,268000000,,-0.608185231686,-0.04343412444,0.00574265467003
1970/01/01/01:00:11.289000,543,11,289000000,,-0.60905277729,-0.043318413198,0.00582827627659
1970/01/01/01:00:11.309000,544,11,309000000,,-0.609917998314,-0.0432009957731,0.00591366784647
1970/01/01/01:00:11.329000,545,11,329000000,,-0.610823869705,-0.0430758669972,0.0060030776076
1970/01/01/01:00:11.349000,546,11,348000000,,-0.611641228199,-0.0429610423744,0.00608374690637
1970/01/01/01:00:11.369000,547,11,368000000,,-0.612499237061,-0.0428385213017,0.00616842787713
1970/01/01/01:00:11.389000,548,11,389000000,,-0.613354802132,-0.0427143089473,0.00625286530703
1970/01/01/01:00:11.408000,549,11,408000000,,-0.614207804203,-0.0425884090364,0.00633705640212
1970/01/01/01:00:11.429000,550,11,428000000,,-0.615058302879,-0.0424608290195,0.00642099650577
1970/01/01/01:00:11.449000,551,11,448000000,,-0.615906238556,-0.0423315688968,0.00650468375534
1970/01/01/01:00:11.469000,552,11,469000000,,-0.616751551628,-0.0422006435692,0.00658811395988
1970/01/01/01:00:11.489000,553,11,488000000,,-0.617594242096,-0.0420680455863,0.00667128385976
1970/01/01/01:00:11.509000,554,11,508000000,,-0.618434250355,-0.0419337935746,0.00675419066101
1970/01/01/01:00:11.529000,555,11,528000000,,-0.619271576405,-0.0417978800833,0.00683683110401
1970/01/01/01:00:11.550000,556,11,549000000,,-0.620147824287,-0.0416533984244,0.00692331232131
1970/01/01/01:00:11.569000,557,11,569000000,,-0.620938003063,-0.0415211170912,0.00700129801407
1970/01/01/01:00:11.589000,558,11,588000000,,-0.621766984463,-0.0413802713156,0.00708311889321
1970/01/01/01:00:11.608000,559,11,608000000,,-0.622593164444,-0.0412377938628,0.0071646599099
1970/01/01/01:00:11.630000,560,11,629000000,,-0.623416483402,-0.0410936847329,0.0072459182702
1970/01/01/01:00:11.650000,561,11,649000000,,-0.624277889729,-0.0409406274557,0.00733093125746
1970/01/01/01:00:11.669000,562,11,669000000,,-0.625054419041,-0.0408006124198,0.00740757305175
1970/01/01/01:00:11.689000,563,11,689000000,,-0.625868916512,-0.0406516566873,0.00748796341941
1970/01/01/01:00:11.710000,564,11,709000000,,-0.62668043375,-0.0405010953546,0.00756805855781
1970/01/01/01:00:11.729000,565,11,728000000,,-0.627488970757,-0.0403489358723,0.007647854276
1970/01/01/01:00:11.749000,566,11,749000000,,-0.628334581852,-0.0401874557137,0.00773131521419
1970/01/01/01:00:11.769000,567,11,769000000,,-0.629096746445,-0.040039844811,0.00780653767288
1970/01/01/01:00:11.792000,568,11,790000000,,-0.629975736141,-0.039867144078,0.00789328943938
1970/01/01/01:00:11.809000,569,11,809000000,,-0.630692064762,-0.0397244282067,0.00796398799866
1970/01/01/01:00:11.829000,570,11,828000000,,-0.631484985352,-0.0395643673837,0.00804224330932
1970/01/01/01:00:11.849000,571,11,849000000,,-0.632274627686,-0.0394027419388,0.00812018103898
1970/01/01/01:00:11.869000,572,11,868000000,,-0.633061051369,-0.0392395630479,0.00819779839367
1970/01/01/01:00:11.889000,573,11,888000000,,-0.633844196796,-0.0390748307109,0.0082750916481
1970/01/01/01:00:11.909000,574,11,908000000,,-0.634624063969,-0.038908559829,0.00835205800831
1970/01/01/01:00:11.930000,575,11,929000000,,-0.635400533676,-0.0387407504022,0.00842869561166
1970/01/01/01:00:11.950000,576,11,949000000,,-0.636173665524,-0.0385714136064,0.00850499980152
1970/01/01/01:00:11.969000,577,11,968000000,,-0.636943399906,-0.0384005531669,0.00858096778393
1970/01/01/01:00:11.989000,578,11,988000000,,-0.637709677219,-0.0382281765342,0.00865659769624
1970/01/01/01:00:12.009000,579,12,8000000,,-0.638472497463,-0.0380542911589,0.00873188581318
1970/01/01/01:00:12.028000,580,12,28000000,,-0.639231860638,-0.0378789044917,0.00880682934076
1970/01/01/01:00:12.049000,581,12,49000000,,-0.639987647533,-0.0377020202577,0.00888142455369
1970/01/01/01:00:12.068000,582,12,68000000,,-0.640739917755,-0.0375236496329,0.00895566958934
1970/01/01/01:00:12.089000,583,12,88000000,,-0.641488611698,-0.0373437963426,0.00902956165373
1970/01/01/01:00:12.116000,584,12,115000000,,-0.642493546009,-0.0370986573398,0.00912874843925
1970/01/01/01:00:12.129000,585,12,129000000,,-0.643012046814,-0.0369704961777,0.00917992088944
1970/01/01/01:00:12.150000,586,12,149000000,,-0.643712818623,-0.0367954224348,0.00924908556044
1970/01/01/01:00:12.170000,587,12,169000000,,-0.644446909428,-0.0366097167134,0.00932153314352
1970/01/01/01:00:12.189000,588,12,189000000,,-0.645177185535,-0.0364225618541,0.00939361378551
1970/01/01/01:00:12.210000,589,12,209000000,,-0.645903766155,-0.0362339727581,0.00946532282978
1970/01/01/01:00:12.231000,590,12,229000000,,-0.646626532078,-0.0360439531505,0.00953665841371
1970/01/01/01:00:12.249000,591,12,249000000,,-0.647345542908,-0.0358525104821,0.00960761774331
1970/01/01/01:00:12.269000,592,12,269000000,,-0.648060619831,-0.0356596522033,0.00967819802463
1970/01/01/01:00:12.289000,593,12,289000000,,-0.648807346821,-0.0354556329548,0.00975189544261
1970/01/01/01:00:12.311000,594,12,310000000,,-0.649549782276,-0.0352500751615,0.00982516817749
1970/01/01/01:00:12.329000,595,12,328000000,,-0.650182664394,-0.035072658211,0.00988763384521
1970/01/01/01:00:12.351000,596,12,351000000,,-0.650951862335,-0.0348542928696,0.00996355060488
1970/01/01/01:00:12.369000,597,12,368000000,,-0.651577651501,-0.0346743948758,0.0100253112614
1970/01/01/01:00:12.390000,598,12,389000000,,-0.652303576469,-0.0344631075859,0.0100969588384
1970/01/01/01:00:12.409000,599,12,408000000,,-0.652956545353,-0.0342706553638,0.0101614044979
1970/01/01/01:00:12.430000,600,12,429000000,,-0.653674006462,-0.0340565219522,0.0102322129533
1970/01/01/01:00:12.450000,601,12,449000000,,-0.65435308218,-0.0338512063026,0.0102992355824
1970/01/01/01:00:12.469000,602,12,469000000,,-0.654994368553,-0.0336549170315,0.0103625301272
1970/01/01/01:00:12.489000,603,12,489000000,,-0.655665397644,-0.0334470048547,0.0104287574068
1970/01/01/01:00:12.509000,604,12,508000000,,-0.65633225441,-0.0332377701998,0.0104945730418
1970/01/01/01:00:12.529000,605,12,528000000,,-0.656994879246,-0.0330272242427,0.0105599742383
1970/01/01/01:00:12.548000,606,12,548000000,,-0.657653331757,-0.032815374434,0.0106249582022
1970/01/01/01:00:12.570000,607,12,569000000,,-0.658307492733,-0.0326022282243,0.0106895230711
1970/01/01/01:00:12.589000,608,12,588000000,,-0.65895742178,-0.0323877967894,0.0107536660507
1970/01/01/01:00:12.610000,609,12,609000000,,-0.659635186195,-0.0321612656116,0.010820559226
1970/01/01/01:00:12.628000,610,12,628000000,,-0.66024428606,-0.0319551043212,0.0108806751668
1970/01/01/01:00:12.649000,611,12,649000000,,-0.660881221294,-0.0317368619144,0.0109435366467
1970/01/01/01:00:12.670000,612,12,669000000,,-0.661513745785,-0.0315173640847,0.0110059669241
1970/01/01/01:00:12.689000,613,12,689000000,,-0.662141919136,-0.0312966257334,0.0110679613426
1970/01/01/01:00:12.710000,614,12,709000000,,-0.662796676159,-0.0310635194182,0.0111325867474
1970/01/01/01:00:12.731000,615,12,729000000,,-0.66341573,-0.0308402553201,0.0111936833709
1970/01/01/01:00:12.756000,616,12,756000000,,-0.664213776588,-0.0305481944233,0.0112724481151
1970/01/01/01:00:12.769000,617,12,768000000,,-0.664609968662,-0.0304013974965,0.011311548762
1970/01/01/01:00:12.789000,618,12,788000000,,-0.665215730667,-0.0301745682955,0.0113713350147
1970/01/01/01:00:12.809000,619,12,809000000,,-0.665816903114,-0.0299465470016,0.0114306723699
1970/01/01/01:00:12.829000,620,12,829000000,,-0.666413545609,-0.0297173447907,0.0114895580336
1970/01/01/01:00:12.848000,621,12,848000000,,-0.667005598545,-0.0294869672507,0.0115479910746
1970/01/01/01:00:12.869000,622,12,868000000,,-0.667593061924,-0.0292554274201,0.0116059677675
1970/01/01/01:00:12.888000,623,12,888000000,,-0.668175816536,-0.0290227327496,0.0116634862497
1970/01/01/01:00:12.909000,624,12,908000000,,-0.668753921986,-0.0287888906896,0.0117205437273
1970/01/01/01:00:12.930000,625,12,929000000,,-0.669355928898,-0.0285421349108,0.0117799565196
1970/01/01/01:00:12.949000,626,12,949000000,,-0.669924378395,-0.0283059738576,0.0118360640481
1970/01/01/01:00:12.969000,627,12,969000000,,-0.670460045338,-0.028080586344,0.0118889324367
1970/01/01/01:00:12.990000,628,12,989000000,,-0.67101931572,-0.0278422553092,0.0119441263378
1970/01/01/01:00:13.009000,629,13,9000000,,-0.671573758125,-0.0276028234512,0.0119988489896
1970/01/01/01:00:13.029000,630,13,28000000,,-0.672123432159,-0.0273623038083,0.0120530975983
1970/01/01/01:00:13.048000,631,13,48000000,,-0.672668218613,-0.0271207038313,0.0121068703011
1970/01/01/01:00:13.069000,632,13,69000000,,-0.673208236694,-0.0268780328333,0.0121601652354
1970/01/01/01:00:13.090000,633,13,89000000,,-0.673743367195,-0.0266343001276,0.0122129796073
1970/01/01/01:00:13.109000,634,13,109000000,,-0.674273610115,-0.02638951689,0.0122653124854
1970/01/01/01:00:13.128000,635,13,128000000,,-0.674798905849,-0.0261436905712,0.0123171601444
1970/01/01/01:00:13.149000,636,13,148000000,,-0.675319314003,-0.0258968323469,0.0123685225844
1970/01/01/01:00:13.168000,637,13,168000000,,-0.675834774971,-0.0256489533931,0.0124193960801
1970/01/01/01:00:13.189000,638,13,189000000,,-0.676345288754,-0.0254000611603,0.0124697797
1970/01/01/01:00:13.209000,639,13,209000000,,-0.676850795746,-0.0251501649618,0.0125196715817
