time,.header.seq,.header.stamp.secs,.header.stamp.nsecs,.header.frame_id,.position,.velocity,.acceleration
1970/01/01/01:00:00.098000,1,0,98000000,,-0.549057543278,0.0471229590476,-9.30182213779e-05
1970/01/01/01:00:00.120000,2,0,119000000,,-0.548115074635,0.0471201688051,-0.000186032761121
1970/01/01/01:00:00.138000,3,0,138000000,,-0.547172725201,0.0471155196428,-0.000279039959423
1970/01/01/01:00:00.159000,4,0,159000000,,-0.546230494976,0.0471090078354,-0.000372036156477
1970/01/01/01:00:00.179000,5,0,179000000,,-0.545241296291,0.0471001714468,-0.000469666265417
1970/01/01/01:00:00.201000,6,0,198000000,,-0.544346451759,0.0470904074609,-0.0005579807912
1970/01/01/01:00:00.219000,7,0,219000000,,-0.543357729912,0.0470776632428,-0.000655568321235
1970/01/01/01:00:00.239000,8,0,239000000,,-0.542463362217,0.047064371407,-0.000743837328628
1970/01/01/01:00:00.259000,9,0,258000000,,-0.541522204876,0.0470485650003,-0.000836723367684
1970/01/01/01:00:00.278000,10,0,278000000,,-0.540581405163,0.047030903399,-0.000929576402996
1970/01/01/01:00:00.299000,11,0,299000000,,-0.539641022682,0.0470113828778,-0.00102239265107
1970/01/01/01:00:00.321000,12,0,319000000,,-0.538653969765,0.046988889575,-0.00111980631482
1970/01/01/01:00:00.338000,13,0,338000000,,-0.537761390209,0.0469667762518,-0.00120790058281
1970/01/01/01:00:00.359000,14,0,358000000,,-0.536822319031,0.0469416901469,-0.00130058487412
1970/01/01/01:00:00.380000,15,0,379000000,,-0.535883724689,0.0469147525728,-0.00139321770985
1970/01/01/01:00:00.399000,16,0,398000000,,-0.534945726395,0.0468859635293,-0.00148579559755
1970/01/01/01:00:00.419000,17,0,418000000,,-0.534008324146,0.0468553192914,-0.00157831492834
1970/01/01/01:00:00.438000,18,0,438000000,,-0.533071517944,0.0468228310347,-0.00167077186052
1970/01/01/01:00:00.459000,19,0,459000000,,-0.532135426998,0.0467884913087,-0.00176316278521
1970/01/01/01:00:00.478000,20,0,478000000,,-0.531199991703,0.0467523038387,-0.00185548409354
1970/01/01/01:00:00.515000,21,0,514000000,,-0.529518187046,0.0466825179756,-0.00202147546224
1970/01/01/01:00:00.519000,22,0,519000000,,-0.529284775257,0.0466723516583,-0.00204450986348
1970/01/01/01:00:00.538000,23,0,538000000,,-0.528398394585,0.0466326773167,-0.00213199411519
1970/01/01/01:00:00.558000,24,0,558000000,,-0.52746617794,0.0465891174972,-0.00222400063649
1970/01/01/01:00:00.579000,25,0,578000000,,-0.526534855366,0.0465437173843,-0.00231591938064
1970/01/01/01:00:00.599000,26,0,598000000,,-0.525604426861,0.0464964807034,-0.00240774662234
1970/01/01/01:00:00.618000,27,0,618000000,,-0.524675011635,0.0464474074543,-0.00249947886914
1970/01/01/01:00:00.639000,28,0,638000000,,-0.523746550083,0.0463965013623,-0.00259111262858
1970/01/01/01:00:00.659000,29,0,658000000,,-0.522819161415,0.0463437624276,-0.0026826437097
1970/01/01/01:00:00.678000,30,0,678000000,,-0.521892786026,0.0462891943753,-0.00277406908572
1970/01/01/01:00:00.698000,31,0,698000000,,-0.52096760273,0.0462328009307,-0.00286538503133
1970/01/01/01:00:00.718000,32,0,718000000,,-0.520043492317,0.046174582094,-0.00295658782125
1970/01/01/01:00:00.739000,33,0,739000000,,-0.519074499607,0.0461114905775,-0.00305222487077
1970/01/01/01:00:00.759000,34,0,758000000,,-0.518198907375,0.0460526756942,-0.0031386394985
1970/01/01/01:00:00.779000,35,0,779000000,,-0.51723253727,0.0459857620299,-0.00323401996866
1970/01/01/01:00:00.798000,36,0,798000000,,-0.516359388828,0.0459234975278,-0.00332019547932
1970/01/01/01:00:00.819000,37,0,818000000,,-0.515441596508,0.0458561852574,-0.00341077870689
1970/01/01/01:00:00.838000,38,0,838000000,,-0.514525175095,0.0457870662212,-0.00350122735836
1970/01/01/01:00:00.859000,39,0,859000000,,-0.513610124588,0.0457161404192,-0.00359153770842
1970/01/01/01:00:00.879000,40,0,878000000,,-0.512696504593,0.0456434078515,-0.00368170626462
1970/01/01/01:00:00.899000,41,0,898000000,,-0.511784374714,0.0455688722432,-0.00377172930166
1970/01/01/01:00:00.918000,42,0,918000000,,-0.510873794556,0.0454925373197,-0.00386160379276
1970/01/01/01:00:00.939000,43,0,938000000,,-0.509964704514,0.0454144068062,-0.00395132554695
1970/01/01/01:00:00.959000,44,0,958000000,,-0.509057223797,0.0453344844282,-0.00404089130461
1970/01/01/01:00:00.979000,45,0,979000000,,-0.508151352406,0.0452527739108,-0.00413029780611
1970/01/01/01:00:00.999000,46,0,999000000,,-0.507201969624,0.0451650545001,-0.00422399910167
1970/01/01/01:00:01.019000,47,1,19000000,,-0.506344556808,0.0450839921832,-0.00430861767381
1970/01/01/01:00:01.039000,48,1,38000000,,-0.505443751812,0.0449969321489,-0.00439752452075
1970/01/01/01:00:01.059000,49,1,59000000,,-0.504544734955,0.0449080951512,-0.00448625721037
1970/01/01/01:00:01.079000,50,1,79000000,,-0.50360262394,0.0448129065335,-0.00457923626527
1970/01/01/01:00:01.099000,51,1,98000000,,-0.502752006054,0.0447251014411,-0.00466318847612
1970/01/01/01:00:01.119000,52,1,119000000,,-0.501813828945,0.0446262024343,-0.00475578429177
1970/01/01/01:00:01.139000,53,1,139000000,,-0.500966787338,0.044535048306,-0.00483938353136
1970/01/01/01:00:01.159000,54,1,158000000,,-0.500077068806,0.0444373823702,-0.00492719607428
1970/01/01/01:00:01.179000,55,1,179000000,,-0.499144971371,0.0443329438567,-0.00501918978989
1970/01/01/01:00:01.199000,56,1,198000000,,-0.498303562403,0.0442367903888,-0.00510223396122
1970/01/01/01:00:01.219000,57,1,219000000,,-0.497419863939,0.044133875519,-0.005189452786
1970/01/01/01:00:01.238000,58,1,238000000,,-0.496538221836,0.0440292134881,-0.00527646625414
1970/01/01/01:00:01.259000,59,1,258000000,,-0.495658695698,0.0439228154719,-0.00536327203736
1970/01/01/01:00:01.279000,60,1,278000000,,-0.494781315327,0.0438146851957,-0.00544986547902
1970/01/01/01:00:01.299000,61,1,298000000,,-0.493906110525,0.0437048226595,-0.00553624425083
1970/01/01/01:00:01.319000,62,1,318000000,,-0.493033140898,0.0435932353139,-0.00562240416184
1970/01/01/01:00:01.340000,63,1,339000000,,-0.492118924856,0.0434742197394,-0.00571263302118
1970/01/01/01:00:01.360000,64,1,358000000,,-0.491293936968,0.0433649048209,-0.00579405482858
1970/01/01/01:00:01.381000,65,1,378000000,,-0.490427821875,0.0432481691241,-0.00587953906506
1970/01/01/01:00:01.401000,66,1,399000000,,-0.489520907402,0.043123755604,-0.00596904708073
1970/01/01/01:00:01.420000,67,1,418000000,,-0.488702625036,0.0430095791817,-0.00604980718344
1970/01/01/01:00:01.440000,68,1,438000000,,-0.4878436625,0.0428877323866,-0.00613458454609
1970/01/01/01:00:01.458000,69,1,458000000,,-0.486987143755,0.0427641943097,-0.00621911976486
1970/01/01/01:00:01.480000,70,1,479000000,,-0.486090481281,0.0426326654851,-0.00630761776119
1970/01/01/01:00:01.498000,71,1,498000000,,-0.485281586647,0.042512062937,-0.00638745073229
1970/01/01/01:00:01.519000,72,1,518000000,,-0.484432637691,0.0423834733665,-0.00647123949602
1970/01/01/01:00:01.539000,73,1,538000000,,-0.483586251736,0.0422532148659,-0.00655477307737
1970/01/01/01:00:01.559000,74,1,558000000,,-0.482742518187,0.04212128371,-0.00663804728538
1970/01/01/01:00:01.580000,75,1,578000000,,-0.481901437044,0.0419876947999,-0.00672105979174
1970/01/01/01:00:01.599000,76,1,598000000,,-0.481063008308,0.0418524444103,-0.00680380733684
1970/01/01/01:00:01.619000,77,1,618000000,,-0.480227351189,0.0417155437171,-0.00688628572971
1970/01/01/01:00:01.639000,78,1,638000000,,-0.47939440608,0.0415769927204,-0.00696849217638
1970/01/01/01:00:01.659000,79,1,658000000,,-0.47856426239,0.0414368063211,-0.0070504238829
1970/01/01/01:00:01.679000,80,1,679000000,,-0.477736949921,0.0412949807942,-0.00713207712397
1970/01/01/01:00:01.699000,81,1,698000000,,-0.476912468672,0.0411515235901,-0.00721344910562
1970/01/01/01:00:01.719000,82,1,718000000,,-0.476090908051,0.0410064421594,-0.00729453610256
1970/01/01/01:00:01.739000,83,1,739000000,,-0.475272238255,0.0408597439528,-0.00737533485517
1970/01/01/01:00:01.759000,84,1,759000000,,-0.474415808916,0.0407039746642,-0.00745986029506
1970/01/01/01:00:01.779000,85,1,778000000,,-0.473643779755,0.0405615121126,-0.00753605598584
1970/01/01/01:00:01.798000,86,1,798000000,,-0.472834080458,0.0404099933803,-0.00761597184464
1970/01/01/01:00:01.819000,87,1,818000000,,-0.472027391195,0.0402568764985,-0.00769558735192
1970/01/01/01:00:01.839000,88,1,838000000,,-0.471223801374,0.0401021689177,-0.00777489878237
1970/01/01/01:00:01.859000,89,1,858000000,,-0.470423310995,0.0399458818138,-0.00785390287638
1970/01/01/01:00:01.879000,90,1,878000000,,-0.469625979662,0.0397880151868,-0.00793259777129
1970/01/01/01:00:01.900000,91,1,899000000,,-0.468792200089,0.0396205671132,-0.00801488943398
1970/01/01/01:00:01.918000,92,1,918000000,,-0.468040853739,0.0394675806165,-0.00808904413134
1970/01/01/01:00:01.939000,93,1,939000000,,-0.467253118753,0.0393050201237,-0.00816679000854
1970/01/01/01:00:01.970000,94,1,969000000,,-0.466038614511,0.0390499904752,-0.00828665774316
1970/01/01/01:00:01.979000,95,1,978000000,,-0.465687483549,0.0389752537012,-0.00832131132483
1970/01/01/01:00:02.000000,96,1,998000000,,-0.464909642935,0.0388080589473,-0.00839808024466
1970/01/01/01:00:02.024000,97,2,21000000,,-0.464019298553,0.0386138930917,-0.00848595518619
1970/01/01/01:00:02.039000,98,2,38000000,,-0.463364094496,0.0384690798819,-0.00855062156916
1970/01/01/01:00:02.061000,99,2,59000000,,-0.462596416473,0.0382973104715,-0.00862638652325
1970/01/01/01:00:02.081000,100,2,80000000,,-0.461832225323,0.0381240285933,-0.0087018115446
1970/01/01/01:00:02.100000,101,2,98000000,,-0.461071491241,0.0379492416978,-0.00877689383924
1970/01/01/01:00:02.120000,102,2,119000000,,-0.460314244032,0.0377729535103,-0.00885162875056
1970/01/01/01:00:02.140000,103,2,138000000,,-0.459560573101,0.037595178932,-0.00892601441592
1970/01/01/01:00:02.161000,104,2,161000000,,-0.458810448647,0.0374159142375,-0.00900004711002
1970/01/01/01:00:02.180000,105,2,180000000,,-0.458063930273,0.0372351780534,-0.00907372497022
1970/01/01/01:00:02.199000,106,2,198000000,,-0.457321047783,0.0370529703796,-0.00914704520255
1970/01/01/01:00:02.221000,107,2,219000000,,-0.456544965506,0.0368600748479,-0.0092236418277
1970/01/01/01:00:02.238000,108,2,238000000,,-0.455846309662,0.0366841703653,-0.00929259788245
1970/01/01/01:00:02.260000,109,2,259000000,,-0.455114483833,0.0364975966513,-0.0093648256734
1970/01/01/01:00:02.280000,110,2,278000000,,-0.454386413097,0.03630958125,-0.00943668372929
1970/01/01/01:00:02.300000,111,2,299000000,,-0.453625977039,0.0361106209457,-0.00951173342764
1970/01/01/01:00:02.318000,112,2,318000000,,-0.452941596508,0.0359292551875,-0.00957927946001
1970/01/01/01:00:02.339000,113,2,339000000,,-0.452224940062,0.0357369631529,-0.00965001154691
1970/01/01/01:00:02.360000,114,2,360000000,,-0.451476603746,0.0355335362256,-0.00972387008369
1970/01/01/01:00:02.379000,115,2,378000000,,-0.450803220272,0.0353481508791,-0.00979033019394
1970/01/01/01:00:02.398000,116,2,398000000,,-0.450098216534,0.0351516492665,-0.00985991023481
1970/01/01/01:00:02.419000,117,2,419000000,,-0.44936221838,0.0349438264966,-0.00993255153298
1970/01/01/01:00:02.440000,118,2,439000000,,-0.448665320873,0.0347444862127,-0.0100013315678
1970/01/01/01:00:02.459000,119,2,459000000,,-0.44797244668,0.034543775022,-0.0100697157905
1970/01/01/01:00:02.480000,120,2,479000000,,-0.4472835958,0.0343417003751,-0.0101377032697
1970/01/01/01:00:02.498000,121,2,498000000,,-0.446632921696,0.0341484732926,-0.0102019207552
1970/01/01/01:00:02.520000,122,2,519000000,,-0.445951998234,0.0339437648654,-0.0102691259235
1970/01/01/01:00:02.538000,123,2,538000000,,-0.445275187492,0.0337377116084,-0.0103359250352
1970/01/01/01:00:02.559000,124,2,558000000,,-0.444602519274,0.0335303284228,-0.0104023162276
1970/01/01/01:00:02.580000,125,2,578000000,,-0.443933993578,0.0333216227591,-0.0104682967067
1970/01/01/01:00:02.599000,126,2,598000000,,-0.443269640207,0.0331115983427,-0.0105338636786
1970/01/01/01:00:02.620000,127,2,619000000,,-0.442609518766,0.0329002700746,-0.0105990143493
1970/01/01/01:00:02.641000,128,2,640000000,,-0.44192096591,0.0326769761741,-0.0106669729576
1970/01/01/01:00:02.658000,129,2,658000000,,-0.441302031279,0.0324737243354,-0.0107280593365
1970/01/01/01:00:02.679000,130,2,678000000,,-0.440654695034,0.0322585217655,-0.0107919480652
1970/01/01/01:00:02.699000,131,2,698000000,,-0.440011709929,0.0320420488715,-0.010855410248
1970/01/01/01:00:02.718000,132,2,718000000,,-0.43937304616,0.0318243093789,-0.0109184440225
1970/01/01/01:00:02.739000,133,2,739000000,,-0.43873873353,0.0316053144634,-0.0109810465947
1970/01/01/01:00:02.759000,134,2,758000000,,-0.438108831644,0.0313850715756,-0.0110432161018
1970/01/01/01:00:02.779000,135,2,778000000,,-0.437483340502,0.0311635881662,-0.0111049488187
1970/01/01/01:00:02.798000,136,2,798000000,,-0.436862289906,0.030940875411,-0.0111662438139
1970/01/01/01:00:02.818000,137,2,818000000,,-0.436245709658,0.0307169407606,-0.0112270982936
1970/01/01/01:00:02.840000,138,2,838000000,,-0.43563362956,0.0304917935282,-0.0112875085324
1970/01/01/01:00:02.859000,139,2,858000000,,-0.435026049614,0.030265443027,-0.0113474745303
1970/01/01/01:00:02.879000,140,2,878000000,,-0.43442299962,0.0300378985703,-0.0114069916308
1970/01/01/01:00:02.898000,141,2,898000000,,-0.433824539185,0.029809165746,-0.0114660579711
1970/01/01/01:00:02.919000,142,2,918000000,,-0.433230668306,0.0295792594552,-0.01152467262
1970/01/01/01:00:02.940000,143,2,939000000,,-0.432641386986,0.0293481834233,-0.0115828318521
1970/01/01/01:00:02.959000,144,2,958000000,,-0.432056725025,0.0291159488261,-0.0116405338049
1970/01/01/01:00:02.978000,145,2,978000000,,-0.431476742029,0.0288825649768,-0.0116977756843
1970/01/01/01:00:02.999000,146,2,999000000,,-0.430901437998,0.0286480411887,-0.011754556559
1970/01/01/01:00:03.018000,147,3,18000000,,-0.430330842733,0.0284123849124,-0.0118108736351
1970/01/01/01:00:03.040000,148,3,39000000,,-0.429736793041,0.0281637404114,-0.0118695041165
1970/01/01/01:00:03.059000,149,3,58000000,,-0.429203808308,0.0279377195984,-0.0119221052155
1970/01/01/01:00:03.079000,150,3,78000000,,-0.428647458553,0.0276987273246,-0.0119770169258
1970/01/01/01:00:03.100000,151,3,99000000,,-0.428068429232,0.0274466089904,-0.0120341647416
1970/01/01/01:00:03.119000,152,3,119000000,,-0.427521914244,0.0272053852677,-0.0120881041512
1970/01/01/01:00:03.139000,153,3,139000000,,-0.426980227232,0.0269630886614,-0.0121415657923
1970/01/01/01:00:03.160000,154,3,159000000,,-0.42647010088,0.0267319194973,-0.012191911228
1970/01/01/01:00:03.179000,155,3,179000000,,-0.425911426544,0.0264753103256,-0.0122470511124
1970/01/01/01:00:03.199000,156,3,199000000,,-0.425384372473,0.0262298472226,-0.0122990692034
1970/01/01/01:00:03.220000,157,3,219000000,,-0.424862235785,0.0259833503515,-0.0123506011441
1970/01/01/01:00:03.240000,158,3,239000000,,-0.424370795488,0.0257482267916,-0.0123991053551
1970/01/01/01:00:03.259000,159,3,259000000,,-0.423858314753,0.0254997387528,-0.0124496854842
1970/01/01/01:00:03.280000,160,3,279000000,,-0.423325568438,0.0252377409488,-0.0125022651628
1970/01/01/01:00:03.299000,161,3,299000000,,-0.422848314047,0.0249997507781,-0.0125493686646
1970/01/01/01:00:03.319000,162,3,319000000,,-0.422350823879,0.0247482713312,-0.0125984679908
1970/01/01/01:00:03.338000,163,3,338000000,,-0.421858400106,0.0244958158582,-0.0126470699906
1970/01/01/01:00:03.359000,164,3,359000000,,-0.421371012926,0.0242423918098,-0.0126951737329
1970/01/01/01:00:03.378000,165,3,378000000,,-0.420888692141,0.0239880122244,-0.012742774561
1970/01/01/01:00:03.399000,166,3,399000000,,-0.420411497355,0.0237326845527,-0.0127898734063
1970/01/01/01:00:03.418000,167,3,418000000,,-0.419939398766,0.0234764199704,-0.0128364674747
1970/01/01/01:00:03.439000,168,3,438000000,,-0.419472426176,0.0232192296535,-0.0128825539723
1970/01/01/01:00:03.459000,169,3,458000000,,-0.419010639191,0.0229611210525,-0.0129281328991
1970/01/01/01:00:03.479000,170,3,478000000,,-0.418554008007,0.022702107206,-0.0129732005298
1970/01/01/01:00:03.499000,171,3,498000000,,-0.418102562428,0.0224421974272,-0.0130177559331
1970/01/01/01:00:03.519000,172,3,519000000,,-0.417634129524,0.0221683364362,-0.0130639867857
1970/01/01/01:00:03.539000,173,3,539000000,,-0.417215317488,0.0219197273254,-0.0131053244695
1970/01/01/01:00:03.559000,174,3,559000000,,-0.416779518127,0.0216571912169,-0.013148332946
1970/01/01/01:00:03.579000,175,3,579000000,,-0.416349023581,0.0213937982917,-0.0131908226758
1970/01/01/01:00:03.599000,176,3,598000000,,-0.415923774242,0.0211295615882,-0.0132327917963
1970/01/01/01:00:03.619000,177,3,618000000,,-0.415503829718,0.0208644904196,-0.0132742384449
1970/01/01/01:00:03.639000,178,3,638000000,,-0.415089219809,0.0205985959619,-0.0133151607588
1970/01/01/01:00:03.658000,179,3,658000000,,-0.414679914713,0.0203318875283,-0.0133555578068
1970/01/01/01:00:03.692000,180,3,691000000,,-0.414016246796,0.0198900680989,-0.0134210595861
1970/01/01/01:00:03.699000,181,3,698000000,,-0.413877338171,0.0197960734367,-0.0134347686544
1970/01/01/01:00:03.719000,182,3,718000000,,-0.413484096527,0.0195269901305,-0.0134735787287
1970/01/01/01:00:03.738000,183,3,738000000,,-0.413096249104,0.0192571338266,-0.0135118570179
1970/01/01/01:00:03.759000,184,3,758000000,,-0.412713825703,0.0189865175635,-0.0135496025905
1970/01/01/01:00:03.780000,185,3,778000000,,-0.412336796522,0.018715152517,-0.0135868126526
1970/01/01/01:00:03.798000,186,3,798000000,,-0.411965221167,0.018443049863,-0.013623486273
1970/01/01/01:00:03.819000,187,3,819000000,,-0.411599099636,0.0181702170521,-0.0136596225202
1970/01/01/01:00:03.839000,188,3,838000000,,-0.411238431931,0.0178966689855,-0.0136952195317
1970/01/01/01:00:03.860000,189,3,859000000,,-0.410865604877,0.0176086816937,-0.0137320132926
1970/01/01/01:00:03.880000,190,3,879000000,,-0.410533517599,0.0173474606127,-0.013764789328
1970/01/01/01:00:03.898000,191,3,898000000,,-0.410189330578,0.0170718245208,-0.0137987593189
1970/01/01/01:00:03.920000,192,3,919000000,,-0.409833878279,0.0167816802859,-0.0138338422403
1970/01/01/01:00:03.940000,193,3,939000000,,-0.40950101614,0.0165046751499,-0.0138666946441
1970/01/01/01:00:03.959000,194,3,958000000,,-0.409189909697,0.0162409152836,-0.0138973975554
1970/01/01/01:00:03.980000,195,3,979000000,,-0.408867895603,0.0159626491368,-0.0139291817322
1970/01/01/01:00:03.999000,196,3,999000000,,-0.408551424742,0.0156837515533,-0.0139604154974
1970/01/01/01:00:04.019000,197,4,18000000,,-0.408240526915,0.0154042355716,-0.0139910979196
1970/01/01/01:00:04.039000,198,4,38000000,,-0.407935261726,0.0151241114363,-0.0140212280676
1970/01/01/01:00:04.059000,199,4,58000000,,-0.407635569572,0.0148433903232,-0.0140508050099
1970/01/01/01:00:04.079000,200,4,79000000,,-0.407341510057,0.0145620824769,-0.0140798278153
1970/01/01/01:00:04.100000,201,4,98000000,,-0.407053112984,0.0142802009359,-0.0141082936898
1970/01/01/01:00:04.120000,202,4,119000000,,-0.406756341457,0.0139836175367,-0.0141375837848
1970/01/01/01:00:04.139000,203,4,138000000,,-0.406493186951,0.0137147558853,-0.0141635546461
1970/01/01/01:00:04.159000,204,4,159000000,,-0.406221717596,0.0134312165901,-0.0141903460026
1970/01/01/01:00:04.179000,205,4,178000000,,-0.405955940485,0.013147146441,-0.0142165785655
1970/01/01/01:00:04.199000,206,4,198000000,,-0.405695855618,0.012862556614,-0.0142422486097
1970/01/01/01:00:04.219000,207,4,219000000,,-0.405441462994,0.0125774601474,-0.0142673570663
1970/01/01/01:00:04.239000,208,4,239000000,,-0.405192762613,0.0122918663546,-0.0142919020727
1970/01/01/01:00:04.259000,209,4,258000000,,-0.404949784279,0.0120057873428,-0.014315883629
1970/01/01/01:00:04.278000,210,4,278000000,,-0.40471252799,0.0117192352191,-0.0143392989412
1970/01/01/01:00:04.300000,211,4,298000000,,-0.40448102355,0.0114322192967,-0.0143621489406
1970/01/01/01:00:04.319000,212,4,319000000,,-0.404255241156,0.0111447526142,-0.0143844308332
1970/01/01/01:00:04.339000,213,4,339000000,,-0.404035210609,0.0108568463475,-0.0144061464816
1970/01/01/01:00:04.359000,214,4,358000000,,-0.403820961714,0.010568510741,-0.0144272921607
1970/01/01/01:00:04.379000,215,4,378000000,,-0.403612494469,0.010279757902,-0.0144478688017
1970/01/01/01:00:04.398000,216,4,398000000,,-0.403409779072,0.00999059993774,-0.0144678745419
1970/01/01/01:00:04.420000,217,4,419000000,,-0.403212875128,0.00970104709268,-0.0144873093814
1970/01/01/01:00:04.438000,218,4,438000000,,-0.403021752834,0.00941111147404,-0.0145061723888
1970/01/01/01:00:04.459000,219,4,458000000,,-0.402836412191,0.00912080425769,-0.0145244626328
1970/01/01/01:00:04.481000,220,4,478000000,,-0.402656912804,0.00883013661951,-0.0145421801135
1970/01/01/01:00:04.501000,221,4,498000000,,-0.402483224869,0.00853912066668,-0.0145593229681
1970/01/01/01:00:04.520000,222,4,519000000,,-0.402307122946,0.00823319144547,-0.0145767042413
1970/01/01/01:00:04.540000,223,4,539000000,,-0.40215331316,0.00795608852059,-0.0145918829367
1970/01/01/01:00:04.562000,224,4,558000000,,-0.401997119188,0.00766409607604,-0.0146073000506
1970/01/01/01:00:04.583000,225,4,581000000,,-0.401839375496,0.00735717779025,-0.0146228661761
1970/01/01/01:00:04.600000,226,4,598000000,,-0.401702225208,0.00707921432331,-0.0146364020184
1970/01/01/01:00:04.621000,227,4,620000000,,-0.401556789875,0.00677169766277,-0.0146507564932
1970/01/01/01:00:04.638000,228,4,638000000,,-0.401430785656,0.00649321451783,-0.0146631933749
1970/01/01/01:00:04.660000,229,4,659000000,,-0.401303857565,0.0061998241581,-0.0146757215261
1970/01/01/01:00:04.680000,230,4,678000000,,-0.401182800531,0.0059061893262,-0.0146876694635
1970/01/01/01:00:04.702000,231,4,699000000,,-0.401067614555,0.00561232166365,-0.0146990381181
1970/01/01/01:00:04.719000,232,4,718000000,,-0.400958299637,0.00531823188066,-0.0147098256275
1970/01/01/01:00:04.741000,233,4,738000000,,-0.400854885578,0.00502393208444,-0.0147200329229
1970/01/01/01:00:04.762000,234,4,758000000,,-0.400757342577,0.00472943438217,-0.0147296590731
1970/01/01/01:00:04.783000,235,4,779000000,,-0.400661289692,0.00442001083866,-0.0147391408682
1970/01/01/01:00:04.800000,236,4,799000000,,-0.400579959154,0.00413988996297,-0.0147471670061
1970/01/01/01:00:04.820000,237,4,819000000,,-0.400500118732,0.00384486699477,-0.0147550478578
1970/01/01/01:00:04.839000,238,4,838000000,,-0.400426179171,0.00354969198816,-0.0147623457015
1970/01/01/01:00:04.861000,239,4,859000000,,-0.400354862213,0.00323960790411,-0.0147693818435
1970/01/01/01:00:04.879000,240,4,878000000,,-0.400296002626,0.00295893358998,-0.0147751932964
1970/01/01/01:00:04.900000,241,4,899000000,,-0.400239765644,0.00266337324865,-0.0147807421163
1970/01/01/01:00:04.919000,242,4,919000000,,-0.40018710494,0.00235292199068,-0.0147859407589
1970/01/01/01:00:04.939000,243,4,938000000,,-0.400145053864,0.002071948722,-0.014790089801
1970/01/01/01:00:04.960000,244,4,959000000,,-0.400106579065,0.00177610805258,-0.0147938877344
1970/01/01/01:00:04.979000,245,4,979000000,,-0.400074005127,0.00148019718472,-0.0147971017286
1970/01/01/01:00:04.999000,246,4,998000000,,-0.400047361851,0.00118422787637,-0.0147997308522
1970/01/01/01:00:05.019000,247,5,18000000,,-0.400026649237,0.000888211769052,-0.0148017769679
1970/01/01/01:00:05.040000,248,5,39000000,,-0.400011837482,0.000592160678934,-0.0148032372817
1970/01/01/01:00:05.059000,249,5,59000000,,-0.400002658367,0.000281282060314,-0.0148041425273
1970/01/01/01:00:05.081000,250,5,81000000,,-0.400000035763,-2.9608811019e-05,-0.0148044032976
1970/01/01/01:00:05.100000,251,5,98000000,,-0.40000295639,-0.000296086189337,-0.0148041145876
1970/01/01/01:00:05.119000,252,5,118000000,,-0.400011837482,-0.000592160678934,-0.0148032372817
1970/01/01/01:00:05.138000,253,5,138000000,,-0.400026649237,-0.000888211769052,-0.0148017769679
1970/01/01/01:00:05.159000,254,5,158000000,,-0.400047361851,-0.00118422787637,-0.0147997308522
1970/01/01/01:00:05.179000,255,5,179000000,,-0.400074005127,-0.00148019718472,-0.0147971017286
1970/01/01/01:00:05.199000,256,5,198000000,,-0.400106579065,-0.00177610805258,-0.0147938877344
1970/01/01/01:00:05.222000,257,5,221000000,,-0.400151342154,-0.00211631809361,-0.0147894695401
1970/01/01/01:00:05.240000,258,5,239000000,,-0.400189459324,-0.00236770766787,-0.0147857079282
1970/01/01/01:00:05.259000,259,5,258000000,,-0.400239765644,-0.00266337324865,-0.0147807421163
1970/01/01/01:00:05.282000,260,5,281000000,,-0.400301933289,-0.00298848329112,-0.0147746065632
1970/01/01/01:00:05.298000,261,5,298000000,,-0.400358110666,-0.00325437705033,-0.0147690614685
1970/01/01/01:00:05.319000,262,5,318000000,,-0.400426179171,-0.00354969198816,-0.0147623457015
1970/01/01/01:00:05.339000,263,5,338000000,,-0.400500118732,-0.00384486699477,-0.0147550478578
1970/01/01/01:00:05.359000,264,5,358000000,,-0.400579959154,-0.00413988996297,-0.0147471670061
1970/01/01/01:00:05.379000,265,5,379000000,,-0.400665700436,-0.00443474994972,-0.0147387040779
1970/01/01/01:00:05.400000,266,5,399000000,,-0.400762081146,-0.00474416371435,-0.0147291915491
1970/01/01/01:00:05.419000,267,5,418000000,,-0.400854885578,-0.00502393208444,-0.0147200329229
1970/01/01/01:00:05.441000,268,5,440000000,,-0.400968968868,-0.00534765049815,-0.014708773233
1970/01/01/01:00:05.460000,269,5,458000000,,-0.401067614555,-0.00561232166365,-0.0146990381181
1970/01/01/01:00:05.479000,270,5,478000000,,-0.401182800531,-0.0059061893262,-0.0146876694635
1970/01/01/01:00:05.500000,271,5,500000000,,-0.401303857565,-0.0061998241581,-0.0146757215261
1970/01/01/01:00:05.520000,272,5,519000000,,-0.401430785656,-0.00649321451783,-0.0146631933749
1970/01/01/01:00:05.539000,273,5,538000000,,-0.401563584805,-0.00678634829819,-0.0146500868723
1970/01/01/01:00:05.560000,274,5,559000000,,-0.401702225208,-0.00707921432331,-0.0146364020184
1970/01/01/01:00:05.579000,275,5,578000000,,-0.40184673667,-0.007371800486,-0.0146221397445
1970/01/01/01:00:05.599000,276,5,598000000,,-0.401997119188,-0.00766409607604,-0.0146073000506
1970/01/01/01:00:05.619000,277,5,618000000,,-0.40215331316,-0.00795608852059,-0.0145918829367
1970/01/01/01:00:05.640000,278,5,638000000,,-0.402315348387,-0.00824776757509,-0.0145758911967
1970/01/01/01:00:05.660000,279,5,659000000,,-0.402491778135,-0.00855367910117,-0.0145584791899
1970/01/01/01:00:05.678000,280,5,678000000,,-0.402656912804,-0.00883013661951,-0.0145421801135
1970/01/01/01:00:05.700000,281,5,698000000,,-0.402836412191,-0.00912080425769,-0.0145244626328
1970/01/01/01:00:05.718000,282,5,718000000,,-0.403021752834,-0.00941111147404,-0.0145061723888
1970/01/01/01:00:05.739000,283,5,738000000,,-0.403212875128,-0.00970104709268,-0.0144873093814
1970/01/01/01:00:05.760000,284,5,760000000,,-0.403409779072,-0.00999059993774,-0.0144678745419
1970/01/01/01:00:05.780000,285,5,779000000,,-0.403612494469,-0.010279757902,-0.0144478688017
1970/01/01/01:00:05.799000,286,5,798000000,,-0.403820961714,-0.010568510741,-0.0144272921607
1970/01/01/01:00:05.820000,287,5,819000000,,-0.404035210609,-0.0108568463475,-0.0144061464816
1970/01/01/01:00:05.839000,288,5,838000000,,-0.404255241156,-0.0111447526142,-0.0143844308332
1970/01/01/01:00:05.858000,289,5,858000000,,-0.40448102355,-0.0114322192967,-0.0143621489406
1970/01/01/01:00:05.879000,290,5,878000000,,-0.40471252799,-0.0117192352191,-0.0143392989412
1970/01/01/01:00:05.900000,291,5,899000000,,-0.404961794615,-0.0120201027021,-0.0143146971241
1970/01/01/01:00:05.920000,292,5,919000000,,-0.405192762613,-0.0122918663546,-0.0142919020727
1970/01/01/01:00:05.940000,293,5,940000000,,-0.405441462994,-0.0125774601474,-0.0142673570663
1970/01/01/01:00:05.961000,294,5,961000000,,-0.405708730221,-0.0128767983988,-0.0142409782857
1970/01/01/01:00:05.979000,295,5,979000000,,-0.405955940485,-0.013147146441,-0.0142165785655
1970/01/01/01:00:05.998000,296,5,998000000,,-0.406221717596,-0.0134312165901,-0.0141903460026
1970/01/01/01:00:06.020000,297,6,20000000,,-0.406506925821,-0.013728919439,-0.0141621995717
1970/01/01/01:00:06.039000,298,6,39000000,,-0.406770318747,-0.0139977550134,-0.0141362026334
1970/01/01/01:00:06.060000,299,6,60000000,,-0.407053112984,-0.0142802009359,-0.0141082936898
1970/01/01/01:00:06.080000,300,6,79000000,,-0.407341510057,-0.0145620824769,-0.0140798278153
1970/01/01/01:00:06.100000,301,6,99000000,,-0.407635569572,-0.0148433903232,-0.0140508050099
1970/01/01/01:00:06.119000,302,6,119000000,,-0.407935261726,-0.0151241114363,-0.0140212280676
1970/01/01/01:00:06.140000,303,6,140000000,,-0.408255964518,-0.0154182258993,-0.0139895770699
1970/01/01/01:00:06.160000,304,6,159000000,,-0.408567100763,-0.0156977120787,-0.013958866708
1970/01/01/01:00:06.180000,305,6,179000000,,-0.408867895603,-0.0159626491368,-0.0139291817322
1970/01/01/01:00:06.200000,306,6,199000000,,-0.409206181765,-0.016254812479,-0.0138957938179
1970/01/01/01:00:06.219000,307,6,218000000,,-0.409517526627,-0.0165185406804,-0.0138650657609
1970/01/01/01:00:06.241000,308,6,239000000,,-0.409867465496,-0.0168093461543,-0.0138305276632
1970/01/01/01:00:06.259000,309,6,258000000,,-0.410189330578,-0.0170718245208,-0.0137987593189
1970/01/01/01:00:06.280000,310,6,278000000,,-0.410533517599,-0.0173474606127,-0.013764789328
1970/01/01/01:00:06.299000,311,6,298000000,,-0.41088321805,-0.0176224131137,-0.0137302754447
1970/01/01/01:00:06.318000,312,6,318000000,,-0.411238431931,-0.0178966689855,-0.0136952195317
1970/01/01/01:00:06.338000,313,6,339000000,,-0.411599099636,-0.0181702170521,-0.0136596225202
1970/01/01/01:00:06.359000,314,6,358000000,,-0.411965221167,-0.018443049863,-0.013623486273
1970/01/01/01:00:06.380000,315,6,379000000,,-0.412336796522,-0.018715152517,-0.0135868126526
1970/01/01/01:00:06.400000,316,6,399000000,,-0.412732809782,-0.0190000664443,-0.0135477278382
1970/01/01/01:00:06.420000,317,6,419000000,,-0.413096249104,-0.0192571338266,-0.0135118570179
1970/01/01/01:00:06.441000,318,6,439000000,,-0.413484096527,-0.0195269901305,-0.0134735787287
1970/01/01/01:00:06.459000,319,6,459000000,,-0.413877338171,-0.0197960734367,-0.0134347686544
1970/01/01/01:00:06.481000,320,6,480000000,,-0.414316087961,-0.0200911629945,-0.0133914640173
1970/01/01/01:00:06.499000,321,6,498000000,,-0.414679914713,-0.0203318875283,-0.0133555578068
1970/01/01/01:00:06.519000,322,6,518000000,,-0.415089219809,-0.0205985959619,-0.0133151607588
1970/01/01/01:00:06.540000,323,6,540000000,,-0.415524721146,-0.020877763629,-0.0132721783593
1970/01/01/01:00:06.560000,324,6,558000000,,-0.415923774242,-0.0211295615882,-0.0132327917963
1970/01/01/01:00:06.580000,325,6,579000000,,-0.416370421648,-0.021406987682,-0.0131887104362
1970/01/01/01:00:06.599000,326,6,598000000,,-0.416779518127,-0.0216571912169,-0.013148332946
1970/01/01/01:00:06.619000,327,6,619000000,,-0.417215317488,-0.0219197273254,-0.0131053244695
1970/01/01/01:00:06.640000,328,6,639000000,,-0.417656302452,-0.0221814010292,-0.0130617981777
1970/01/01/01:00:06.659000,329,6,659000000,,-0.418102562428,-0.0224421974272,-0.0130177559331
1970/01/01/01:00:06.679000,330,6,679000000,,-0.418554008007,-0.022702107206,-0.0129732005298
1970/01/01/01:00:06.699000,331,6,698000000,,-0.419010639191,-0.0229611210525,-0.0129281328991
1970/01/01/01:00:06.719000,332,6,718000000,,-0.419472426176,-0.0232192296535,-0.0128825539723
1970/01/01/01:00:06.739000,333,6,738000000,,-0.419939398766,-0.0234764199704,-0.0128364674747
1970/01/01/01:00:06.759000,334,6,759000000,,-0.420411497355,-0.0237326845527,-0.0127898734063
1970/01/01/01:00:06.778000,335,6,778000000,,-0.420888692141,-0.0239880122244,-0.012742774561
1970/01/01/01:00:06.799000,336,6,798000000,,-0.421371012926,-0.0242423918098,-0.0126951737329
1970/01/01/01:00:06.819000,337,6,818000000,,-0.421858400106,-0.0244958158582,-0.0126470699906
1970/01/01/01:00:06.840000,338,6,839000000,,-0.422350823879,-0.0247482713312,-0.0125984679908
1970/01/01/01:00:06.860000,339,6,859000000,,-0.422848314047,-0.0249997507781,-0.0125493686646
1970/01/01/01:00:06.879000,340,6,878000000,,-0.423350811005,-0.025250243023,-0.0124997738749
1970/01/01/01:00:06.900000,341,6,900000000,,-0.423858314753,-0.0254997387528,-0.0124496854842
1970/01/01/01:00:06.919000,342,6,918000000,,-0.424370795488,-0.0257482267916,-0.0123991053551
1970/01/01/01:00:06.940000,343,6,939000000,,-0.424914240837,-0.0260080453008,-0.0123454695567
1970/01/01/01:00:06.959000,344,6,959000000,,-0.425410628319,-0.0262421444058,-0.0122964791954
1970/01/01/01:00:06.982000,345,6,981000000,,-0.425990909338,-0.0265120379627,-0.0122392065823
1970/01/01/01:00:06.999000,346,6,998000000,,-0.42647010088,-0.0267319194973,-0.012191911228
1970/01/01/01:00:07.020000,347,7,19000000,,-0.427007198334,-0.0269752275199,-0.0121389040723
1970/01/01/01:00:07.040000,348,7,39000000,,-0.427549123764,-0.0272174719721,-0.0120854182169
1970/01/01/01:00:07.060000,349,7,60000000,,-0.428095877171,-0.0274586416781,-0.0120314545929
1970/01/01/01:00:07.081000,350,7,80000000,,-0.428647458553,-0.0276987273246,-0.0119770169258
1970/01/01/01:00:07.100000,351,7,99000000,,-0.429203808308,-0.0279377195984,-0.0119221052155
1970/01/01/01:00:07.121000,352,7,119000000,,-0.429793119431,-0.0281874742359,-0.0118639422581
1970/01/01/01:00:07.140000,353,7,139000000,,-0.430330842733,-0.0284123849124,-0.0118108736351
1970/01/01/01:00:07.162000,354,7,161000000,,-0.4309874475,-0.0286832917482,-0.0117460694164
1970/01/01/01:00:07.179000,355,7,178000000,,-0.431476742029,-0.0288825649768,-0.0116977756843
1970/01/01/01:00:07.199000,356,7,198000000,,-0.432056725025,-0.0291159488261,-0.0116405338049
1970/01/01/01:00:07.219000,357,7,218000000,,-0.432641386986,-0.0293481834233,-0.0115828318521
1970/01/01/01:00:07.240000,358,7,238000000,,-0.433230668306,-0.0295792594552,-0.01152467262
1970/01/01/01:00:07.260000,359,7,259000000,,-0.433824539185,-0.029809165746,-0.0114660579711
1970/01/01/01:00:07.279000,360,7,278000000,,-0.43442299962,-0.0300378985703,-0.0114069916308
1970/01/01/01:00:07.300000,361,7,300000000,,-0.435086607933,-0.0302881319076,-0.0113414973021
1970/01/01/01:00:07.320000,362,7,319000000,,-0.435664117336,-0.0305030792952,-0.0112844994292
1970/01/01/01:00:07.339000,363,7,338000000,,-0.436245709658,-0.0307169407606,-0.0112270982936
1970/01/01/01:00:07.359000,364,7,359000000,,-0.436862289906,-0.030940875411,-0.0111662438139
1970/01/01/01:00:07.379000,365,7,378000000,,-0.437483340502,-0.0311635881662,-0.0111049488187
1970/01/01/01:00:07.400000,366,7,398000000,,-0.438108831644,-0.0313850715756,-0.0110432161018
1970/01/01/01:00:07.419000,367,7,418000000,,-0.43873873353,-0.0316053144634,-0.0109810465947
1970/01/01/01:00:07.439000,368,7,438000000,,-0.43937304616,-0.0318243093789,-0.0109184440225
1970/01/01/01:00:07.459000,369,7,458000000,,-0.440011709929,-0.0320420488715,-0.010855410248
1970/01/01/01:00:07.480000,370,7,478000000,,-0.440654695034,-0.0322585217655,-0.0107919480652
1970/01/01/01:00:07.499000,371,7,498000000,,-0.441302031279,-0.0324737243354,-0.0107280593365
1970/01/01/01:00:07.519000,372,7,518000000,,-0.441953659058,-0.0326876416802,-0.0106637477875
1970/01/01/01:00:07.541000,373,7,540000000,,-0.44264242053,-0.0329108685255,-0.0105957668275
1970/01/01/01:00:07.560000,374,7,559000000,,-0.443269640207,-0.0331115983427,-0.0105338636786
1970/01/01/01:00:07.579000,375,7,578000000,,-0.443933993578,-0.0333216227591,-0.0104682967067
1970/01/01/01:00:07.599000,376,7,598000000,,-0.444602519274,-0.0335303284228,-0.0104023162276
1970/01/01/01:00:07.621000,377,7,620000000,,-0.445275187492,-0.0337377116084,-0.0103359250352
1970/01/01/01:00:07.640000,378,7,638000000,,-0.445951998234,-0.0339437648654,-0.0102691259235
1970/01/01/01:00:07.659000,379,7,658000000,,-0.446632921696,-0.0341484732926,-0.0102019207552
1970/01/01/01:00:07.680000,380,7,679000000,,-0.447317928076,-0.03435183689,-0.0101343132555
1970/01/01/01:00:07.701000,381,7,701000000,,-0.44807612896,-0.0345739684999,-0.0100594833493
1970/01/01/01:00:07.719000,382,7,719000000,,-0.448700070381,-0.0347544886172,-0.00999790150672
1970/01/01/01:00:07.741000,383,7,741000000,,-0.449397176504,-0.0349537581205,-0.00992910191417
1970/01/01/01:00:07.758000,384,7,758000000,,-0.450098216534,-0.0351516492665,-0.00985991023481
1970/01/01/01:00:07.780000,385,7,779000000,,-0.450803220272,-0.0353481508791,-0.00979033019394
1970/01/01/01:00:07.799000,386,7,799000000,,-0.451512128115,-0.0355432592332,-0.00972036272287
1970/01/01/01:00:07.820000,387,7,818000000,,-0.452224940062,-0.0357369631529,-0.00965001154691
1970/01/01/01:00:07.840000,388,7,838000000,,-0.452941596508,-0.0359292551875,-0.00957927946001
1970/01/01/01:00:07.860000,389,7,859000000,,-0.453698217869,-0.0361296385527,-0.00950460415334
1970/01/01/01:00:07.880000,390,7,878000000,,-0.454386413097,-0.03630958125,-0.00943668372929
1970/01/01/01:00:07.899000,391,7,898000000,,-0.455114483833,-0.0364975966513,-0.0093648256734
1970/01/01/01:00:07.920000,392,7,919000000,,-0.455846309662,-0.0366841703653,-0.00929259788245
1970/01/01/01:00:07.940000,393,7,940000000,,-0.456618696451,-0.0368785150349,-0.0092163644731
1970/01/01/01:00:07.960000,394,7,959000000,,-0.457358121872,-0.0370621159673,-0.0091433878988
1970/01/01/01:00:07.979000,395,7,978000000,,-0.458063930273,-0.0372351780534,-0.00907372497022
1970/01/01/01:00:07.999000,396,7,998000000,,-0.458810448647,-0.0374159142375,-0.00900004711002
1970/01/01/01:00:08.018000,397,8,18000000,,-0.459560573101,-0.037595178932,-0.00892601441592
1970/01/01/01:00:08.041000,398,8,40000000,,-0.460314244032,-0.0377729535103,-0.00885162875056
1970/01/01/01:00:08.062000,399,8,59000000,,-0.461109429598,-0.0379580147564,-0.00877314712852
1970/01/01/01:00:08.081000,400,8,80000000,,-0.461908489466,-0.0381414219737,-0.00869428459555
1970/01/01/01:00:08.100000,401,8,98000000,,-0.462596416473,-0.0382973104715,-0.00862638652325
1970/01/01/01:00:08.120000,402,8,119000000,,-0.463364094496,-0.0384690798819,-0.00855062156916
1970/01/01/01:00:08.140000,403,8,139000000,,-0.464173823595,-0.0386478044093,-0.00847070384771
1970/01/01/01:00:08.160000,404,8,159000000,,-0.464948475361,-0.0388164557517,-0.00839424971491
1970/01/01/01:00:08.181000,405,8,179000000,,-0.465687483549,-0.0389752537012,-0.00832131132483
1970/01/01/01:00:08.200000,406,8,199000000,,-0.466468662024,-0.0391409099102,-0.00824421271682
1970/01/01/01:00:08.221000,407,8,220000000,,-0.46733173728,-0.0393213443458,-0.00815902929753
1970/01/01/01:00:08.240000,408,8,239000000,,-0.468040853739,-0.0394675806165,-0.00808904413134
1970/01/01/01:00:08.260000,409,8,259000000,,-0.468831807375,-0.0396285802126,-0.00801097881049
1970/01/01/01:00:08.280000,410,8,279000000,,-0.469625979662,-0.0397880151868,-0.00793259777129
1970/01/01/01:00:08.300000,411,8,299000000,,-0.470463275909,-0.0399537347257,-0.00784996058792
1970/01/01/01:00:08.320000,412,8,319000000,,-0.471223801374,-0.0401021689177,-0.00777489878237
1970/01/01/01:00:08.339000,413,8,339000000,,-0.472027391195,-0.0402568764985,-0.00769558735192
1970/01/01/01:00:08.360000,414,8,359000000,,-0.472834080458,-0.0404099933803,-0.00761597184464
1970/01/01/01:00:08.379000,415,8,378000000,,-0.473643779755,-0.0405615121126,-0.00753605598584
1970/01/01/01:00:08.402000,416,8,401000000,,-0.474578678608,-0.0407337807119,-0.00744378520176
1970/01/01/01:00:08.419000,417,8,418000000,,-0.475272238255,-0.0408597439528,-0.00737533485517
1970/01/01/01:00:08.440000,418,8,440000000,,-0.476090908051,-0.0410064421594,-0.00729453610256
1970/01/01/01:00:08.458000,419,8,458000000,,-0.476912468672,-0.0411515235901,-0.00721344910562
1970/01/01/01:00:08.480000,420,8,478000000,,-0.477736949921,-0.0412949807942,-0.00713207712397
1970/01/01/01:00:08.500000,421,8,499000000,,-0.478605717421,-0.0414438545704,-0.00704633397982
1970/01/01/01:00:08.520000,422,8,518000000,,-0.47939440608,-0.0415769927204,-0.00696849217638
1970/01/01/01:00:08.539000,423,8,539000000,,-0.480227351189,-0.0417155437171,-0.00688628572971
1970/01/01/01:00:08.560000,424,8,560000000,,-0.481104880571,-0.0418592467904,-0.0067996759899
1970/01/01/01:00:08.580000,425,8,580000000,,-0.481901437044,-0.0419876947999,-0.00672105979174
1970/01/01/01:00:08.600000,426,8,599000000,,-0.482742518187,-0.04212128371,-0.00663804728538
1970/01/01/01:00:08.620000,427,8,620000000,,-0.483628511429,-0.0422597676516,-0.00655060214922
1970/01/01/01:00:08.641000,428,8,639000000,,-0.484475016594,-0.0423899441957,-0.00646705599502
1970/01/01/01:00:08.659000,429,8,658000000,,-0.485281586647,-0.042512062937,-0.00638745073229
1970/01/01/01:00:08.678000,430,8,678000000,,-0.486133098602,-0.0426389686763,-0.00630340958014
1970/01/01/01:00:08.699000,431,8,698000000,,-0.486987143755,-0.0427641943097,-0.00621911976486
1970/01/01/01:00:08.720000,432,8,720000000,,-0.4878436625,-0.0428877323866,-0.00613458454609
1970/01/01/01:00:08.739000,433,8,738000000,,-0.488702625036,-0.0430095791817,-0.00604980718344
1970/01/01/01:00:08.759000,434,8,758000000,,-0.489564031363,-0.0431297235191,-0.0059647904709
1970/01/01/01:00:08.779000,435,8,778000000,,-0.490427821875,-0.0432481691241,-0.00587953906506
1970/01/01/01:00:08.801000,436,8,801000000,,-0.491380691528,-0.0433764830232,-0.00578549364582
1970/01/01/01:00:08.819000,437,8,818000000,,-0.492162406445,-0.0434799268842,-0.00570834241807
1970/01/01/01:00:08.839000,438,8,838000000,,-0.493033140898,-0.0435932353139,-0.00562240416184
1970/01/01/01:00:08.862000,439,8,861000000,,-0.493949830532,-0.0437103584409,-0.00553193036467
1970/01/01/01:00:08.879000,440,8,878000000,,-0.494781315327,-0.0438146851957,-0.00544986547902
1970/01/01/01:00:08.900000,441,8,899000000,,-0.495658695698,-0.0439228154719,-0.00536327203736
1970/01/01/01:00:08.919000,442,8,919000000,,-0.496538221836,-0.0440292134881,-0.00527646625414
1970/01/01/01:00:08.939000,443,8,939000000,,-0.497464001179,-0.0441390611231,-0.00518509652466
1970/01/01/01:00:08.959000,444,8,959000000,,-0.498347789049,-0.0442418903112,-0.00509786792099
1970/01/01/01:00:08.982000,445,8,980000000,,-0.499233663082,-0.0443429760635,-0.005010437686
1970/01/01/01:00:09.001000,446,9,0,,-0.500165939331,-0.0444472283125,-0.00491842348129
1970/01/01/01:00:09.022000,447,9,20000000,,-0.501055896282,-0.0445447191596,-0.0048305913806
1970/01/01/01:00:09.045000,448,9,41000000,,-0.501947700977,-0.0446404516697,-0.00474256882444
1970/01/01/01:00:09.062000,449,9,61000000,,-0.502886235714,-0.0447390712798,-0.00464994367212
1970/01/01/01:00:09.080000,450,9,78000000,,-0.503647446632,-0.04481748119,-0.00457481341437
1970/01/01/01:00:09.102000,451,9,99000000,,-0.504589617252,-0.0449125766754,-0.00448182504624
1970/01/01/01:00:09.124000,452,9,123000000,,-0.505578756332,-0.0450101047754,-0.00438419915736
1970/01/01/01:00:09.139000,453,9,139000000,,-0.506344556808,-0.0450839921832,-0.00430861767381
1970/01/01/01:00:09.166000,454,9,164000000,,-0.507427811623,-0.0451861172915,-0.00420170556754
1970/01/01/01:00:09.181000,455,9,178000000,,-0.508151352406,-0.0452527739108,-0.00413029780611
1970/01/01/01:00:09.200000,456,9,200000000,,-0.509057223797,-0.0453344844282,-0.00404089130461
1970/01/01/01:00:09.220000,457,9,218000000,,-0.509964704514,-0.0454144068062,-0.00395132554695
1970/01/01/01:00:09.240000,458,9,238000000,,-0.510873794556,-0.0454925373197,-0.00386160379276
1970/01/01/01:00:09.260000,459,9,259000000,,-0.511829972267,-0.0455726422369,-0.00376723171212
1970/01/01/01:00:09.280000,460,9,280000000,,-0.512696504593,-0.0456434078515,-0.00368170626462
1970/01/01/01:00:09.299000,461,9,298000000,,-0.513610124588,-0.0457161404192,-0.00359153770842
1970/01/01/01:00:09.320000,462,9,319000000,,-0.514525175095,-0.0457870662212,-0.00350122735836
1970/01/01/01:00:09.341000,463,9,339000000,,-0.51548743248,-0.0458595938981,-0.00340625271201
1970/01/01/01:00:09.359000,464,9,358000000,,-0.516359388828,-0.0459234975278,-0.00332019547932
1970/01/01/01:00:09.379000,465,9,379000000,,-0.517278492451,-0.0459889955819,-0.00322948116809
1970/01/01/01:00:09.400000,466,9,398000000,,-0.518198907375,-0.0460526756942,-0.0031386394985
1970/01/01/01:00:09.420000,467,9,420000000,,-0.519166707993,-0.0461175851524,-0.00304312235676
1970/01/01/01:00:09.439000,468,9,439000000,,-0.520043492317,-0.046174582094,-0.00295658782125
1970/01/01/01:00:09.460000,469,9,459000000,,-0.52096760273,-0.0462328009307,-0.00286538503133
1970/01/01/01:00:09.480000,470,9,478000000,,-0.521892786026,-0.0462891943753,-0.00277406908572
1970/01/01/01:00:09.499000,471,9,498000000,,-0.522819161415,-0.0463437624276,-0.0026826437097
1970/01/01/01:00:09.521000,472,9,520000000,,-0.523746550083,-0.0463965013623,-0.00259111262858
1970/01/01/01:00:09.543000,473,9,541000000,,-0.524767875671,-0.046452395618,-0.00249031023122
1970/01/01/01:00:09.560000,474,9,559000000,,-0.525650918484,-0.0464988835156,-0.00240315753035
1970/01/01/01:00:09.580000,475,9,579000000,,-0.526534855366,-0.0465437173843,-0.00231591938064
1970/01/01/01:00:09.600000,476,9,599000000,,-0.52746617794,-0.0465891174972,-0.00222400063649
1970/01/01/01:00:09.620000,477,9,618000000,,-0.528398394585,-0.0466326773167,-0.00213199411519
1970/01/01/01:00:09.640000,478,9,638000000,,-0.529331445694,-0.0466743968427,-0.00203990354203
1970/01/01/01:00:09.660000,479,9,659000000,,-0.530265331268,-0.0467142723501,-0.00194773229305
1970/01/01/01:00:09.679000,480,9,679000000,,-0.531199991703,-0.0467523038387,-0.00185548409354
1970/01/01/01:00:09.701000,481,9,700000000,,-0.532182216644,-0.0467902496457,-0.00175854482222
1970/01/01/01:00:09.721000,482,9,720000000,,-0.533118367195,-0.0468244999647,-0.00166615052149
1970/01/01/01:00:09.740000,483,9,739000000,,-0.534008324146,-0.0468553192914,-0.00157831492834
1970/01/01/01:00:09.760000,484,9,760000000,,-0.53499263525,-0.0468874461949,-0.0014811680885
1970/01/01/01:00:09.779000,485,9,779000000,,-0.535883724689,-0.0469147525728,-0.00139321770985
1970/01/01/01:00:09.800000,486,9,800000000,,-0.536869287491,-0.0469429902732,-0.00129595177714
1970/01/01/01:00:09.819000,487,9,819000000,,-0.537761390209,-0.0469667762518,-0.00120790058281
1970/01/01/01:00:09.840000,488,9,838000000,,-0.538700997829,-0.0469900071621,-0.00111516867764
1970/01/01/01:00:09.860000,489,9,860000000,,-0.539687991142,-0.0470124036074,-0.001017752802
1970/01/01/01:00:09.879000,490,9,878000000,,-0.540581405163,-0.047030903399,-0.000929576402996
1970/01/01/01:00:09.900000,491,9,900000000,,-0.541569292545,-0.0470493994653,-0.000832079793327
1970/01/01/01:00:09.920000,492,9,919000000,,-0.542463362217,-0.047064371407,-0.000743837328628
1970/01/01/01:00:09.939000,493,9,938000000,,-0.543404757977,-0.0470783188939,-0.000650921894703
1970/01/01/01:00:09.961000,494,9,960000000,,-0.544440627098,-0.0470915138721,-0.000548685376998
1970/01/01/01:00:09.980000,495,9,978000000,,-0.545288383961,-0.0471006371081,-0.000465017656097
1970/01/01/01:00:09.998000,496,9,998000000,,-0.546230494976,-0.0471090078354,-0.000372036156477
1970/01/01/01:00:10.021000,497,10,21000000,,-0.547266960144,-0.0471160672605,-0.000269739684882
1970/01/01/01:00:10.041000,498,10,39000000,,-0.548162221909,-0.0471203513443,-0.000181382187293
1970/01/01/01:00:10.059000,499,10,58000000,,-0.549057543278,-0.0471229590476,-9.30182213779e-05
1970/01/01/01:00:10.081000,500,10,80000000,,-0.55004709959,-0.0471238866448,4.65094126412e-06
1970/01/01/01:00:10.099000,501,10,99000000,,-0.550942480564,-0.0471229590476,9.30182213779e-05
1970/01/01/01:00:10.120000,502,10,119000000,,-0.551884889603,-0.0471201688051,0.000186032761121
1970/01/01/01:00:10.139000,503,10,139000000,,-0.552827239037,-0.0471155196428,0.000279039959423
1970/01/01/01:00:10.160000,504,10,158000000,,-0.553769528866,-0.0471090078354,0.000372036156477
1970/01/01/01:00:10.181000,505,10,180000000,,-0.55480581522,-0.0470996983349,0.000474314845633
1970/01/01/01:00:10.200000,506,10,199000000,,-0.555653512478,-0.0470904074609,0.0005579807912
1970/01/01/01:00:10.220000,507,10,219000000,,-0.556595206261,-0.0470783188939,0.000650921894703
1970/01/01/01:00:10.240000,508,10,239000000,,-0.557536661625,-0.047064371407,0.000743837328628
1970/01/01/01:00:10.260000,509,10,258000000,,-0.558477759361,-0.0470485650003,0.000836723367684
1970/01/01/01:00:10.280000,510,10,280000000,,-0.559418559074,-0.047030903399,0.000929576402996
1970/01/01/01:00:10.300000,511,10,299000000,,-0.56035900116,-0.0470113828778,0.00102239265107
1970/01/01/01:00:10.322000,512,10,322000000,,-0.561393022537,-0.0469877682626,0.00112444383558
1970/01/01/01:00:10.340000,513,10,340000000,,-0.562238574028,-0.0469667762518,0.00120790058281
1970/01/01/01:00:10.359000,514,10,359000000,,-0.563177704811,-0.0469416901469,0.00130058487412
1970/01/01/01:00:10.379000,515,10,378000000,,-0.564116239548,-0.0469147525728,0.00139321770985
1970/01/01/01:00:10.399000,516,10,398000000,,-0.565054237843,-0.0468859635293,0.00148579559755
1970/01/01/01:00:10.419000,517,10,418000000,,-0.565991699696,-0.0468553192914,0.00157831492834
1970/01/01/01:00:10.439000,518,10,438000000,,-0.566928446293,-0.0468228310347,0.00167077186052
1970/01/01/01:00:10.459000,519,10,458000000,,-0.567864596844,-0.0467884913087,0.00176316278521
1970/01/01/01:00:10.478000,520,10,478000000,,-0.568799972534,-0.0467523038387,0.00185548409354
1970/01/01/01:00:10.499000,521,10,498000000,,-0.569734632969,-0.0467142723501,0.00194773229305
1970/01/01/01:00:10.520000,522,10,519000000,,-0.57071518898,-0.0466723516583,0.00204450986348
1970/01/01/01:00:10.540000,523,10,539000000,,-0.571601629257,-0.0466326773167,0.00213199411519
1970/01/01/01:00:10.558000,524,10,558000000,,-0.572533845901,-0.0465891174972,0.00222400063649
1970/01/01/01:00:10.580000,525,10,579000000,,-0.573465168476,-0.0465437173843,0.00231591938064
1970/01/01/01:00:10.599000,526,10,598000000,,-0.574395596981,-0.0464964807034,0.00240774662234
1970/01/01/01:00:10.620000,527,10,619000000,,-0.575325012207,-0.0464474074543,0.00249947886914
1970/01/01/01:00:10.640000,528,10,638000000,,-0.576253473759,-0.0463965013623,0.00259111262858
1970/01/01/01:00:10.659000,529,10,658000000,,-0.577180862427,-0.0463437624276,0.0026826437097
1970/01/01/01:00:10.680000,530,10,678000000,,-0.578107178211,-0.0462891943753,0.00277406908572
1970/01/01/01:00:10.700000,531,10,699000000,,-0.579078674316,-0.0462299324572,0.00286994781345
1970/01/01/01:00:10.719000,532,10,718000000,,-0.57995647192,-0.046174582094,0.00295658782125
1970/01/01/01:00:10.739000,533,10,738000000,,-0.58087939024,-0.0461145378649,0.00304767373018
1970/01/01/01:00:10.760000,534,10,758000000,,-0.581801056862,-0.0460526756942,0.0031386394985
1970/01/01/01:00:10.778000,535,10,778000000,,-0.582721471786,-0.0459889955819,0.00322948116809
1970/01/01/01:00:10.800000,536,10,799000000,,-0.58368653059,-0.0459201745689,0.00332472776063
1970/01/01/01:00:10.819000,537,10,818000000,,-0.584558427334,-0.0458561852574,0.00341077870689
1970/01/01/01:00:10.838000,538,10,838000000,,-0.585474848747,-0.0457870662212,0.00350122735836
1970/01/01/01:00:10.859000,539,10,858000000,,-0.586389899254,-0.0457161404192,0.00359153770842
1970/01/01/01:00:10.881000,540,10,879000000,,-0.587349116802,-0.0456397235394,0.00368621083908
1970/01/01/01:00:10.900000,541,10,899000000,,-0.588215589523,-0.0455688722432,0.00377172930166
1970/01/01/01:00:10.919000,542,10,919000000,,-0.589126229286,-0.0454925373197,0.00386160379276
1970/01/01/01:00:10.940000,543,10,938000000,,-0.590035319328,-0.0454144068062,0.00395132554695
1970/01/01/01:00:10.959000,544,10,959000000,,-0.590942800045,-0.0453344844282,0.00404089130461
1970/01/01/01:00:10.990000,545,10,987000000,,-0.592210531235,-0.0452195890248,0.00416601495817
1970/01/01/01:00:11.000000,546,10,999000000,,-0.592798054218,-0.0451650545001,0.00422399910167
1970/01/01/01:00:11.023000,547,11,21000000,,-0.593745589256,-0.0450753681362,0.00431751599535
1970/01/01/01:00:11.045000,548,11,45000000,,-0.594826161861,-0.0449704676867,0.0044241626747
1970/01/01/01:00:11.059000,549,11,59000000,,-0.595455288887,-0.0449080951512,0.00448625721037
1970/01/01/01:00:11.082000,550,11,80000000,,-0.596397340298,-0.0448129065335,0.00457923626527
1970/01/01/01:00:11.102000,551,11,100000000,,-0.597337424755,-0.0447157658637,0.00467201601714
1970/01/01/01:00:11.121000,552,11,119000000,,-0.598186194897,-0.0446262024343,0.00475578429177
1970/01/01/01:00:11.139000,553,11,139000000,,-0.599033176899,-0.044535048306,0.00483938353136
1970/01/01/01:00:11.160000,554,11,159000000,,-0.599922955036,-0.0444373823702,0.00492719607428
1970/01/01/01:00:11.182000,555,11,182000000,,-0.600810706615,-0.0443379618227,0.00501481397077
1970/01/01/01:00:11.200000,556,11,199000000,,-0.601740658283,-0.0442316867411,0.00510659953579
1970/01/01/01:00:11.221000,557,11,219000000,,-0.6025801301,-0.044133875519,0.005189452786
1970/01/01/01:00:11.240000,558,11,238000000,,-0.603461802006,-0.0440292134881,0.00527646625414
1970/01/01/01:00:11.260000,559,11,259000000,,-0.604341328144,-0.0439228154719,0.00536327203736
1970/01/01/01:00:11.279000,560,11,278000000,,-0.605218708515,-0.0438146851957,0.00544986547902
1970/01/01/01:00:11.301000,561,11,300000000,,-0.606093883514,-0.0437048226595,0.00553624425083
1970/01/01/01:00:11.319000,562,11,318000000,,-0.606966853142,-0.0435932353139,0.00562240416184
1970/01/01/01:00:11.338000,563,11,338000000,,-0.607837617397,-0.0434799268842,0.00570834241807
1970/01/01/01:00:11.361000,564,11,359000000,,-0.608706057072,-0.0433649048209,0.00579405482858
1970/01/01/01:00:11.380000,565,11,379000000,,-0.609615445137,-0.0432422868907,0.00588380685076
1970/01/01/01:00:11.403000,566,11,398000000,,-0.610435962677,-0.0431297235191,0.0059647904709
1970/01/01/01:00:11.419000,567,11,418000000,,-0.611297369003,-0.0430095791817,0.00604980718344
1970/01/01/01:00:11.438000,568,11,438000000,,-0.612156331539,-0.0428877323866,0.00613458454609
1970/01/01/01:00:11.462000,569,11,458000000,,-0.613012850285,-0.0427641943097,0.00621911976486
1970/01/01/01:00:11.478000,570,11,478000000,,-0.613866865635,-0.0426389686763,0.00630340958014
1970/01/01/01:00:11.499000,571,11,498000000,,-0.61471837759,-0.042512062937,0.00638745073229
1970/01/01/01:00:11.521000,572,11,520000000,,-0.615609765053,-0.042376998812,0.00647542253137
1970/01/01/01:00:11.539000,573,11,538000000,,-0.616413712502,-0.0422532148659,0.00655477307737
1970/01/01/01:00:11.559000,574,11,559000000,,-0.617257475853,-0.04212128371,0.00663804728538
1970/01/01/01:00:11.580000,575,11,580000000,,-0.61814057827,-0.0419809706509,0.00672520371154
1970/01/01/01:00:11.599000,576,11,598000000,,-0.618936955929,-0.0418524444103,0.00680380733684
1970/01/01/01:00:11.620000,577,11,619000000,,-0.619772672653,-0.0417155437171,0.00688628572971
1970/01/01/01:00:11.639000,578,11,638000000,,-0.620605587959,-0.0415769927204,0.00696849217638
1970/01/01/01:00:11.660000,579,11,659000000,,-0.621435701847,-0.0414368063211,0.0070504238829
1970/01/01/01:00:11.682000,580,11,681000000,,-0.622263073921,-0.0412949807942,0.00713207712397
1970/01/01/01:00:11.700000,581,11,699000000,,-0.623087525368,-0.0411515235901,0.00721344910562
1970/01/01/01:00:11.721000,582,11,720000000,,-0.623950123787,-0.040999148041,0.00729858269915
1970/01/01/01:00:11.741000,583,11,738000000,,-0.624727785587,-0.0408597439528,0.00737533485517
1970/01/01/01:00:11.760000,584,11,758000000,,-0.625543475151,-0.0407114326954,0.00745584256947
1970/01/01/01:00:11.779000,585,11,778000000,,-0.626356184483,-0.0405615121126,0.00753605598584
1970/01/01/01:00:11.801000,586,11,798000000,,-0.627165913582,-0.0404099933803,0.00761597184464
1970/01/01/01:00:11.820000,587,11,819000000,,-0.627972602844,-0.0402568764985,0.00769558735192
1970/01/01/01:00:11.839000,588,11,838000000,,-0.628776192665,-0.0401021689177,0.00777489878237
1970/01/01/01:00:11.860000,589,11,859000000,,-0.629576683044,-0.0399458818138,0.00785390287638
1970/01/01/01:00:11.882000,590,11,882000000,,-0.630453586578,-0.0397721417248,0.00794044975191
1970/01/01/01:00:11.900000,591,11,900000000,,-0.631168186665,-0.0396285802126,0.00801097881049
1970/01/01/01:00:11.918000,592,11,918000000,,-0.631959140301,-0.0394675806165,0.00808904413134
1970/01/01/01:00:11.940000,593,11,939000000,,-0.632746875286,-0.0393050201237,0.00816679000854
1970/01/01/01:00:11.960000,594,11,958000000,,-0.633531332016,-0.0391409099102,0.00824421271682
1970/01/01/01:00:11.981000,595,11,979000000,,-0.634351491928,-0.0389669314027,0.00832515675575
1970/01/01/01:00:12.000000,596,11,999000000,,-0.635090351105,-0.0388080589473,0.00839808024466
1970/01/01/01:00:12.021000,597,12,18000000,,-0.635864794254,-0.0386393330991,0.00847451761365
1970/01/01/01:00:12.039000,598,12,39000000,,-0.636635899544,-0.0384690798819,0.00855062156916
1970/01/01/01:00:12.061000,599,12,60000000,,-0.63744187355,-0.0382886826992,0.00863016583025
1970/01/01/01:00:12.079000,600,12,78000000,,-0.638167798519,-0.0381240285933,0.0087018115446
1970/01/01/01:00:12.099000,601,12,99000000,,-0.6389285326,-0.0379492416978,0.00877689383924
1970/01/01/01:00:12.119000,602,12,118000000,,-0.639685750008,-0.0377729535103,0.00885162875056
1970/01/01/01:00:12.140000,603,12,139000000,,-0.640477001667,-0.0375862494111,0.00892972387373
1970/01/01/01:00:12.159000,604,12,158000000,,-0.641189515591,-0.0374159142375,0.00900004711002
1970/01/01/01:00:12.180000,605,12,178000000,,-0.641936063766,-0.0372351780534,0.00907372497022
1970/01/01/01:00:12.200000,606,12,198000000,,-0.642678916454,-0.0370529703796,0.00914704520255
1970/01/01/01:00:12.222000,607,12,221000000,,-0.643455028534,-0.0368600748479,0.0092236418277
1970/01/01/01:00:12.240000,608,12,239000000,,-0.64415371418,-0.0366841703653,0.00929259788245
1970/01/01/01:00:12.259000,609,12,258000000,,-0.644885540009,-0.0364975966513,0.0093648256734
1970/01/01/01:00:12.278000,610,12,278000000,,-0.645613610744,-0.03630958125,0.00943668372929
1970/01/01/01:00:12.303000,611,12,301000000,,-0.646446228027,-0.0360915921628,0.00951885990798
1970/01/01/01:00:12.321000,612,12,321000000,,-0.647130250931,-0.0359100922942,0.00958636961877
1970/01/01/01:00:12.340000,613,12,338000000,,-0.647775053978,-0.0357369631529,0.00965001154691
1970/01/01/01:00:12.360000,614,12,358000000,,-0.648487865925,-0.0355432592332,0.00972036272287
1970/01/01/01:00:12.378000,615,12,378000000,,-0.64919680357,-0.0353481508791,0.00979033019394
1970/01/01/01:00:12.398000,616,12,398000000,,-0.649901807308,-0.0351516492665,0.00985991023481
1970/01/01/01:00:12.421000,617,12,419000000,,-0.650637805462,-0.0349438264966,0.00993255153298
1970/01/01/01:00:12.440000,618,12,438000000,,-0.651299893856,-0.0347544886172,0.00999790150672
1970/01/01/01:00:12.459000,619,12,459000000,,-0.65199303627,-0.0345538444817,0.0100663062185
1970/01/01/01:00:12.479000,620,12,478000000,,-0.652682065964,-0.03435183689,0.0101343132555
1970/01/01/01:00:12.499000,621,12,498000000,,-0.653367042542,-0.0341484732926,0.0102019207552
1970/01/01/01:00:12.519000,622,12,518000000,,-0.654048025608,-0.0339437648654,0.0102691259235
1970/01/01/01:00:12.539000,623,12,538000000,,-0.654724836349,-0.0337377116084,0.0103359250352
1970/01/01/01:00:12.561000,624,12,560000000,,-0.655464529991,-0.0335095189512,0.0104089323431
1970/01/01/01:00:12.579000,625,12,578000000,,-0.656066000462,-0.0333216227591,0.0104682967067
1970/01/01/01:00:12.598000,626,12,598000000,,-0.656730353832,-0.0331115983427,0.0105338636786
1970/01/01/01:00:12.620000,627,12,619000000,,-0.657390475273,-0.0329002700746,0.0105990143493
1970/01/01/01:00:12.640000,628,12,639000000,,-0.65807902813,-0.0326769761741,0.0106669729576
1970/01/01/01:00:12.659000,629,12,658000000,,-0.658697962761,-0.0324737243354,0.0107280593365
1970/01/01/01:00:12.681000,630,12,678000000,,-0.659345269203,-0.0322585217655,0.0107919480652
1970/01/01/01:00:12.700000,631,12,698000000,,-0.659988284111,-0.0320420488715,0.010855410248
1970/01/01/01:00:12.720000,632,12,719000000,,-0.66062694788,-0.0318243093789,0.0109184440225
1970/01/01/01:00:12.739000,633,12,738000000,,-0.661261260509,-0.0316053144634,0.0109810465947
1970/01/01/01:00:12.760000,634,12,760000000,,-0.661891162395,-0.0313850715756,0.0110432161018
1970/01/01/01:00:12.779000,635,12,778000000,,-0.662516653538,-0.0311635881662,0.0111049488187
1970/01/01/01:00:12.799000,636,12,799000000,,-0.663137733936,-0.030940875411,0.0111662438139
1970/01/01/01:00:12.819000,637,12,819000000,,-0.663754284382,-0.0307169407606,0.0112270982936
1970/01/01/01:00:12.842000,638,12,840000000,,-0.664366364479,-0.0304917935282,0.0112875085324
