time,.header.seq,.header.stamp.secs,.header.stamp.nsecs,.header.frame_id,.position,.velocity,.acceleration
1970/01/01/01:00:00.612000,1,0,612000000,,-0.538560032845,0.0469866394997,-0.00112908135634
1970/01/01/01:00:00.632000,2,0,631000000,,-0.537667453289,0.0469643510878,-0.00121717120055
1970/01/01/01:00:00.652000,3,0,652000000,,-0.536681473255,0.0469377674162,-0.00131448311731
1970/01/01/01:00:00.672000,4,0,671000000,,-0.535789906979,0.0469119548798,-0.00140247808304
1970/01/01/01:00:00.692000,5,0,691000000,,-0.534851968288,0.0468829795718,-0.00149505026639
1970/01/01/01:00:00.711000,6,0,711000000,,-0.533914625645,0.0468521565199,-0.00158756342717
1970/01/01/01:00:00.733000,7,0,732000000,,-0.532931089401,0.0468177981675,-0.00168463471346
1970/01/01/01:00:00.751000,8,0,751000000,,-0.532041847706,0.0467849560082,-0.00177239812911
1970/01/01/01:00:00.773000,9,0,771000000,,-0.53110653162,0.0467485822737,-0.0018647123361
1970/01/01/01:00:00.792000,10,0,791000000,,-0.53017193079,0.0467103682458,-0.00195695296861
1970/01/01/01:00:00.812000,11,0,812000000,,-0.52923810482,0.046670306474,-0.00204911618493
1970/01/01/01:00:00.833000,12,0,832000000,,-0.528305113316,0.0466284044087,-0.00214119860902
1970/01/01/01:00:00.852000,13,0,852000000,,-0.527373015881,0.0465846583247,-0.00223319651559
1970/01/01/01:00:00.871000,14,0,871000000,,-0.526441752911,0.0465390756726,-0.00232510641217
1970/01/01/01:00:00.892000,15,0,891000000,,-0.525511443615,0.0464916564524,-0.00241692434065
1970/01/01/01:00:00.911000,16,0,911000000,,-0.524582087994,0.0464424006641,-0.00250864680856
1970/01/01/01:00:00.932000,17,0,931000000,,-0.523653745651,0.0463913083076,-0.00260027032346
1970/01/01/01:00:00.952000,18,0,951000000,,-0.522726476192,0.046338390559,-0.00269179116003
1970/01/01/01:00:00.972000,19,0,972000000,,-0.521800220013,0.0462836399674,-0.00278320582584
1970/01/01/01:00:00.992000,20,0,992000000,,-0.520828902721,0.0462241843343,-0.00287907267921
1970/01/01/01:00:01.012000,21,1,12000000,,-0.519904971123,0.046165689826,-0.00297025823966
1970/01/01/01:00:01.032000,22,1,31000000,,-0.519028365612,0.0461084358394,-0.00305677577853
1970/01/01/01:00:01.052000,23,1,51000000,,-0.518106818199,0.0460463874042,-0.00314772920683
1970/01/01/01:00:01.072000,24,1,71000000,,-0.517186522484,0.0459825247526,-0.0032385585364
1970/01/01/01:00:01.092000,25,1,91000000,,-0.516267538071,0.0459168478847,-0.00332925980911
1970/01/01/01:00:01.112000,26,1,111000000,,-0.51534986496,0.0458493568003,-0.00341982976533
1970/01/01/01:00:01.132000,27,1,131000000,,-0.514433562756,0.0457800552249,-0.00351026467979
1970/01/01/01:00:01.152000,28,1,151000000,,-0.513518691063,0.0457089468837,-0.00360056106001
1970/01/01/01:00:01.172000,29,1,172000000,,-0.512605249882,0.045636035502,-0.00369071518071
1970/01/01/01:00:01.191000,30,1,191000000,,-0.511693239212,0.0455613173544,-0.00378072354943
1970/01/01/01:00:01.211000,31,1,211000000,,-0.510782778263,0.0454848073423,-0.00387058290653
1970/01/01/01:00:01.233000,32,1,232000000,,-0.509828448296,0.045402534306,-0.0039647705853
1970/01/01/01:00:01.252000,33,1,252000000,,-0.508966565132,0.0453263968229,-0.00404983945191
1970/01/01/01:00:01.273000,34,1,272000000,,-0.508015573025,0.0452403612435,-0.00414369488135
1970/01/01/01:00:01.292000,35,1,291000000,,-0.507156789303,0.0451608262956,-0.00422845641151
1970/01/01/01:00:01.312000,36,1,311000000,,-0.506254434586,0.0450753681362,-0.00431751599535
1970/01/01/01:00:01.332000,37,1,332000000,,-0.505308806896,0.0449837185442,-0.00441084522754
1970/01/01/01:00:01.352000,38,1,352000000,,-0.504454910755,0.0448991134763,-0.00449512107298
1970/01/01/01:00:01.373000,39,1,372000000,,-0.503557801247,0.0448083244264,-0.00458365911618
1970/01/01/01:00:01.391000,40,1,391000000,,-0.502662599087,0.0447157658637,-0.00467201601714
1970/01/01/01:00:01.412000,41,1,411000000,,-0.501769185066,0.0446214452386,-0.00476018851623
1970/01/01/01:00:01.432000,42,1,432000000,,-0.500877737999,0.0445253588259,-0.00484817335382
1970/01/01/01:00:01.452000,43,1,451000000,,-0.49998819828,0.0444275178015,-0.00493596633896
1970/01/01/01:00:01.473000,44,1,472000000,,-0.499056309462,0.0443228967488,-0.00502793956548
1970/01/01/01:00:01.491000,45,1,491000000,,-0.49821510911,0.0442265793681,-0.00511096511036
1970/01/01/01:00:01.511000,46,1,511000000,,-0.49733158946,0.0441234856844,-0.00519816344604
1970/01/01/01:00:01.532000,47,1,532000000,,-0.496450155973,0.0440186522901,-0.00528515642509
1970/01/01/01:00:01.553000,48,1,551000000,,-0.495570868254,0.0439120829105,-0.00537194078788
1970/01/01/01:00:01.572000,49,1,571000000,,-0.494693696499,0.0438037775457,-0.00545851327479
1970/01/01/01:00:01.592000,50,1,591000000,,-0.493818730116,0.0436937436461,-0.00554487016052
1970/01/01/01:00:01.611000,51,1,611000000,,-0.492945969105,0.0435819812119,-0.00563100818545
1970/01/01/01:00:01.634000,52,1,633000000,,-0.491988539696,0.0434570610523,-0.00572550296783
1970/01/01/01:00:01.654000,53,1,652000000,,-0.491207242012,0.0433533079922,-0.00580261368304
1970/01/01/01:00:01.673000,54,1,671000000,,-0.490341335535,0.0432364009321,-0.00588807463646
1970/01/01/01:00:01.693000,55,1,692000000,,-0.489434659481,0.0431118123233,-0.00597755843773
1970/01/01/01:00:01.716000,56,1,713000000,,-0.488530635834,0.0429853461683,-0.00606678193435
1970/01/01/01:00:01.736000,57,1,734000000,,-0.487629294395,0.0428570061922,-0.00615574140102
1970/01/01/01:00:01.756000,58,1,751000000,,-0.48690161109,0.0427517481148,-0.0062275598757
1970/01/01/01:00:01.774000,59,1,773000000,,-0.485962599516,0.042613722384,-0.0063202381134
1970/01/01/01:00:01.793000,60,1,793000000,,-0.485154092312,0.0424928814173,-0.00640003522858
1970/01/01/01:00:01.816000,61,1,812000000,,-0.484347879887,0.0423705242574,-0.00647960463539
1970/01/01/01:00:01.833000,62,1,832000000,,-0.483501762152,0.0422400943935,-0.0065631121397
1970/01/01/01:00:01.853000,63,1,852000000,,-0.482658296824,0.0421079993248,-0.00664636073634
1970/01/01/01:00:01.872000,64,1,872000000,,-0.4818174541,0.0419742427766,-0.00672934670001
1970/01/01/01:00:01.893000,65,1,891000000,,-0.480979323387,0.0418388284743,-0.00681206723675
1970/01/01/01:00:01.912000,66,1,912000000,,-0.480143934488,0.041701760143,-0.00689451862127
1970/01/01/01:00:01.932000,67,1,931000000,,-0.479311257601,0.0415630489588,-0.00697669805959
1970/01/01/01:00:01.952000,68,1,951000000,,-0.478481411934,0.0414226949215,-0.00705860182643
1970/01/01/01:00:01.972000,69,1,972000000,,-0.477654367685,0.0412807054818,-0.00714022712782
1970/01/01/01:00:01.992000,70,1,992000000,,-0.47683018446,0.0411370880902,-0.00722157070413
1970/01/01/01:00:02.011000,71,2,11000000,,-0.476008892059,0.040991846472,-0.00730262883008
1970/01/01/01:00:02.033000,72,2,32000000,,-0.475149691105,0.0408376008272,-0.00738742947578
1970/01/01/01:00:02.053000,73,2,51000000,,-0.474375098944,0.0406965129077,-0.00746387708932
1970/01/01/01:00:02.072000,74,2,71000000,,-0.473562687635,0.0405464321375,-0.00754406116903
1970/01/01/01:00:02.093000,75,2,92000000,,-0.472712874413,0.0403871275485,-0.00762793375179
1970/01/01/01:00:02.113000,76,2,112000000,,-0.471946895123,0.0402414761484,-0.00770353199914
1970/01/01/01:00:02.132000,77,2,132000000,,-0.471143603325,0.0400866121054,-0.00778281316161
1970/01/01/01:00:02.152000,78,2,151000000,,-0.470343440771,0.039930164814,-0.00786178652197
1970/01/01/01:00:02.172000,79,2,171000000,,-0.469546407461,0.0397721417248,-0.00794044975191
1970/01/01/01:00:02.192000,80,2,191000000,,-0.468752563,0.0396125502884,-0.00801880005747
1970/01/01/01:00:02.212000,81,2,211000000,,-0.467961937189,0.0394513942301,-0.00809683278203
1970/01/01/01:00:02.232000,82,2,231000000,,-0.467174530029,0.0392886772752,-0.00817454699427
1970/01/01/01:00:02.252000,83,2,252000000,,-0.466351270676,0.0391161590815,-0.00825579836965
1970/01/01/01:00:02.272000,84,2,271000000,,-0.465609550476,0.0389586053789,-0.00832900218666
1970/01/01/01:00:02.292000,85,2,292000000,,-0.46483206749,0.0387912541628,-0.00840573851019
1970/01/01/01:00:02.312000,86,2,311000000,,-0.464057922363,0.0386223755777,-0.00848214328289
1970/01/01/01:00:02.332000,87,2,331000000,,-0.463287174702,0.0384519733489,-0.00855821277946
1970/01/01/01:00:02.352000,88,2,351000000,,-0.462519854307,0.0382800512016,-0.00863394420594
1970/01/01/01:00:02.372000,89,2,371000000,,-0.461755990982,0.0381066165864,-0.00870933569968
1970/01/01/01:00:02.388000,90,2,391000000,,-0.460995584726,0.037931676954,-0.00878438260406
1970/01/01/01:00:02.419000,91,2,418000000,,-0.459974646568,0.0376931391656,-0.00888514518738
1970/01/01/01:00:02.433000,92,2,432000000,,-0.459447830915,0.0375683829188,-0.00893714185804
1970/01/01/01:00:02.452000,93,2,451000000,,-0.458735644817,0.0373979099095,-0.00900743156672
1970/01/01/01:00:02.472000,94,2,471000000,,-0.457989484072,0.0372170247138,-0.00908107310534
1970/01/01/01:00:02.491000,95,2,491000000,,-0.457246959209,0.0370346680284,-0.00915435701609
1970/01/01/01:00:02.514000,96,2,514000000,,-0.456434428692,0.0368323884904,-0.00923455134034
1970/01/01/01:00:02.532000,97,2,532000000,,-0.455736279488,0.0366562791169,-0.00930345617235
1970/01/01/01:00:02.553000,98,2,552000000,,-0.455005019903,0.0364694856107,-0.00937562808394
1970/01/01/01:00:02.572000,99,2,571000000,,-0.45431381464,0.0362907014787,-0.00944384932518
1970/01/01/01:00:02.593000,100,2,592000000,,-0.453589886427,0.0361011102796,-0.00951529759914
1970/01/01/01:00:02.611000,101,2,611000000,,-0.452869772911,0.0359100922942,-0.00958636961877
1970/01/01/01:00:02.632000,102,2,632000000,,-0.45211777091,0.0357079990208,-0.00966058857739
1970/01/01/01:00:02.652000,103,2,651000000,,-0.451441079378,0.0355238094926,-0.00972737651318
1970/01/01/01:00:02.672000,104,2,672000000,,-0.450732529163,0.0353285633028,-0.0097973048687
1970/01/01/01:00:02.692000,105,2,691000000,,-0.450027942657,0.0351319201291,-0.00986684765667
1970/01/01/01:00:02.712000,106,2,711000000,,-0.449327290058,0.0349338911474,-0.00993599928916
1970/01/01/01:00:02.732000,107,2,731000000,,-0.448630601168,0.0347344838083,-0.0100047597662
1970/01/01/01:00:02.752000,108,2,752000000,,-0.447937905788,0.0345337055624,-0.0100731253624
1970/01/01/01:00:02.772000,109,2,772000000,,-0.44721493125,0.0343214198947,-0.0101444805041
1970/01/01/01:00:02.793000,110,2,792000000,,-0.446530520916,0.0341178551316,-0.0102120274678
1970/01/01/01:00:02.812000,111,2,811000000,,-0.445884138346,0.0339232198894,-0.0102758239955
1970/01/01/01:00:02.832000,112,2,831000000,,-0.445207744837,0.033717032522,-0.0103425821289
1970/01/01/01:00:02.852000,113,2,852000000,,-0.444535464048,0.0335095189512,-0.0104089323431
1970/01/01/01:00:02.872000,114,2,871000000,,-0.443867355585,0.033300679177,-0.0104748718441
1970/01/01/01:00:02.893000,115,2,892000000,,-0.443203449249,0.0330905243754,-0.0105403969064
1970/01/01/01:00:02.912000,116,2,912000000,,-0.442543745041,0.0328790657222,-0.0106055065989
1970/01/01/01:00:02.933000,117,2,932000000,,-0.441888302565,0.0326663069427,-0.0106701981276
1970/01/01/01:00:02.952000,118,2,951000000,,-0.441237092018,0.0324522592127,-0.0107344677672
1970/01/01/01:00:02.971000,119,2,971000000,,-0.440590202808,0.0322369337082,-0.010798313655
1970/01/01/01:00:02.992000,120,2,991000000,,-0.439947634935,0.0320203304291,-0.010861732997
1970/01/01/01:00:03.012000,121,3,11000000,,-0.439309418201,0.0318024642766,-0.0109247239307
1970/01/01/01:00:03.032000,122,3,31000000,,-0.438675552607,0.0315833464265,-0.010987283662
1970/01/01/01:00:03.052000,123,3,51000000,,-0.438046067953,0.0313629768789,-0.0110494093969
1970/01/01/01:00:03.072000,124,3,72000000,,-0.437421023846,0.0311413705349,-0.0111110983416
1970/01/01/01:00:03.092000,125,3,91000000,,-0.436800420284,0.0309185367078,-0.0111723495647
1970/01/01/01:00:03.112000,126,3,111000000,,-0.436184287071,0.0306944809854,-0.0112331593409
1970/01/01/01:00:03.133000,127,3,131000000,,-0.435572654009,0.0304692126811,-0.0112935258076
1970/01/01/01:00:03.152000,128,3,152000000,,-0.434935301542,0.0302313882858,-0.0113564301282
1970/01/01/01:00:03.171000,129,3,171000000,,-0.434362947941,0.0300150774419,-0.0114129185677
1970/01/01/01:00:03.192000,130,3,192000000,,-0.43376493454,0.0297862291336,-0.0114719402045
1970/01/01/01:00:03.213000,131,3,212000000,,-0.433171510696,0.0295562036335,-0.0115305092186
1970/01/01/01:00:03.232000,132,3,231000000,,-0.432582706213,0.0293250121176,-0.0115886228159
1970/01/01/01:00:03.253000,133,3,252000000,,-0.431969434023,0.0290810130537,-0.01164914947
1970/01/01/01:00:03.278000,134,3,277000000,,-0.431274861097,0.0288006104529,-0.0117177022621
1970/01/01/01:00:03.292000,135,3,291000000,,-0.430844157934,0.0286245252937,-0.0117602096871
1970/01/01/01:00:03.311000,136,3,311000000,,-0.430274039507,0.0283887572587,-0.0118164792657
1970/01/01/01:00:03.331000,137,3,331000000,,-0.429708629847,0.0281518697739,-0.011872283183
1970/01/01/01:00:03.352000,138,3,351000000,,-0.429147958755,0.0279138702899,-0.0119276177138
1970/01/01/01:00:03.372000,139,3,371000000,,-0.428592085838,0.0276747681201,-0.0119824819267
1970/01/01/01:00:03.392000,140,3,391000000,,-0.428040981293,0.0274345744401,-0.0120368730277
1970/01/01/01:00:03.412000,141,3,411000000,,-0.427494704723,0.0271932967007,-0.0120907882228
1970/01/01/01:00:03.432000,142,3,432000000,,-0.42695325613,0.0269509460777,-0.0121442265809
1970/01/01/01:00:03.453000,143,3,452000000,,-0.426416665316,0.0267075300217,-0.0121971853077
1970/01/01/01:00:03.471000,144,3,471000000,,-0.425884962082,0.0264630615711,-0.0122496634722
1970/01/01/01:00:03.491000,145,3,491000000,,-0.425358146429,0.026217546314,-0.0123016573489
1970/01/01/01:00:03.512000,146,3,511000000,,-0.424836277962,0.0259709972888,-0.0123531650752
1970/01/01/01:00:03.533000,147,3,532000000,,-0.424293607473,0.0257110185921,-0.0124067235738
1970/01/01/01:00:03.552000,148,3,551000000,,-0.423807352781,0.0254748333246,-0.0124547164887
1970/01/01/01:00:03.572000,149,3,571000000,,-0.423300325871,0.0252252388746,-0.0125047555193
1970/01/01/01:00:03.592000,150,3,592000000,,-0.422798335552,0.0249746460468,-0.012554300949
1970/01/01/01:00:03.613000,151,3,612000000,,-0.422276645899,0.0247104652226,-0.0126057900488
1970/01/01/01:00:03.632000,152,3,632000000,,-0.421784967184,0.0244578626007,-0.0126543175429
1970/01/01/01:00:03.652000,153,3,651000000,,-0.42132255435,0.0242169965059,-0.0126999560744
1970/01/01/01:00:03.673000,154,3,671000000,,-0.420840740204,0.0239625219256,-0.0127475075424
1970/01/01/01:00:03.692000,155,3,691000000,,-0.420364052057,0.0237070992589,-0.0127945560962
1970/01/01/01:00:03.711000,156,3,711000000,,-0.419892460108,0.0234507415444,-0.0128410989419
1970/01/01/01:00:03.733000,157,3,732000000,,-0.41942602396,0.0231934599578,-0.012887135148
1970/01/01/01:00:03.753000,158,3,752000000,,-0.418964743614,0.0229352600873,-0.0129326619208
1970/01/01/01:00:03.773000,159,3,772000000,,-0.418485939503,0.0226631779224,-0.0129799162969
1970/01/01/01:00:03.792000,160,3,791000000,,-0.418057709932,0.0224161557853,-0.0130221834406
1970/01/01/01:00:03.812000,161,3,811000000,,-0.417611986399,0.0221552718431,-0.0130661735311
1970/01/01/01:00:03.832000,162,3,831000000,,-0.417171478271,0.0218935124576,-0.0131096486002
1970/01/01/01:00:03.852000,163,3,851000000,,-0.416736245155,0.0216308906674,-0.013152605854
1970/01/01/01:00:03.872000,164,3,871000000,,-0.416306257248,0.0213674120605,-0.0131950434297
1970/01/01/01:00:03.893000,165,3,891000000,,-0.415881544352,0.021103091538,-0.0132369603962
1970/01/01/01:00:03.912000,166,3,912000000,,-0.415441304445,0.0208246577531,-0.0132804103196
1970/01/01/01:00:03.932000,167,3,932000000,,-0.415048032999,0.0205719601363,-0.0133192241192
1970/01/01/01:00:03.953000,168,3,952000000,,-0.414639264345,0.0203051716089,-0.0133595690131
1970/01/01/01:00:03.972000,169,3,971000000,,-0.414235830307,0.0200375821441,-0.0133993858472
1970/01/01/01:00:03.992000,170,3,991000000,,-0.413837760687,0.0197692010552,-0.01343867369
1970/01/01/01:00:04.012000,171,4,11000000,,-0.413445085287,0.0195000376552,-0.0134774306789
1970/01/01/01:00:04.032000,172,4,31000000,,-0.413057774305,0.0192301068455,-0.0135156558827
1970/01/01/01:00:04.052000,173,4,51000000,,-0.412675887346,0.0189594160765,-0.0135533474386
1970/01/01/01:00:04.072000,174,4,71000000,,-0.412299394608,0.0186879765242,-0.0135905044153
1970/01/01/01:00:04.092000,175,4,92000000,,-0.411928355694,0.0184157993644,-0.013627124019
1970/01/01/01:00:04.117000,176,4,116000000,,-0.41147223115,0.0180745571852,-0.0136721422896
1970/01/01/01:00:04.132000,177,4,132000000,,-0.411202639341,0.0178692750633,-0.0136987492442
1970/01/01/01:00:04.152000,178,4,151000000,,-0.410848021507,0.017594948411,-0.0137337511405
1970/01/01/01:00:04.172000,179,4,171000000,,-0.410498857498,0.0173199269921,-0.0137682110071
1970/01/01/01:00:04.192000,180,4,191000000,,-0.410155206919,0.017044223845,-0.0138021269813
1970/01/01/01:00:04.212000,181,4,211000000,,-0.409817099571,0.0167678464204,-0.0138354981318
1970/01/01/01:00:04.233000,182,4,232000000,,-0.409468024969,0.016476938501,-0.0138699505478
1970/01/01/01:00:04.252000,183,4,251000000,,-0.409157454967,0.0162131171674,-0.0139006003737
1970/01/01/01:00:04.272000,184,4,271000000,,-0.408835977316,0.0159347876906,-0.0139323296025
1970/01/01/01:00:04.292000,185,4,291000000,,-0.408520072699,0.0156558267772,-0.0139635084197
1970/01/01/01:00:04.312000,186,4,312000000,,-0.40819439292,0.0153622552752,-0.0139956530184
1970/01/01/01:00:04.332000,187,4,331000000,,-0.407905042171,0.0150960655883,-0.0140242110938
1970/01/01/01:00:04.352000,188,4,351000000,,-0.407605916262,0.0148152858019,-0.0140537321568
1970/01/01/01:00:04.372000,189,4,371000000,,-0.407312422991,0.0145339202136,-0.0140826990828
1970/01/01/01:00:04.391000,190,4,391000000,,-0.407024562359,0.0142519809306,-0.0141111100093
1970/01/01/01:00:04.412000,191,4,411000000,,-0.406742364168,0.0139694791287,-0.0141389630735
1970/01/01/01:00:04.433000,192,4,431000000,,-0.406465798616,0.0136864259839,-0.0141662582755
1970/01/01/01:00:04.452000,193,4,451000000,,-0.406194895506,0.013402832672,-0.014192994684
1970/01/01/01:00:04.471000,194,4,471000000,,-0.405929684639,0.0131187103689,-0.0142191704363
1970/01/01/01:00:04.492000,195,4,491000000,,-0.405670166016,0.0128340702504,-0.014244784601
1970/01/01/01:00:04.516000,196,4,513000000,,-0.405403792858,0.0125346519053,-0.014271074906
1970/01/01/01:00:04.534000,197,4,533000000,,-0.405143707991,0.0122346887365,-0.0142967440188
1970/01/01/01:00:04.552000,198,4,552000000,,-0.404925793409,0.0119771538302,-0.0143182501197
1970/01/01/01:00:04.572000,199,4,571000000,,-0.404689103365,0.0116905542091,-0.0143416095525
1970/01/01/01:00:04.593000,200,4,592000000,,-0.404446780682,0.0113891279325,-0.0143655268475
1970/01/01/01:00:04.613000,201,4,612000000,,-0.404221862555,0.0111015941948,-0.0143877249211
1970/01/01/01:00:04.633000,202,4,633000000,,-0.404002726078,0.0108136227354,-0.0144093539566
1970/01/01/01:00:04.651000,203,4,651000000,,-0.40379986167,0.010539653711,-0.0144293755293
1970/01/01/01:00:04.672000,204,4,672000000,,-0.403591960669,0.0102508598939,-0.0144498944283
1970/01/01/01:00:04.692000,205,4,691000000,,-0.403389841318,0.0099616618827,-0.0144698442891
1970/01/01/01:00:04.712000,206,4,711000000,,-0.403193503618,0.00967206992209,-0.0144892213866
1970/01/01/01:00:04.734000,207,4,733000000,,-0.402993559837,0.00936758797616,-0.0145089523867
1970/01/01/01:00:04.752000,208,4,752000000,,-0.402818202972,0.00909175351262,-0.0145262600854
1970/01/01/01:00:04.772000,209,4,771000000,,-0.402639269829,0.00880105048418,-0.0145439198241
1970/01/01/01:00:04.792000,210,4,791000000,,-0.40246617794,0.00851000007242,-0.0145610049367
1970/01/01/01:00:04.812000,211,4,811000000,,-0.402298897505,0.00821861438453,-0.0145775163546
1970/01/01/01:00:04.833000,212,4,832000000,,-0.402129501104,0.00791230984032,-0.0145942326635
1970/01/01/01:00:04.852000,213,4,852000000,,-0.401981800795,0.00763487955555,-0.0146088097245
1970/01/01/01:00:04.872000,214,4,872000000,,-0.401832044125,0.00734255462885,-0.0146235916764
1970/01/01/01:00:04.892000,215,4,891000000,,-0.401688098907,0.00704994006082,-0.0146377971396
1970/01/01/01:00:04.912000,216,4,911000000,,-0.401550024748,0.00675704656169,-0.0146514242515
1970/01/01/01:00:04.932000,217,4,931000000,,-0.401417821646,0.0064638867043,-0.0146644720808
1970/01/01/01:00:04.952000,218,4,952000000,,-0.40128532052,0.0061557944864,-0.0146775506437
1970/01/01/01:00:04.972000,219,4,971000000,,-0.401170998812,0.00587681308389,-0.0146888326854
1970/01/01/01:00:04.992000,220,4,991000000,,-0.401056408882,0.00558292213827,-0.0147001426667
1970/01/01/01:00:05.013000,221,5,12000000,,-0.40094769001,0.00528881093487,-0.0147108724341
1970/01/01/01:00:05.031000,222,5,31000000,,-0.400844871998,0.00499449111521,-0.0147210219875
1970/01/01/01:00:05.052000,223,5,51000000,,-0.400747925043,0.00469997432083,-0.0147305903956
1970/01/01/01:00:05.072000,224,5,71000000,,-0.400656878948,0.00440527172759,-0.0147395767272
1970/01/01/01:00:05.092000,225,5,91000000,,-0.400571703911,0.00411039497703,-0.0147479809821
1970/01/01/01:00:05.113000,226,5,112000000,,-0.400492459536,0.00381535617635,-0.0147558040917
1970/01/01/01:00:05.133000,227,5,131000000,,-0.400419086218,0.00352016673423,-0.0147630432621
1970/01/01/01:00:05.152000,228,5,151000000,,-0.400351643562,0.00322483829223,-0.0147697003558
1970/01/01/01:00:05.173000,229,5,171000000,,-0.400290101767,0.00292938249186,-0.0147757744417
1970/01/01/01:00:05.192000,230,5,191000000,,-0.400234460831,0.00263381120749,-0.0147812655196
1970/01/01/01:00:05.212000,231,5,211000000,,-0.400184750557,0.00233813584782,-0.0147861726582
1970/01/01/01:00:05.231000,232,5,231000000,,-0.400140941143,0.00204236828722,-0.0147904958576
1970/01/01/01:00:05.252000,233,5,252000000,,-0.400101304054,0.00173172552604,-0.0147944074124
1970/01/01/01:00:05.273000,234,5,272000000,,-0.400071084499,0.00145060266368,-0.0147973904386
1970/01/01/01:00:05.293000,235,5,293000000,,-0.400043874979,0.00113982812036,-0.0148000754416
1970/01/01/01:00:05.312000,236,5,311000000,,-0.4000248909,0.000858608051203,-0.0148019492626
1970/01/01/01:00:05.332000,237,5,331000000,,-0.400010675192,0.00056255410891,-0.0148033518344
1970/01/01/01:00:05.352000,238,5,351000000,,-0.400002390146,0.000266477902187,-0.0148041695356
1970/01/01/01:00:05.372000,239,5,371000000,,-0.400000035763,-2.9608811019e-05,-0.0148044032976
1970/01/01/01:00:05.392000,240,5,391000000,,-0.400003582239,-0.000325694360072,-0.0148040531203
1970/01/01/01:00:05.412000,241,5,411000000,,-0.400013059378,-0.000621767016128,-0.0148031180725
1970/01/01/01:00:05.433000,242,5,431000000,,-0.400028467178,-0.000917815195862,-0.014801598154
1970/01/01/01:00:05.452000,243,5,452000000,,-0.400049775839,-0.00121382705402,-0.0147994942963
1970/01/01/01:00:05.472000,244,5,471000000,,-0.400077015162,-0.00150979100727,-0.0147968064994
1970/01/01/01:00:05.493000,245,5,492000000,,-0.400111973286,-0.00182048883289,-0.0147933550179
1970/01/01/01:00:05.513000,246,5,512000000,,-0.400151342154,-0.00211631809361,-0.0147894695401
1970/01/01/01:00:05.534000,247,5,532000000,,-0.400196611881,-0.00241206376813,-0.0147850001231
1970/01/01/01:00:05.552000,248,5,551000000,,-0.400245130062,-0.00269293412566,-0.0147802140564
1970/01/01/01:00:05.572000,249,5,571000000,,-0.400301933289,-0.00298848329112,-0.0147746065632
1970/01/01/01:00:05.593000,250,5,591000000,,-0.400364667177,-0.00328391441144,-0.014768416062
1970/01/01/01:00:05.612000,251,5,611000000,,-0.400433301926,-0.00357921607792,-0.0147616425529
1970/01/01/01:00:05.633000,252,5,632000000,,-0.400511711836,-0.00388913042843,-0.014753902331
1970/01/01/01:00:05.654000,253,5,652000000,,-0.400588274002,-0.00416938355193,-0.0147463465109
1970/01/01/01:00:05.674000,254,5,672000000,,-0.400679081678,-0.00447896402329,-0.0147373843938
1970/01/01/01:00:05.692000,255,5,691000000,,-0.400766849518,-0.00475889258087,-0.0147287230939
1970/01/01/01:00:05.712000,256,5,712000000,,-0.400864958763,-0.00505337119102,-0.0147190382704
1970/01/01/01:00:05.734000,257,5,733000000,,-0.400974333286,-0.00536235887557,-0.0147082442418
1970/01/01/01:00:05.753000,258,5,753000000,,-0.401078850031,-0.00564171839505,-0.0146979270503
1970/01/01/01:00:05.774000,259,5,774000000,,-0.40120652318,-0.00596493529156,-0.0146853262559
1970/01/01/01:00:05.793000,260,5,791000000,,-0.401316285133,-0.00622917478904,-0.0146744949743
1970/01/01/01:00:05.813000,261,5,812000000,,-0.401443809271,-0.0065225395374,-0.014661909081
1970/01/01/01:00:05.832000,262,5,831000000,,-0.401577174664,-0.00681564724073,-0.0146487448364
1970/01/01/01:00:05.853000,263,5,852000000,,-0.401723533869,-0.00712312012911,-0.0146343000233
1970/01/01/01:00:05.872000,264,5,872000000,,-0.401861518621,-0.00740104308352,-0.0146206822246
1970/01/01/01:00:05.892000,265,5,892000000,,-0.402012467384,-0.00769330887124,-0.0146057838574
1970/01/01/01:00:05.912000,266,5,911000000,,-0.402169257402,-0.00798527058214,-0.0145903099328
1970/01/01/01:00:05.932000,267,5,931000000,,-0.402331888676,-0.00827691704035,-0.0145742595196
1970/01/01/01:00:05.953000,268,5,952000000,,-0.402508914471,-0.00858279503882,-0.0145567879081
1970/01/01/01:00:05.976000,269,5,976000000,,-0.402710169554,-0.00891737360507,-0.0145369246602
1970/01/01/01:00:05.993000,270,5,992000000,,-0.402854681015,-0.00914985127747,-0.0145226595923
1970/01/01/01:00:06.012000,271,6,12000000,,-0.403040587902,-0.00944012124091,-0.0145043116063
1970/01/01/01:00:06.032000,272,6,32000000,,-0.403242021799,-0.00974450446665,-0.0144844306633
1970/01/01/01:00:06.052000,273,6,51000000,,-0.403429806232,-0.0100195333362,-0.014465900138
1970/01/01/01:00:06.073000,274,6,72000000,,-0.403633087873,-0.0103086521849,-0.0144458366558
1970/01/01/01:00:06.092000,275,6,91000000,,-0.403842121363,-0.0105973631144,-0.0144252032042
1970/01/01/01:00:06.111000,276,6,111000000,,-0.404056966305,-0.01088565588,-0.0144039997831
1970/01/01/01:00:06.132000,277,6,131000000,,-0.404277563095,-0.0111735193059,-0.0143822282553
1970/01/01/01:00:06.152000,278,6,151000000,,-0.404503911734,-0.0114609412849,-0.014359889552
1970/01/01/01:00:06.173000,279,6,172000000,,-0.404735982418,-0.0117479115725,-0.014336982742
1970/01/01/01:00:06.193000,280,6,191000000,,-0.404973804951,-0.0120344171301,-0.0143135106191
1970/01/01/01:00:06.213000,281,6,212000000,,-0.405229687691,-0.0123347369954,-0.0142882568762
1970/01/01/01:00:06.233000,282,6,231000000,,-0.405466645956,-0.0126059921458,-0.0142648713663
1970/01/01/01:00:06.252000,283,6,251000000,,-0.405721604824,-0.0128910392523,-0.0142397070304
1970/01/01/01:00:06.272000,284,6,271000000,,-0.405982255936,-0.0131755769253,-0.0142139801756
1970/01/01/01:00:06.292000,285,6,291000000,,-0.406248629093,-0.013459593989,-0.0141876926646
1970/01/01/01:00:06.312000,286,6,311000000,,-0.406520664692,-0.0137430801988,-0.0141608444974
1970/01/01/01:00:06.334000,287,6,332000000,,-0.40679833293,-0.0140260243788,-0.0141334375367
1970/01/01/01:00:06.352000,288,6,352000000,,-0.407095998526,-0.0143225193024,-0.014104058966
1970/01/01/01:00:06.372000,289,6,372000000,,-0.407370686531,-0.0145902391523,-0.0140769500285
1970/01/01/01:00:06.392000,290,6,391000000,,-0.407665282488,-0.0148714883253,-0.0140478722751
1970/01/01/01:00:06.413000,291,6,413000000,,-0.407980680466,-0.0151661681011,-0.0140167437494
1970/01/01/01:00:06.433000,292,6,432000000,,-0.408271372318,-0.0154322143644,-0.0139880543575
1970/01/01/01:00:06.455000,293,6,454000000,,-0.408630013466,-0.0157535336912,-0.0139526585117
1970/01/01/01:00:06.473000,294,6,472000000,,-0.408899843693,-0.0159905031323,-0.013926028274
1970/01/01/01:00:06.495000,295,6,492000000,,-0.409238696098,-0.0162825994194,-0.0138925826177
1970/01/01/01:00:06.513000,296,6,512000000,,-0.409567147493,-0.0165601279587,-0.0138601679355
1970/01/01/01:00:06.532000,297,6,532000000,,-0.409884274006,-0.0168231744319,-0.0138288671151
1970/01/01/01:00:06.554000,298,6,553000000,,-0.410257726908,-0.0171270053834,-0.0137920090929
1970/01/01/01:00:06.575000,299,6,574000000,,-0.410620450974,-0.0174162629992,-0.0137562118471
1970/01/01/01:00:06.592000,300,6,592000000,,-0.410918504,-0.0176498703659,-0.0137267941609
1970/01/01/01:00:06.613000,301,6,612000000,,-0.411274254322,-0.0179240554571,-0.0136916832998
1970/01/01/01:00:06.633000,302,6,632000000,,-0.411635458469,-0.0181975327432,-0.013656033203
1970/01/01/01:00:06.653000,303,6,651000000,,-0.412002146244,-0.0184702929109,-0.0136198429391
1970/01/01/01:00:06.674000,304,6,672000000,,-0.412393003702,-0.0187559053302,-0.0135812656954
1970/01/01/01:00:06.693000,305,6,692000000,,-0.412770837545,-0.019027158618,-0.0135439746082
1970/01/01/01:00:06.713000,306,6,712000000,,-0.413134813309,-0.0192841533571,-0.0135080534965
1970/01/01/01:00:06.733000,307,6,732000000,,-0.413542747498,-0.0195674020797,-0.0134677914903
1970/01/01/01:00:06.752000,308,6,751000000,,-0.413916945457,-0.0198229383677,-0.0134308580309
1970/01/01/01:00:06.772000,309,6,771000000,,-0.414316087961,-0.0200911629945,-0.0133914640173
1970/01/01/01:00:06.795000,310,6,793000000,,-0.414740949869,-0.0203719455749,-0.0133495321497
1970/01/01/01:00:06.812000,311,6,811000000,,-0.41513043642,-0.0206252206117,-0.0133110927418
1970/01/01/01:00:06.832000,312,6,832000000,,-0.415545612574,-0.0208910349756,-0.0132701173425
1970/01/01/01:00:06.852000,313,6,852000000,,-0.415966063738,-0.0211560223252,-0.0132286185399
1970/01/01/01:00:06.873000,314,6,872000000,,-0.416391849518,-0.0214201752096,-0.0131865972653
1970/01/01/01:00:06.892000,315,6,891000000,,-0.416822880507,-0.0216834824532,-0.0131440553814
1970/01/01/01:00:06.912000,316,6,911000000,,-0.417259156704,-0.0219459347427,-0.0131009947509
1970/01/01/01:00:06.932000,317,6,931000000,,-0.417700707912,-0.0222075190395,-0.0130574172363
1970/01/01/01:00:06.953000,318,6,952000000,,-0.418169945478,-0.0224812403321,-0.0130111053586
1970/01/01/01:00:06.973000,319,6,972000000,,-0.418599426746,-0.022728048265,-0.0129687162116
1970/01/01/01:00:06.992000,320,6,991000000,,-0.419056594372,-0.0229869727045,-0.0129235973582
1970/01/01/01:00:07.013000,321,7,12000000,,-0.41954216361,-0.0232578665018,-0.0128756733611
1970/01/01/01:00:07.032000,322,7,31000000,,-0.419986367226,-0.0235020890832,-0.0128318304196
1970/01/01/01:00:07.052000,323,7,51000000,,-0.420458972454,-0.0237582586706,-0.0127851860598
1970/01/01/01:00:07.073000,324,7,72000000,,-0.420936703682,-0.0240134932101,-0.0127380369231
1970/01/01/01:00:07.093000,325,7,92000000,,-0.421419501305,-0.0242677778006,-0.0126903858036
1970/01/01/01:00:07.112000,326,7,111000000,,-0.421907395124,-0.0245211049914,-0.0126422327012
1970/01/01/01:00:07.132000,327,7,132000000,,-0.422400355339,-0.0247734636068,-0.0125935804099
1970/01/01/01:00:07.153000,328,7,152000000,,-0.422923356295,-0.025037387386,-0.0125419609249
1970/01/01/01:00:07.172000,329,7,171000000,,-0.423401325941,-0.0252752378583,-0.0124947875738
1970/01/01/01:00:07.193000,330,7,193000000,,-0.423909336329,-0.0255246330053,-0.012444649823
1970/01/01/01:00:07.212000,331,7,211000000,,-0.424422323704,-0.0257730204612,-0.0123940203339
1970/01/01/01:00:07.232000,332,7,231000000,,-0.424940258265,-0.0260203909129,-0.0123429028317
1970/01/01/01:00:07.253000,333,7,252000000,,-0.425463110209,-0.0262667331845,-0.0122912973166
1970/01/01/01:00:07.272000,334,7,271000000,,-0.425990909338,-0.0265120379627,-0.0122392065823
1970/01/01/01:00:07.292000,335,7,291000000,,-0.426523596048,-0.026756297797,-0.0121866324916
1970/01/01/01:00:07.312000,336,7,311000000,,-0.42706117034,-0.0269995015115,-0.0121335769072
1970/01/01/01:00:07.332000,337,7,331000000,,-0.427603572607,-0.0272416379303,-0.0120800435543
1970/01/01/01:00:07.352000,338,7,351000000,,-0.428150802851,-0.0274826996028,-0.0120260324329
1970/01/01/01:00:07.372000,339,7,371000000,,-0.428702861071,-0.0277226753533,-0.011971546337
1970/01/01/01:00:07.393000,340,7,391000000,,-0.429259717464,-0.027961557731,-0.0119165880606
1970/01/01/01:00:07.412000,341,7,411000000,,-0.429821312428,-0.0281993355602,-0.0118611594662
1970/01/01/01:00:07.432000,342,7,432000000,,-0.430387675762,-0.0284360013902,-0.0118052624166
1970/01/01/01:00:07.452000,343,7,451000000,,-0.430958747864,-0.0286715440452,-0.0117488997057
1970/01/01/01:00:07.473000,344,7,473000000,,-0.431563436985,-0.0289176441729,-0.0116892186925
1970/01/01/01:00:07.492000,345,7,492000000,,-0.432114988565,-0.0291392244399,-0.0116347838193
1970/01/01/01:00:07.512000,346,7,512000000,,-0.432700097561,-0.0293713416904,-0.0115770362318
1970/01/01/01:00:07.532000,347,7,532000000,,-0.433289825916,-0.0296023022383,-0.0115188313648
1970/01/01/01:00:07.553000,348,7,552000000,,-0.433884173632,-0.0298320930451,-0.0114601720124
1970/01/01/01:00:07.573000,349,7,572000000,,-0.434483110905,-0.0300607066602,-0.0114010600373
1970/01/01/01:00:07.591000,350,7,591000000,,-0.435086607933,-0.0302881319076,-0.0113414973021
1970/01/01/01:00:07.612000,351,7,612000000,,-0.435694634914,-0.0305143631995,-0.011281487532
1970/01/01/01:00:07.633000,352,7,632000000,,-0.436337918043,-0.0307506080717,-0.0112179983407
1970/01/01/01:00:07.652000,353,7,652000000,,-0.436924189329,-0.0309632010758,-0.0111601343378
1970/01/01/01:00:07.673000,354,7,672000000,,-0.437576889992,-0.0311968885362,-0.0110957175493
1970/01/01/01:00:07.693000,355,7,691000000,,-0.438171625137,-0.0314071513712,-0.0110370190814
1970/01/01/01:00:07.712000,356,7,711000000,,-0.438801974058,-0.0316272675991,-0.0109748058021
1970/01/01/01:00:07.731000,357,7,731000000,,-0.43943670392,-0.03184613958,-0.0109121603891
1970/01/01/01:00:07.753000,358,7,752000000,,-0.440075814724,-0.0320637524128,-0.0108490828425
1970/01/01/01:00:07.773000,359,7,773000000,,-0.440719246864,-0.0322800986469,-0.0107855778188
1970/01/01/01:00:07.793000,360,7,792000000,,-0.441367000341,-0.032495174557,-0.0107216471806
1970/01/01/01:00:07.813000,361,7,812000000,,-0.442019045353,-0.0327089615166,-0.010657293722
1970/01/01/01:00:07.832000,362,7,831000000,,-0.442675352097,-0.0329214632511,-0.0105925183743
1970/01/01/01:00:07.853000,363,7,852000000,,-0.443369030952,-0.0331431850791,-0.0105240549892
1970/01/01/01:00:07.872000,364,7,871000000,,-0.444000661373,-0.03334255144,-0.0104617169127
1970/01/01/01:00:07.892000,365,7,892000000,,-0.444669574499,-0.0335511267185,-0.0103956954554
1970/01/01/01:00:07.912000,366,7,912000000,,-0.445376455784,-0.0337687060237,-0.0103259310126
1970/01/01/01:00:07.932000,367,7,931000000,,-0.446019917727,-0.0339642949402,-0.0102624231949
1970/01/01/01:00:07.952000,368,7,951000000,,-0.446701258421,-0.0341688729823,-0.0101951779798
1970/01/01/01:00:07.971000,369,7,971000000,,-0.447386652231,-0.0343720987439,-0.0101275313646
1970/01/01/01:00:07.997000,370,7,996000000,,-0.448214501143,-0.0346141792834,-0.0100458264351
1970/01/01/01:00:08.013000,371,8,12000000,,-0.448769599199,-0.0347744747996,-0.00999103952199
1970/01/01/01:00:08.032000,372,8,31000000,,-0.449467092752,-0.0349736101925,-0.00992220081389
1970/01/01/01:00:08.052000,373,8,52000000,,-0.450168550014,-0.0351713597775,-0.00985297001898
1970/01/01/01:00:08.072000,374,8,71000000,,-0.450873941183,-0.0353677235544,-0.00978334993124
1970/01/01/01:00:08.093000,375,8,91000000,,-0.451583236456,-0.0355626940727,-0.00971334427595
1970/01/01/01:00:08.113000,376,8,112000000,,-0.452296435833,-0.0357562564313,-0.00964295584708
1970/01/01/01:00:08.133000,377,8,132000000,,-0.45301347971,-0.0359484069049,-0.00957218557596
1970/01/01/01:00:08.154000,378,8,152000000,,-0.453734368086,-0.0361391417682,-0.0095010381192
1970/01/01/01:00:08.175000,379,8,173000000,,-0.454459041357,-0.03632844612,-0.00942951440811
1970/01/01/01:00:08.194000,380,8,192000000,,-0.455224007368,-0.0365256741643,-0.00935401488096
1970/01/01/01:00:08.214000,381,8,212000000,,-0.45591968298,-0.0367027483881,-0.00928535498679
1970/01/01/01:00:08.235000,382,8,232000000,,-0.456655591726,-0.0368877314031,-0.00921272393316
1970/01/01/01:00:08.254000,383,8,253000000,,-0.45743227005,-0.0370803959668,-0.00913606956601
1970/01/01/01:00:08.275000,384,8,275000000,,-0.458175688982,-0.0372623838484,-0.00906269624829
1970/01/01/01:00:08.294000,385,8,292000000,,-0.458922743797,-0.0374429002404,-0.00898896530271
1970/01/01/01:00:08.313000,386,8,312000000,,-0.45963576436,-0.0376130230725,-0.008918591775
1970/01/01/01:00:08.334000,387,8,331000000,,-0.460389822721,-0.0377906486392,-0.00884417071939
1970/01/01/01:00:08.353000,388,8,351000000,,-0.461147397757,-0.0379667878151,-0.0087694004178
1970/01/01/01:00:08.373000,389,8,371000000,,-0.461908489466,-0.0381414219737,-0.00869428459555
1970/01/01/01:00:08.394000,390,8,393000000,,-0.462673038244,-0.0383145548403,-0.00861882511526
1970/01/01/01:00:08.415000,391,8,413000000,,-0.463441044092,-0.0384861752391,-0.00854302570224
1970/01/01/01:00:08.433000,392,8,431000000,,-0.464212477207,-0.0386562757194,-0.00846688915044
1970/01/01/01:00:08.452000,393,8,452000000,,-0.464987277985,-0.0388248488307,-0.00839041825384
1970/01/01/01:00:08.474000,394,8,473000000,,-0.465765446424,-0.0389918871224,-0.0083136158064
1970/01/01/01:00:08.499000,395,8,496000000,,-0.466703653336,-0.0391903035343,-0.00822101999074
1970/01/01/01:00:08.514000,396,8,512000000,,-0.467371076345,-0.0393295027316,-0.00815514847636
1970/01/01/01:00:08.533000,397,8,532000000,,-0.468119800091,-0.0394837483764,-0.00808125175536
1970/01/01/01:00:08.555000,398,8,554000000,,-0.468911081553,-0.0396445952356,-0.00800315476954
1970/01/01/01:00:08.574000,399,8,572000000,,-0.469705581665,-0.0398038737476,-0.00792474206537
1970/01/01/01:00:08.593000,400,8,591000000,,-0.470503240824,-0.0399615801871,-0.00784601643682
1970/01/01/01:00:08.614000,401,8,611000000,,-0.471304029226,-0.0401177108288,-0.0077669811435
1970/01/01/01:00:08.634000,402,8,633000000,,-0.47214820981,-0.040279943496,-0.00768366409466
1970/01/01/01:00:08.652000,403,8,651000000,,-0.472914904356,-0.0404252149165,-0.00760799413547
1970/01/01/01:00:08.672000,404,8,671000000,,-0.473724931479,-0.0405765771866,-0.00752804800868
1970/01/01/01:00:08.692000,405,8,691000000,,-0.474537968636,-0.0407263338566,-0.00744780525565
1970/01/01/01:00:08.713000,406,8,712000000,,-0.475353956223,-0.0408744849265,-0.00736726820469
1970/01/01/01:00:08.732000,407,8,731000000,,-0.476172924042,-0.0410210229456,-0.00728644011542
1970/01/01/01:00:08.752000,408,8,752000000,,-0.476994812489,-0.0411659441888,-0.00720532471314
1970/01/01/01:00:08.773000,409,8,772000000,,-0.477819561958,-0.0413092337549,-0.00712392479181
1970/01/01/01:00:08.794000,410,8,792000000,,-0.478647142649,-0.0414508990943,-0.00704224314541
1970/01/01/01:00:08.813000,411,8,812000000,,-0.479519158602,-0.0415978804231,-0.00695617869496
1970/01/01/01:00:08.832000,412,8,832000000,,-0.480310797691,-0.0417293086648,-0.00687805004418
1970/01/01/01:00:08.852000,413,8,852000000,,-0.481146752834,-0.0418660417199,-0.00679554464296
1970/01/01/01:00:08.872000,414,8,871000000,,-0.481985419989,-0.0420011281967,-0.00671277055517
1970/01/01/01:00:08.892000,415,8,891000000,,-0.482826769352,-0.042134553194,-0.00662973150611
1970/01/01/01:00:08.916000,416,8,915000000,,-0.483839899302,-0.0422924682498,-0.00652974005789
1970/01/01/01:00:08.931000,417,8,931000000,,-0.484517425299,-0.0423964075744,-0.00646287202835
1970/01/01/01:00:08.952000,418,8,952000000,,-0.485366642475,-0.0425248295069,-0.00637905811891
1970/01/01/01:00:08.971000,419,8,971000000,,-0.486218392849,-0.0426515676081,-0.00629499182105
1970/01/01/01:00:08.992000,420,8,991000000,,-0.48707267642,-0.0427766256034,-0.00621067732573
1970/01/01/01:00:09.013000,421,9,13000000,,-0.487929463387,-0.042899992317,-0.00612611789256
1970/01/01/01:00:09.033000,422,9,32000000,,-0.488831698895,-0.0430277064443,-0.00603706995025
1970/01/01/01:00:09.053000,423,9,52000000,,-0.489693462849,-0.0431476011872,-0.00595201784745
1970/01/01/01:00:09.072000,424,9,71000000,,-0.490514338017,-0.0432599186897,-0.0058710006997
1970/01/01/01:00:09.093000,425,9,92000000,,-0.49142408371,-0.043382268399,-0.00578121235594
1970/01/01/01:00:09.112000,426,9,111000000,,-0.492249369621,-0.0434913374484,-0.0056997584179
1970/01/01/01:00:09.133000,427,9,133000000,,-0.493163943291,-0.0436100848019,-0.00560949416831
1970/01/01/01:00:09.152000,428,9,151000000,,-0.493993550539,-0.0437158867717,-0.00552761601284
1970/01/01/01:00:09.172000,429,9,172000000,,-0.494868963957,-0.0438255742192,-0.00544121582061
1970/01/01/01:00:09.192000,430,9,191000000,,-0.495746552944,-0.0439335331321,-0.00535460095853
1970/01/01/01:00:09.213000,431,9,211000000,,-0.496626287699,-0.0440397597849,-0.00526777422056
1970/01/01/01:00:09.232000,432,9,232000000,,-0.497508138418,-0.0441442430019,-0.00518073979765
1970/01/01/01:00:09.252000,433,9,251000000,,-0.498392045498,-0.0442469865084,-0.00509350094944
1970/01/01/01:00:09.273000,434,9,271000000,,-0.499278008938,-0.0443479828537,-0.00500606093556
1970/01/01/01:00:09.293000,435,9,292000000,,-0.500210404396,-0.0444521456957,-0.0049140364863
1970/01/01/01:00:09.313000,436,9,311000000,,-0.501055896282,-0.0445447191596,-0.0048305913806
1970/01/01/01:00:09.333000,437,9,331000000,,-0.501947700977,-0.0446404516697,-0.00474256882444
1970/01/01/01:00:09.353000,438,9,352000000,,-0.502841472626,-0.0447344183922,-0.00465435907245
1970/01/01/01:00:09.373000,439,9,373000000,,-0.503737092018,-0.0448266230524,-0.00456596584991
1970/01/01/01:00:09.392000,440,9,392000000,,-0.504634559155,-0.0449170581996,-0.00447739195079
1970/01/01/01:00:09.411000,441,9,411000000,,-0.505533754826,-0.0450057163835,-0.00438864156604
1970/01/01/01:00:09.433000,442,9,432000000,,-0.506434738636,-0.0450926013291,-0.00429971748963
1970/01/01/01:00:09.452000,443,9,451000000,,-0.507337450981,-0.045177705586,-0.00421062437817
1970/01/01/01:00:09.472000,444,9,472000000,,-0.508241832256,-0.0452610254288,-0.00412136455998
1970/01/01/01:00:09.492000,445,9,492000000,,-0.509147882462,-0.0453425571322,-0.00403194176033
1970/01/01/01:00:09.512000,446,9,511000000,,-0.510055541992,-0.0454223006964,-0.00394236017019
1970/01/01/01:00:09.533000,447,9,531000000,,-0.510964751244,-0.0455002523959,-0.00385262304917
1970/01/01/01:00:09.552000,448,9,551000000,,-0.511875510216,-0.0455764047801,-0.00376273365691
1970/01/01/01:00:09.572000,449,9,571000000,,-0.512787818909,-0.0456507615745,-0.00367269571871
1970/01/01/01:00:09.592000,450,9,591000000,,-0.513701558113,-0.0457233116031,-0.00358251295984
1970/01/01/01:00:09.612000,451,9,612000000,,-0.514616727829,-0.0457940585911,-0.00349218863994
1970/01/01/01:00:09.633000,452,9,632000000,,-0.515579164028,-0.0458664000034,-0.00339719979092
1970/01/01/01:00:09.652000,453,9,651000000,,-0.516451239586,-0.0459301285446,-0.00331112998538
1970/01/01/01:00:09.673000,454,9,672000000,,-0.517416477203,-0.0459986627102,-0.00321586290374
1970/01/01/01:00:09.693000,455,9,692000000,,-0.518337130547,-0.0460620708764,-0.00312500237487
1970/01/01/01:00:09.712000,456,9,711000000,,-0.519212841988,-0.0461206249893,-0.00303857051767
1970/01/01/01:00:09.733000,457,9,732000000,,-0.520135879517,-0.0461804866791,-0.00294747273438
1970/01/01/01:00:09.752000,458,9,752000000,,-0.521106302738,-0.046241376549,-0.00285169482231
1970/01/01/01:00:09.774000,459,9,771000000,,-0.521985411644,-0.046294733882,-0.00276493141428
1970/01/01/01:00:09.792000,460,9,792000000,,-0.522911846638,-0.046349119395,-0.00267349532805
1970/01/01/01:00:09.813000,461,9,812000000,,-0.523839354515,-0.0464016757905,-0.00258195376955
1970/01/01/01:00:09.833000,462,9,832000000,,-0.524767875671,-0.046452395618,-0.00249031023122
1970/01/01/01:00:09.852000,463,9,851000000,,-0.525697410107,-0.0465012863278,-0.00239856820554
1970/01/01/01:00:09.873000,464,9,872000000,,-0.526627898216,-0.0465483404696,-0.00230673165061
1970/01/01/01:00:09.893000,465,9,892000000,,-0.52755934,-0.046593554318,-0.00221480382606
1970/01/01/01:00:09.912000,466,9,912000000,,-0.528491675854,-0.0466369315982,-0.00212278892286
1970/01/01/01:00:09.932000,467,9,931000000,,-0.529424786568,-0.0466784648597,-0.0020306899678
1970/01/01/01:00:09.955000,468,9,954000000,,-0.53045219183,-0.0467220246792,-0.00192928873003
1970/01/01/01:00:09.972000,469,9,971000000,,-0.531293511391,-0.0467560067773,-0.0018462552689
1970/01/01/01:00:09.993000,470,9,992000000,,-0.53222900629,-0.0467920079827,-0.00175392674282
1970/01/01/01:00:10.012000,471,10,11000000,,-0.533165216446,-0.0468261614442,-0.00166152906604
1970/01/01/01:00:10.032000,472,10,32000000,,-0.534102022648,-0.0468584671617,-0.00156906573102
1970/01/01/01:00:10.053000,473,10,51000000,,-0.535039544106,-0.0468889251351,-0.00147654046305
1970/01/01/01:00:10.072000,474,10,71000000,,-0.535977602005,-0.046917527914,-0.001383956871
1970/01/01/01:00:10.093000,475,10,92000000,,-0.536916196346,-0.046944282949,-0.00129131868016
1970/01/01/01:00:10.113000,476,10,112000000,,-0.537902295589,-0.0469703786075,-0.00119399372488
1970/01/01/01:00:10.133000,477,10,132000000,,-0.53879493475,-0.0469922274351,-0.00110589293763
1970/01/01/01:00:10.152000,478,10,152000000,,-0.539782047272,-0.04701442644,-0.00100847275462
1970/01/01/01:00:10.173000,479,10,172000000,,-0.540675461292,-0.047032751143,-0.000920292688534
1970/01/01/01:00:10.192000,480,10,192000000,,-0.54161632061,-0.0470502302051,-0.000827436160762
1970/01/01/01:00:10.212000,481,10,212000000,,-0.542557477951,-0.0470658503473,-0.0007345470367
1970/01/01/01:00:10.233000,482,10,232000000,,-0.543546020985,-0.0470802485943,-0.00063698226586
1970/01/01/01:00:10.252000,483,10,252000000,,-0.544440627098,-0.0470915138721,-0.000548685376998
1970/01/01/01:00:10.273000,484,10,271000000,,-0.545382559299,-0.0471015572548,-0.000455720262835
1970/01/01/01:00:10.293000,485,10,292000000,,-0.546371817589,-0.0471101030707,-0.000358087563654
1970/01/01/01:00:10.311000,486,10,311000000,,-0.547266960144,-0.0471160672605,-0.000269739684882
1970/01/01/01:00:10.333000,487,10,332000000,,-0.548256456852,-0.0471207052469,-0.000172080966877
1970/01/01/01:00:10.352000,488,10,351000000,,-0.549151778221,-0.0471231378615,-8.37164989207e-05
1970/01/01/01:00:10.372000,489,10,371000000,,-0.550094246864,-0.0471238791943,9.30188252823e-06
1970/01/01/01:00:10.392000,490,10,391000000,,-0.551036715508,-0.0471227653325,0.000102319900179
1970/01/01/01:00:10.413000,491,10,412000000,,-0.551979124546,-0.0471197888255,0.000195333879674
1970/01/01/01:00:10.432000,492,10,431000000,,-0.55292147398,-0.0471149496734,0.000288340146653
1970/01/01/01:00:10.452000,493,10,451000000,,-0.553863704205,-0.0471082553267,0.000381335034035
1970/01/01/01:00:10.478000,494,10,477000000,,-0.555088400841,-0.0470967665315,0.000502205337398
1970/01/01/01:00:10.493000,495,10,492000000,,-0.555747687817,-0.0470892824233,0.000567275972571
1970/01/01/01:00:10.512000,496,10,511000000,,-0.556689381599,-0.0470770075917,0.000660214631353
1970/01/01/01:00:10.532000,497,10,532000000,,-0.557630777359,-0.0470628738403,0.000753127329517
1970/01/01/01:00:10.553000,498,10,552000000,,-0.558571875095,-0.0470468811691,0.000846010225359
1970/01/01/01:00:10.572000,499,10,571000000,,-0.559512615204,-0.0470290333033,0.000938859710004
1970/01/01/01:00:10.593000,500,10,591000000,,-0.560452997684,-0.0470093265176,0.00103167211637
1970/01/01/01:00:10.614000,501,10,612000000,,-0.561393022537,-0.0469877682626,0.00112444383558
1970/01/01/01:00:10.633000,502,10,632000000,,-0.562332510948,-0.0469643510878,0.00121717120055
1970/01/01/01:00:10.654000,503,10,651000000,,-0.563271582127,-0.0469390787184,0.001309850486
1970/01/01/01:00:10.672000,504,10,671000000,,-0.564210057259,-0.0469119548798,0.00140247808304
1970/01/01/01:00:10.692000,505,10,691000000,,-0.565148055553,-0.0468829795718,0.00149505026639
1970/01/01/01:00:10.712000,506,10,711000000,,-0.566085398197,-0.0468521565199,0.00158756342717
1970/01/01/01:00:10.733000,507,10,731000000,,-0.56702208519,-0.0468194782734,0.0016800139565
1970/01/01/01:00:10.753000,508,10,752000000,,-0.567958176136,-0.0467849560082,0.00177239812911
1970/01/01/01:00:10.773000,509,10,772000000,,-0.568893492222,-0.0467485822737,0.0018647123361
1970/01/01/01:00:10.792000,510,10,791000000,,-0.569828093052,-0.0467103682458,0.00195695296861
1970/01/01/01:00:10.813000,511,10,812000000,,-0.570761859417,-0.046670306474,0.00204911618493
1970/01/01/01:00:10.832000,512,10,831000000,,-0.571694850922,-0.0466284044087,0.00214119860902
1970/01/01/01:00:10.853000,513,10,851000000,,-0.572627007961,-0.0465846583247,0.00223319651559
1970/01/01/01:00:10.873000,514,10,872000000,,-0.573558270931,-0.0465390756726,0.00232510641217
1970/01/01/01:00:10.893000,515,10,892000000,,-0.574488580227,-0.0464916564524,0.00241692434065
1970/01/01/01:00:10.912000,516,10,912000000,,-0.575417935848,-0.0464424006641,0.00250864680856
1970/01/01/01:00:10.933000,517,10,932000000,,-0.576346218586,-0.0463913083076,0.00260027032346
1970/01/01/01:00:10.953000,518,10,952000000,,-0.577273547649,-0.046338390559,0.00269179116003
1970/01/01/01:00:10.973000,519,10,972000000,,-0.578246057034,-0.0462808534503,0.00278777373023
1970/01/01/01:00:10.993000,520,10,992000000,,-0.579124867916,-0.0462270602584,0.00287451036274
1970/01/01/01:00:11.013000,521,11,12000000,,-0.580048859119,-0.0461686588824,0.00296570174396
1970/01/01/01:00:11.034000,522,11,32000000,,-0.580971598625,-0.0461084358394,0.00305677577853
1970/01/01/01:00:11.055000,523,11,52000000,,-0.581893146038,-0.0460463874042,0.00314772920683
1970/01/01/01:00:11.073000,524,11,72000000,,-0.582859456539,-0.0459792837501,0.00324309663847
1970/01/01/01:00:11.093000,525,11,92000000,,-0.583732426167,-0.0459168478847,0.00332925980911
1970/01/01/01:00:11.112000,526,11,112000000,,-0.584650099277,-0.0458493568003,0.00341982976533
1970/01/01/01:00:11.134000,527,11,133000000,,-0.585657954216,-0.0457730256021,0.00351930060424
1970/01/01/01:00:11.153000,528,11,152000000,,-0.586526989937,-0.045705344528,0.00360507215373
1970/01/01/01:00:11.172000,529,11,172000000,,-0.587440371513,-0.045632340014,0.00369521905668
1970/01/01/01:00:11.193000,530,11,191000000,,-0.588306725025,-0.0455613173544,0.00378072354943
1970/01/01/01:00:11.214000,531,11,213000000,,-0.589262664318,-0.0454809330404,0.00387507188134
1970/01/01/01:00:11.233000,532,11,232000000,,-0.590171515942,-0.045402534306,0.0039647705853
1970/01/01/01:00:11.252000,533,11,251000000,,-0.59103345871,-0.0453263968229,0.00404983945191
1970/01/01/01:00:11.272000,534,11,271000000,,-0.591939151287,-0.0452445037663,0.00413922965527
1970/01/01/01:00:11.292000,535,11,291000000,,-0.592843234539,-0.0451608262956,0.00422845641151
1970/01/01/01:00:11.313000,536,11,312000000,,-0.593745589256,-0.0450753681362,0.00431751599535
1970/01/01/01:00:11.333000,537,11,332000000,,-0.594691216946,-0.0449837185442,0.00441084522754
1970/01/01/01:00:11.353000,538,11,352000000,,-0.595589995384,-0.0448946133256,0.00449955230579
1970/01/01/01:00:11.372000,539,11,371000000,,-0.596442162991,-0.0448083244264,0.00458365911618
1970/01/01/01:00:11.393000,540,11,392000000,,-0.597382128239,-0.0447110943496,0.00467642908916
1970/01/01/01:00:11.412000,541,11,411000000,,-0.598230779171,-0.0446214452386,0.00476018851623
1970/01/01/01:00:11.432000,542,11,431000000,,-0.599122285843,-0.0445253588259,0.00484817335382
1970/01/01/01:00:11.452000,543,11,451000000,,-0.600011825562,-0.0444275178015,0.00493596633896
1970/01/01/01:00:11.474000,544,11,473000000,,-0.600943684578,-0.0443228967488,0.00502793956548
1970/01/01/01:00:11.493000,545,11,492000000,,-0.60178488493,-0.0442265793681,0.00511096511036
1970/01/01/01:00:11.512000,546,11,512000000,,-0.602668404579,-0.0441234856844,0.00519816344604
1970/01/01/01:00:11.532000,547,11,531000000,,-0.603549838066,-0.0440186522901,0.00528515642509
1970/01/01/01:00:11.552000,548,11,552000000,,-0.604429125786,-0.0439120829105,0.00537194078788
1970/01/01/01:00:11.572000,549,11,571000000,,-0.605306327343,-0.0438037775457,0.00545851327479
1970/01/01/01:00:11.592000,550,11,591000000,,-0.606181263924,-0.0436937436461,0.00554487016052
1970/01/01/01:00:11.612000,551,11,611000000,,-0.607054054737,-0.0435819812119,0.00563100818545
1970/01/01/01:00:11.633000,552,11,632000000,,-0.60796803236,-0.0434627830982,0.00572121376172
1970/01/01/01:00:11.654000,553,11,652000000,,-0.608836114407,-0.0433475039899,0.00580689217895
1970/01/01/01:00:11.672000,554,11,671000000,,-0.609658658504,-0.0432364009321,0.00588807463646
1970/01/01/01:00:11.693000,555,11,692000000,,-0.610522210598,-0.043117787689,0.00597330275923
1970/01/01/01:00:11.715000,556,11,714000000,,-0.611426353455,-0.0429914109409,0.0060625388287
1970/01/01/01:00:11.735000,557,11,734000000,,-0.612284958363,-0.0428693108261,0.00614728033543
1970/01/01/01:00:11.758000,558,11,758000000,,-0.613354802132,-0.0427143089473,0.00625286530703
1970/01/01/01:00:11.772000,559,11,771000000,,-0.613952159882,-0.0426263548434,0.00631182501093
1970/01/01/01:00:11.795000,560,11,792000000,,-0.614803433418,-0.0424992777407,0.00639584101737
1970/01/01/01:00:11.816000,561,11,814000000,,-0.615694463253,-0.0423640422523,0.00648378580809
1970/01/01/01:00:11.832000,562,11,831000000,,-0.616498231888,-0.0422400943935,0.0065631121397
1970/01/01/01:00:11.861000,563,11,854000000,,-0.617425918579,-0.0420947000384,0.00665467092767
1970/01/01/01:00:11.873000,564,11,871000000,,-0.61818253994,-0.0419742427766,0.00672934670001
1970/01/01/01:00:11.894000,565,11,894000000,,-0.61902064085,-0.0418388284743,0.00681206723675
1970/01/01/01:00:11.913000,566,11,912000000,,-0.619856059551,-0.041701760143,0.00689451862127
1970/01/01/01:00:11.933000,567,11,931000000,,-0.620688736439,-0.0415630489588,0.00697669805959
1970/01/01/01:00:11.954000,568,11,952000000,,-0.621518611908,-0.0414226949215,0.00705860182643
1970/01/01/01:00:11.973000,569,11,972000000,,-0.622345626354,-0.0412807054818,0.00714022712782
1970/01/01/01:00:11.992000,570,11,992000000,,-0.623169779778,-0.0411370880902,0.00722157070413
1970/01/01/01:00:12.012000,571,12,12000000,,-0.623991072178,-0.040991846472,0.00730262883008
1970/01/01/01:00:12.034000,572,12,32000000,,-0.624809443951,-0.0408449843526,0.00738339871168
1970/01/01/01:00:12.052000,573,12,52000000,,-0.625624895096,-0.0406965129077,0.00746387708932
1970/01/01/01:00:12.073000,574,12,72000000,,-0.626437306404,-0.0405464321375,0.00754406116903
1970/01/01/01:00:12.091000,575,12,91000000,,-0.62724673748,-0.0403947532177,0.00762394722551
1970/01/01/01:00:12.113000,576,12,112000000,,-0.628053128719,-0.0402414761484,0.00770353199914
1970/01/01/01:00:12.133000,577,12,132000000,,-0.628856360912,-0.0400866121054,0.00778281316161
1970/01/01/01:00:12.152000,578,12,151000000,,-0.629656553268,-0.039930164814,0.00786178652197
1970/01/01/01:00:12.173000,579,12,172000000,,-0.630453586578,-0.0397721417248,0.00794044975191
1970/01/01/01:00:12.193000,580,12,192000000,,-0.631247401237,-0.0396125502884,0.00801880005747
1970/01/01/01:00:12.213000,581,12,212000000,,-0.63203805685,-0.0394513942301,0.00809683278203
1970/01/01/01:00:12.233000,582,12,232000000,,-0.632825493813,-0.0392886772752,0.00817454699427
1970/01/01/01:00:12.253000,583,12,252000000,,-0.633609592915,-0.0391244143248,0.00825193710625
1970/01/01/01:00:12.275000,584,12,274000000,,-0.63450729847,-0.0389335975051,0.00834053382277
1970/01/01/01:00:12.293000,585,12,292000000,,-0.635167956352,-0.0387912541628,0.00840573851019
1970/01/01/01:00:12.313000,586,12,312000000,,-0.635942101479,-0.0386223755777,0.00848214328289
1970/01/01/01:00:12.333000,587,12,333000000,,-0.636751294136,-0.0384434126318,0.00856200791895
1970/01/01/01:00:12.353000,588,12,352000000,,-0.637480139732,-0.0382800512016,0.00863394420594
1970/01/01/01:00:12.372000,589,12,371000000,,-0.63824403286,-0.0381066165864,0.00870933569968
1970/01/01/01:00:12.396000,590,12,396000000,,-0.639118134975,-0.0379053093493,0.0087956096977
1970/01/01/01:00:12.413000,591,12,412000000,,-0.639798998833,-0.0377463810146,0.00886280834675
1970/01/01/01:00:12.433000,592,12,431000000,,-0.640514612198,-0.037577316165,0.00893343333155
1970/01/01/01:00:12.452000,593,12,452000000,,-0.641264379025,-0.0373979099095,0.00900743156672
1970/01/01/01:00:12.474000,594,12,472000000,,-0.642010509968,-0.0372170247138,0.00908107310534
1970/01/01/01:00:12.492000,595,12,492000000,,-0.642790079117,-0.0370255112648,0.00915801152587
1970/01/01/01:00:12.512000,596,12,511000000,,-0.643491864204,-0.0368508510292,0.00922727957368
1970/01/01/01:00:12.532000,597,12,531000000,,-0.644227027893,-0.0366655774415,0.00929983705282
1970/01/01/01:00:12.552000,598,12,552000000,,-0.644994974136,-0.0364694856107,0.00937562808394
1970/01/01/01:00:12.572000,599,12,572000000,,-0.645686209202,-0.0362907014787,0.00944384932518
1970/01/01/01:00:12.592000,600,12,592000000,,-0.646410107613,-0.0361011102796,0.00951529759914
1970/01/01/01:00:12.612000,601,12,612000000,,-0.647166132927,-0.035900503397,0.00958991330117
1970/01/01/01:00:12.633000,602,12,632000000,,-0.647846519947,-0.0357176549733,0.00965706352144
1970/01/01/01:00:12.652000,603,12,651000000,,-0.648558914661,-0.0355238094926,0.00972737651318
1970/01/01/01:00:12.672000,604,12,671000000,,-0.649267435074,-0.0353285633028,0.0097973048687
1970/01/01/01:00:12.692000,605,12,692000000,,-0.649972081184,-0.0351319201291,0.00986684765667
1970/01/01/01:00:12.713000,606,12,712000000,,-0.650672733784,-0.0349338911474,0.00993599928916
1970/01/01/01:00:12.733000,607,12,732000000,,-0.65140414238,-0.0347244776785,0.0100081870332
1970/01/01/01:00:12.753000,608,12,752000000,,-0.652096629143,-0.0345236286521,0.0100765330717
1970/01/01/01:00:12.773000,609,12,771000000,,-0.652750730515,-0.0343315601349,0.0101410923526
1970/01/01/01:00:12.793000,610,12,792000000,,-0.653469443321,-0.0341178551316,0.0102120274678
1970/01/01/01:00:12.813000,611,12,812000000,,-0.654149770737,-0.0339129418135,0.0102791711688
1970/01/01/01:00:12.833000,612,12,832000000,,-0.654792249203,-0.033717032522,0.0103425821289
1970/01/01/01:00:12.852000,613,12,852000000,,-0.655464529991,-0.0335095189512,0.0104089323431
1970/01/01/01:00:12.872000,614,12,871000000,,-0.656132638454,-0.033300679177,0.0104748718441
1970/01/01/01:00:12.893000,615,12,892000000,,-0.656796574593,-0.0330905243754,0.0105403969064
1970/01/01/01:00:12.913000,616,12,912000000,,-0.657456278801,-0.0328790657222,0.0106055065989
1970/01/01/01:00:12.933000,617,12,932000000,,-0.65814435482,-0.0326556377113,0.0106734214351
1970/01/01/01:00:12.953000,618,12,953000000,,-0.65879535675,-0.0324415229261,0.0107376696542
1970/01/01/01:00:12.972000,619,12,971000000,,-0.659409761429,-0.0322369337082,0.010798313655
1970/01/01/01:00:12.993000,620,12,992000000,,-0.660084366798,-0.0320094674826,0.0108648929745
1970/01/01/01:00:13.013000,621,13,12000000,,-0.66069060564,-0.0318024642766,0.0109247239307
1970/01/01/01:00:13.032000,622,13,32000000,,-0.661324441433,-0.0315833464265,0.010987283662
1970/01/01/01:00:13.054000,623,13,52000000,,-0.66198527813,-0.0313519276679,0.0110525041819
1970/01/01/01:00:13.072000,624,13,71000000,,-0.662578940392,-0.0311413705349,0.0111110983416
1970/01/01/01:00:13.092000,625,13,91000000,,-0.663199543953,-0.0309185367078,0.0111723495647
1970/01/01/01:00:13.112000,626,13,111000000,,-0.663815677166,-0.0306944809854,0.0112331593409
1970/01/01/01:00:13.134000,627,13,133000000,,-0.664457798004,-0.0304579176009,0.0112965321168
1970/01/01/01:00:13.153000,628,13,152000000,,-0.665034472942,-0.0302427429706,0.0113534461707
1970/01/01/01:00:13.176000,629,13,175000000,,-0.665757000446,-0.0299694016576,0.0114247584715
1970/01/01/01:00:13.193000,630,13,193000000,,-0.66626483202,-0.0297747552395,0.0114748794585
1970/01/01/01:00:13.212000,631,13,211000000,,-0.666828453541,-0.0295562036335,0.0115305092186
1970/01/01/01:00:13.232000,632,13,231000000,,-0.667417287827,-0.0293250121176,0.0115886228159
1970/01/01/01:00:13.254000,633,13,252000000,,-0.668030560017,-0.0290810130537,0.01164914947
1970/01/01/01:00:13.272000,634,13,271000000,,-0.668581008911,-0.0288591627032,0.0117034753785
1970/01/01/01:00:13.292000,635,13,291000000,,-0.669155836105,-0.0286245252937,0.0117602096871
1970/01/01/01:00:13.313000,636,13,311000000,,-0.669725954533,-0.0283887572587,0.0118164792657
1970/01/01/01:00:13.333000,637,13,332000000,,-0.670319497585,-0.028139995411,0.011875060387
1970/01/01/01:00:13.352000,638,13,352000000,,-0.670852005482,-0.0279138702899,0.0119276177138
