time,.header.seq,.header.stamp.secs,.header.stamp.nsecs,.header.frame_id,.child_frame_id,.pose.pose.position.x,.pose.pose.position.y,.pose.pose.position.z,.pose.pose.orientation.x,.pose.pose.orientation.y,.pose.pose.orientation.z,.pose.pose.orientation.w,.pose.covariance,.twist.twist.linear.x,.twist.twist.linear.y,.twist.twist.linear.z,.twist.twist.angular.x,.twist.twist.angular.y,.twist.twist.angular.z,.twist.covariance
1970/01/01/01:00:12.191000,1,12,191000000,map,map,0.8,1.675,-0.637824291824,0.000297900488563,-7.78127579353e-05,-0.674819096401,-0.737983124694,"(149.264976, 0.0, 0.0, 0.0, 0.0, 0.0, 0.0, 149.264976, 0.0, 0.0, 0.0, 0.0, 0.0, 0.0, 148.2649763891049, 0.0, 0.0, 0.0, 0.0, 0.0, 0.0, 0.0, 0.0, 0.0, 0.0, 0.0, 0.0, 0.0, 0.0, 0.0, 0.0, 0.0, 0.0, 0.0, 0.0, 0.0)",0.0,0.0,0.0,-0.00821203504373,-0.00633550832811,-0.000468058653664,"(0.0, 0.0, 0.0, 0.0, 0.0, 0.0, 0.0, 0.0, 0.0, 0.0, 0.0, 0.0, 0.0, 0.0, 0.0, 0.0, 0.0, 0.0, 0.0, 0.0, 0.0, 0.0, 0.0, 0.0, 0.0, 0.0, 0.0, 0.0, 0.0, 0.0, 0.0, 0.0, 0.0, 0.0, 0.0, 0.0)"
1970/01/01/01:00:12.212000,2,12,212000000,map,map,0.8145,1.6605,-0.578495684893,0.000371919421403,-7.85802163192e-05,-0.674848210271,-0.73795646725,"(149.992025085, 0.0, 0.0, 0.0, 0.0, 0.0, 0.0, 149.992025085, 0.0, 0.0, 0.0, 0.0, 0.0, 0.0, 0.020100618539175837, 0.0, 0.0, 0.0, 0.0, 0.0, 0.0, 0.0, 0.0, 0.0, 0.0, 0.0, 0.0, 0.0, 0.0, 0.0, 0.0, 0.0, 0.0, 0.0, 0.0, 0.0)",0.0,0.0,0.0,0.000874336225392,-0.000322395829887,0.0111285425439,"(0.0, 0.0, 0.0, 0.0, 0.0, 0.0, 0.0, 0.0, 0.0, 0.0, 0.0, 0.0, 0.0, 0.0, 0.0, 0.0, 0.0, 0.0, 0.0, 0.0, 0.0, 0.0, 0.0, 0.0, 0.0, 0.0, 0.0, 0.0, 0.0, 0.0, 0.0, 0.0, 0.0, 0.0, 0.0, 0.0)"
1970/01/01/01:00:12.238000,3,12,234000000,map,map,0.828954179685,1.646,-0.614688013546,0.000379233463662,-0.000168845759576,-0.675746425467,-0.737134032088,"(150.7207565629, 0.0, 0.0, 0.0, 0.0, 0.0, 0.0, 150.7207565629, 0.0, 0.0, 0.0, 0.0, 0.0, 0.0, 0.010099858341763348, 0.0, 0.0, 0.0, 0.0, 0.0, 0.0, 0.0, 0.0, 0.0, 0.0, 0.0, 0.0, 0.0, 0.0, 0.0, 0.0, 0.0, 0.0, 0.0, 0.0, 0.0)",0.035838,0.044,-0.143908755638,0.00595078292013,0.000862341018872,0.105320180161,"(0.0, 0.0, 0.0, 0.0, 0.0, 0.0, 0.0, 0.0, 0.0, 0.0, 0.0, 0.0, 0.0, 0.0, 0.0, 0.0, 0.0, 0.0, 0.0, 0.0, 0.0, 0.0, 0.0, 0.0, 0.0, 0.0, 0.0, 0.0, 0.0, 0.0, 0.0, 0.0, 0.0, 0.0, 0.0, 0.0)"
1970/01/01/01:00:12.260000,4,12,257000000,map,map,0.0545613907439,2.03868363037,-0.594321162628,0.00037123469975,-0.000154151820605,-0.676853288637,-0.73611795323,"(0.7617972681111993, 0.0, 0.0, 0.0, 0.0, 0.0, 0.0, 0.04075475040510392, 0.0, 0.0, 0.0, 0.0, 0.0, 0.0, 0.01009922240689202, 0.0, 0.0, 0.0, 0.0, 0.0, 0.0, 0.0, 0.0, 0.0, 0.0, 0.0, 0.0, 0.0, 0.0, 0.0, 0.0, 0.0, 0.0, 0.0, 0.0, 0.0)",0.0683698039061,0.08316,-0.322510187565,0.00241080818138,0.000226548699646,0.161222466856,"(0.0, 0.0, 0.0, 0.0, 0.0, 0.0, 0.0, 0.0, 0.0, 0.0, 0.0, 0.0, 0.0, 0.0, 0.0, 0.0, 0.0, 0.0, 0.0, 0.0, 0.0, 0.0, 0.0, 0.0, 0.0, 0.0, 0.0, 0.0, 0.0, 0.0, 0.0, 0.0, 0.0, 0.0, 0.0, 0.0)"
1970/01/01/01:00:12.271000,5,12,271000000,map,map,0.0545613140275,2.03867787272,-0.598945998658,0.00037123469975,-0.000154151820605,-0.676853288637,-0.73611795323,"(0.7617972681084476, 0.0, 0.0, 0.0, 0.0, 0.0, 0.0, 0.040754734906012766, 0.0, 0.0, 0.0, 0.0, 0.0, 0.0, 9.901953309761657e-05, 0.0, 0.0, 0.0, 0.0, 0.0, 0.0, 0.0, 0.0, 0.0, 0.0, 0.0, 0.0, 0.0, 0.0, 0.0, 0.0, 0.0, 0.0, 0.0, 0.0, 0.0)",0.0648552572555,0.106923,-0.388077621936,0.00241080818138,0.000226548699646,0.161222466856,"(0.0, 0.0, 0.0, 0.0, 0.0, 0.0, 0.0, 0.0, 0.0, 0.0, 0.0, 0.0, 0.0, 0.0, 0.0, 0.0, 0.0, 0.0, 0.0, 0.0, 0.0, 0.0, 0.0, 0.0, 0.0, 0.0, 0.0, 0.0, 0.0, 0.0, 0.0, 0.0, 0.0, 0.0, 0.0, 0.0)"
1970/01/01/01:00:12.293000,6,12,293000000,map,map,0.0635667759967,2.02888712392,-0.59652442966,0.000389046774938,-0.00013339720392,-0.677930572621,-0.735125805879,"(0.774367766559669, 0.0, 0.0, 0.0, 0.0, 0.0, 0.0, 0.05086879297702118, 0.0, 0.0, 0.0, 0.0, 0.0, 0.0, 9.90195423491082e-05, 0.0, 0.0, 0.0, 0.0, 0.0, 0.0, 0.0, 0.0, 0.0, 0.0, 0.0, 0.0, 0.0, 0.0, 0.0, 0.0, 0.0, 0.0, 0.0, 0.0, 0.0)",0.06004206152,0.13916147,-0.46942819268,0.000533448294513,-0.00579048455484,0.151526225516,"(0.0, 0.0, 0.0, 0.0, 0.0, 0.0, 0.0, 0.0, 0.0, 0.0, 0.0, 0.0, 0.0, 0.0, 0.0, 0.0, 0.0, 0.0, 0.0, 0.0, 0.0, 0.0, 0.0, 0.0, 0.0, 0.0, 0.0, 0.0, 0.0, 0.0, 0.0, 0.0, 0.0, 0.0, 0.0, 0.0)"
1970/01/01/01:00:12.311000,7,12,311000000,map,map,0.0721219397401,2.01959625059,-0.590486468092,0.000467126003523,-0.000148923738654,-0.679026859566,-0.734113222575,"(0.786826152199221, 0.0, 0.0, 0.0, 0.0, 0.0, 0.0, 0.06098382804717234, 0.0, 0.0, 0.0, 0.0, 0.0, 0.0, 9.901954366327424e-05, 0.0, 0.0, 0.0, 0.0, 0.0, 0.0, 0.0, 0.0, 0.0, 0.0, 0.0, 0.0, 0.0, 0.0, 0.0, 0.0, 0.0, 0.0, 0.0, 0.0, 0.0)",0.0568100111652,0.1626369377,-0.5,-0.00738643996922,-0.00478107500394,0.151023413908,"(0.0, 0.0, 0.0, 0.0, 0.0, 0.0, 0.0, 0.0, 0.0, 0.0, 0.0, 0.0, 0.0, 0.0, 0.0, 0.0, 0.0, 0.0, 0.0, 0.0, 0.0, 0.0, 0.0, 0.0, 0.0, 0.0, 0.0, 0.0, 0.0, 0.0, 0.0, 0.0, 0.0, 0.0, 0.0, 0.0)"
1970/01/01/01:00:12.333000,8,12,331000000,map,map,0.0807574470885,2.01030308624,-0.580443774643,0.000470488151059,-0.000105457383034,-0.680028695424,-0.733185396584,"(0.7992946596694893, 0.0, 0.0, 0.0, 0.0, 0.0, 0.0, 0.07110519612653281, 0.0, 0.0, 0.0, 0.0, 0.0, 0.0, 9.901954755905664e-05, 0.0, 0.0, 0.0, 0.0, 0.0, 0.0, 0.0, 0.0, 0.0, 0.0, 0.0, 0.0, 0.0, 0.0, 0.0, 0.0, 0.0, 0.0, 0.0, 0.0, 0.0)",0.0538410254053,0.18637324393,-0.5,0.00248235833665,-0.00446287096193,0.138128574646,"(0.0, 0.0, 0.0, 0.0, 0.0, 0.0, 0.0, 0.0, 0.0, 0.0, 0.0, 0.0, 0.0, 0.0, 0.0, 0.0, 0.0, 0.0, 0.0, 0.0, 0.0, 0.0, 0.0, 0.0, 0.0, 0.0, 0.0, 0.0, 0.0, 0.0, 0.0, 0.0, 0.0, 0.0, 0.0, 0.0)"
1970/01/01/01:00:12.354000,9,12,352000000,map,map,0.0894381637836,2.00100209997,-0.59880516652,0.000526857647048,-9.39271536182e-05,-0.681039213532,-0.732246780999,"(0.8117733689704738, 0.0, 0.0, 0.0, 0.0, 0.0, 0.0, 0.08123297721510245, 0.0, 0.0, 0.0, 0.0, 0.0, 0.0, 9.901955147929033e-05, 0.0, 0.0, 0.0, 0.0, 0.0, 0.0, 0.0, 0.0, 0.0, 0.0, 0.0, 0.0, 0.0, 0.0, 0.0, 0.0, 0.0, 0.0, 0.0, 0.0, 0.0)",0.0513503047614,0.208804053317,-0.474542249596,-0.00220282533675,-0.00195142866273,0.135657448516,"(0.0, 0.0, 0.0, 0.0, 0.0, 0.0, 0.0, 0.0, 0.0, 0.0, 0.0, 0.0, 0.0, 0.0, 0.0, 0.0, 0.0, 0.0, 0.0, 0.0, 0.0, 0.0, 0.0, 0.0, 0.0, 0.0, 0.0, 0.0, 0.0, 0.0, 0.0, 0.0, 0.0, 0.0, 0.0, 0.0)"
1970/01/01/01:00:12.371000,10,12,371000000,map,map,0.0976659773314,1.99217886013,-0.608096927839,0.00055659788746,-5.60301809305e-05,-0.681920016811,-0.731426669181,"(0.8241376654021101, 0.0, 0.0, 0.0, 0.0, 0.0, 0.0, 0.0913603824490236, 0.0, 0.0, 0.0, 0.0, 0.0, 0.0, 9.901955135878665e-05, 0.0, 0.0, 0.0, 0.0, 0.0, 0.0, 0.0, 0.0, 0.0, 0.0, 0.0, 0.0, 0.0, 0.0, 0.0, 0.0, 0.0, 0.0, 0.0, 0.0, 0.0)",0.0496203161647,0.226967668252,-0.468793223232,0.00129217596945,-0.00637451805484,0.125954061937,"(0.0, 0.0, 0.0, 0.0, 0.0, 0.0, 0.0, 0.0, 0.0, 0.0, 0.0, 0.0, 0.0, 0.0, 0.0, 0.0, 0.0, 0.0, 0.0, 0.0, 0.0, 0.0, 0.0, 0.0, 0.0, 0.0, 0.0, 0.0, 0.0, 0.0, 0.0, 0.0, 0.0, 0.0, 0.0, 0.0)"
1970/01/01/01:00:12.402000,11,12,393000000,map,map,0.393198527446,1.99572683668,-0.606744008333,0.000520011336025,-3.48045094166e-05,-0.682754255726,-0.730647979813,"(0.27113873419122536, 0.0, 0.0, 0.0, 0.0, 0.0, 0.0, 0.05622991188830324, 0.0, 0.0, 0.0, 0.0, 0.0, 0.0, 9.901391255630265e-05, 0.0, 0.0, 0.0, 0.0, 0.0, 0.0, 0.0, 0.0, 0.0, 0.0, 0.0, 0.0, 0.0, 0.0, 0.0, 0.0, 0.0, 0.0, 0.0, 0.0, 0.0)",0.0481265651608,0.246001224744,-0.463906249053,-0.0013674061409,0.000614517804886,0.111950334764,"(0.0, 0.0, 0.0, 0.0, 0.0, 0.0, 0.0, 0.0, 0.0, 0.0, 0.0, 0.0, 0.0, 0.0, 0.0, 0.0, 0.0, 0.0, 0.0, 0.0, 0.0, 0.0, 0.0, 0.0, 0.0, 0.0, 0.0, 0.0, 0.0, 0.0, 0.0, 0.0, 0.0, 0.0, 0.0, 0.0)"
1970/01/01/01:00:12.440000,12,12,411000000,map,map,0.402240690705,1.98649512529,-0.578947423798,0.000585355702943,-4.86930484539e-05,-0.683485909211,-0.729963530799,"(0.2819497502436645, 0.0, 0.0, 0.0, 0.0, 0.0, 0.0, 0.06630836073715718, 0.0, 0.0, 0.0, 0.0, 0.0, 0.0, 9.90195627394262e-05, 0.0, 0.0, 0.0, 0.0, 0.0, 0.0, 0.0, 0.0, 0.0, 0.0, 0.0, 0.0, 0.0, 0.0, 0.0, 0.0, 0.0, 0.0, 0.0, 0.0, 0.0)",0.0576387153525,0.259861114517,-0.443287915361,-0.00616085561634,-0.00371118718997,0.10125071058,"(0.0, 0.0, 0.0, 0.0, 0.0, 0.0, 0.0, 0.0, 0.0, 0.0, 0.0, 0.0, 0.0, 0.0, 0.0, 0.0, 0.0, 0.0, 0.0, 0.0, 0.0, 0.0, 0.0, 0.0, 0.0, 0.0, 0.0, 0.0, 0.0, 0.0, 0.0, 0.0, 0.0, 0.0, 0.0, 0.0)"
1970/01/01/01:00:12.440000,13,12,431000000,map,map,0.411205745103,1.97729055963,-0.58479968444,0.0005764154056,-3.24374329127e-07,-0.684179959805,-0.729312975753,"(0.29276880843823133, 0.0, 0.0, 0.0, 0.0, 0.0, 0.0, 0.07639349255871962, 0.0, 0.0, 0.0, 0.0, 0.0, 0.0, 9.901956715803695e-05, 0.0, 0.0, 0.0, 0.0, 0.0, 0.0, 0.0, 0.0, 0.0, 0.0, 0.0, 0.0, 0.0, 0.0, 0.0, 0.0, 0.0, 0.0, 0.0, 0.0, 0.0)",0.0675835915054,0.273875003066,-0.364257494077,0.0060665481389,-0.00155755672121,0.0957095342466,"(0.0, 0.0, 0.0, 0.0, 0.0, 0.0, 0.0, 0.0, 0.0, 0.0, 0.0, 0.0, 0.0, 0.0, 0.0, 0.0, 0.0, 0.0, 0.0, 0.0, 0.0, 0.0, 0.0, 0.0, 0.0, 0.0, 0.0, 0.0, 0.0, 0.0, 0.0, 0.0, 0.0, 0.0, 0.0, 0.0)"
1970/01/01/01:00:12.478000,14,12,459000000,map,map,0.429033774659,1.95880645335,-0.588147645592,0.000739236913204,-0.000102949233957,-0.685507175918,-0.728065501477,"(0.31443117326205877, 0.0, 0.0, 0.0, 0.0, 0.0, 0.0, 0.09658412018555124, 0.0, 0.0, 0.0, 0.0, 0.0, 0.0, 0.010099722501065092, 0.0, 0.0, 0.0, 0.0, 0.0, 0.0, 0.0, 0.0, 0.0, 0.0, 0.0, 0.0, 0.0, 0.0, 0.0, 0.0, 0.0, 0.0, 0.0, 0.0, 0.0)",0.0805516231431,0.291532502637,-0.268711927689,-0.00215623917429,-0.00376903446004,0.0769215189436,"(0.0, 0.0, 0.0, 0.0, 0.0, 0.0, 0.0, 0.0, 0.0, 0.0, 0.0, 0.0, 0.0, 0.0, 0.0, 0.0, 0.0, 0.0, 0.0, 0.0, 0.0, 0.0, 0.0, 0.0, 0.0, 0.0, 0.0, 0.0, 0.0, 0.0, 0.0, 0.0, 0.0, 0.0, 0.0, 0.0)"
1970/01/01/01:00:12.478000,15,12,472000000,map,map,0.42903377466,1.95880645334,-0.586763622402,0.000739236913204,-0.000102949233957,-0.685507175918,-0.728065501477,"(0.31443117326205877, 0.0, 0.0, 0.0, 0.0, 0.0, 0.0, 0.09658412018555124, 0.0, 0.0, 0.0, 0.0, 0.0, 0.0, 9.901958117008064e-05, 0.0, 0.0, 0.0, 0.0, 0.0, 0.0, 0.0, 0.0, 0.0, 0.0, 0.0, 0.0, 0.0, 0.0, 0.0, 0.0, 0.0, 0.0, 0.0, 0.0, 0.0)",0.0861439008323,0.298582889965,-0.229350223709,-0.00215623917429,-0.00376903446004,0.0769215189436,"(0.0, 0.0, 0.0, 0.0, 0.0, 0.0, 0.0, 0.0, 0.0, 0.0, 0.0, 0.0, 0.0, 0.0, 0.0, 0.0, 0.0, 0.0, 0.0, 0.0, 0.0, 0.0, 0.0, 0.0, 0.0, 0.0, 0.0, 0.0, 0.0, 0.0, 0.0, 0.0, 0.0, 0.0, 0.0, 0.0)"
1970/01/01/01:00:12.517000,16,12,492000000,map,map,0.438833876641,1.94860750811,-0.584151048181,0.000729323698668,-6.20435566281e-05,-0.686097201504,-0.727509614838,"(0.3253594404496651, 0.0, 0.0, 0.0, 0.0, 0.0, 0.0, 0.10670072425888602, 0.0, 0.0, 0.0, 0.0, 0.0, 0.0, 9.901959256030036e-05, 0.0, 0.0, 0.0, 0.0, 0.0, 0.0, 0.0, 0.0, 0.0, 0.0, 0.0, 0.0, 0.0, 0.0, 0.0, 0.0, 0.0, 0.0, 0.0, 0.0, 0.0)",0.0941462903566,0.308724600969,-0.168537299761,0.00451215377661,-0.0008400575077,0.0810339920987,"(0.0, 0.0, 0.0, 0.0, 0.0, 0.0, 0.0, 0.0, 0.0, 0.0, 0.0, 0.0, 0.0, 0.0, 0.0, 0.0, 0.0, 0.0, 0.0, 0.0, 0.0, 0.0, 0.0, 0.0, 0.0, 0.0, 0.0, 0.0, 0.0, 0.0, 0.0, 0.0, 0.0, 0.0, 0.0, 0.0)"
1970/01/01/01:00:12.517000,17,12,513000000,map,map,0.446353601482,1.94071675649,-0.573610034557,0.000666984249761,-4.24293641047e-05,-0.686656498086,-0.726981759805,"(0.33608360786577673, 0.0, 0.0, 0.0, 0.0, 0.0, 0.0, 0.11679662437417684, 0.0, 0.0, 0.0, 0.0, 0.0, 0.0, 9.901956388839757e-05, 0.0, 0.0, 0.0, 0.0, 0.0, 0.0, 0.0, 0.0, 0.0, 0.0, 0.0, 0.0, 0.0, 0.0, 0.0, 0.0, 0.0, 0.0, 0.0, 0.0, 0.0)",0.102047791864,0.318308517867,-0.104855180928,0.00781444399094,0.00175936356713,0.0725953128444,"(0.0, 0.0, 0.0, 0.0, 0.0, 0.0, 0.0, 0.0, 0.0, 0.0, 0.0, 0.0, 0.0, 0.0, 0.0, 0.0, 0.0, 0.0, 0.0, 0.0, 0.0, 0.0, 0.0, 0.0, 0.0, 0.0, 0.0, 0.0, 0.0, 0.0, 0.0, 0.0, 0.0, 0.0, 0.0, 0.0)"
1970/01/01/01:00:12.554000,18,12,537000000,map,map,0.459499536591,1.95036302556,-0.551607074536,0.000696690636869,-1.78087515956e-05,-0.687677217049,-0.726016337507,"(0.22453550237445863, 0.0, 0.0, 0.0, 0.0, 0.0, 0.0, 0.04796518757109337, 0.0, 0.0, 0.0, 0.0, 0.0, 0.0, 0.010099811696054414, 0.0, 0.0, 0.0, 0.0, 0.0, 0.0, 0.0, 0.0, 0.0, 0.0, 0.0, 0.0, 0.0, 0.0, 0.0, 0.0, 0.0, 0.0, 0.0, 0.0, 0.0)",0.109700266902,0.327294580902,-0.0263367687044,-0.0023249565096,0.00304612679521,0.0652975437729,"(0.0, 0.0, 0.0, 0.0, 0.0, 0.0, 0.0, 0.0, 0.0, 0.0, 0.0, 0.0, 0.0, 0.0, 0.0, 0.0, 0.0, 0.0, 0.0, 0.0, 0.0, 0.0, 0.0, 0.0, 0.0, 0.0, 0.0, 0.0, 0.0, 0.0, 0.0, 0.0, 0.0, 0.0, 0.0, 0.0)"
1970/01/01/01:00:12.554000,19,12,551000000,map,map,0.459499536591,1.95036302556,-0.551607074536,0.000696690636869,-1.78087515956e-05,-0.687677217049,-0.726016337507,"(0.22453550237445863, 0.0, 0.0, 0.0, 0.0, 0.0, 0.0, 0.04796518757109337, 0.0, 0.0, 0.0, 0.0, 0.0, 0.0, 0.010099811696054414, 0.0, 0.0, 0.0, 0.0, 0.0, 0.0, 0.0, 0.0, 0.0, 0.0, 0.0, 0.0, 0.0, 0.0, 0.0, 0.0, 0.0, 0.0, 0.0, 0.0, 0.0)",0.114716404934,0.333111014429,0.0372842838073,-0.0023249565096,0.00304612679521,0.0652975437729,"(0.0, 0.0, 0.0, 0.0, 0.0, 0.0, 0.0, 0.0, 0.0, 0.0, 0.0, 0.0, 0.0, 0.0, 0.0, 0.0, 0.0, 0.0, 0.0, 0.0, 0.0, 0.0, 0.0, 0.0, 0.0, 0.0, 0.0, 0.0, 0.0, 0.0, 0.0, 0.0, 0.0, 0.0, 0.0, 0.0)"
1970/01/01/01:00:12.591000,20,12,573000000,map,map,0.468406208632,1.94100998667,-0.570642185337,0.000713944070808,-1.23468863432e-06,-0.688127175487,-0.725589897011,"(0.23508137798526182, 0.0, 0.0, 0.0, 0.0, 0.0, 0.0, 0.0580146995136969, 0.0, 0.0, 0.0, 0.0, 0.0, 0.0, 0.010099861980808955, 0.0, 0.0, 0.0, 0.0, 0.0, 0.0, 0.0, 0.0, 0.0, 0.0, 0.0, 0.0, 0.0, 0.0, 0.0, 0.0, 0.0, 0.0, 0.0, 0.0, 0.0)",0.121377742429,0.340468802842,0.129872478007,-0.00126987054666,0.00141009874554,0.0513879169652,"(0.0, 0.0, 0.0, 0.0, 0.0, 0.0, 0.0, 0.0, 0.0, 0.0, 0.0, 0.0, 0.0, 0.0, 0.0, 0.0, 0.0, 0.0, 0.0, 0.0, 0.0, 0.0, 0.0, 0.0, 0.0, 0.0, 0.0, 0.0, 0.0, 0.0, 0.0, 0.0, 0.0, 0.0, 0.0, 0.0)"
1970/01/01/01:00:12.592000,21,12,591000000,map,map,0.478147911506,1.93080644782,-0.577214218283,0.000738967650818,-2.66482916287e-05,-0.688483851095,-0.725251344548,"(0.2456913138190445, 0.0, 0.0, 0.0, 0.0, 0.0, 0.0, 0.06807759355562547, 0.0, 0.0, 0.0, 0.0, 0.0, 0.0, 0.010100086353499474, 0.0, 0.0, 0.0, 0.0, 0.0, 0.0, 0.0, 0.0, 0.0, 0.0, 0.0, 0.0, 0.0, 0.0, 0.0, 0.0, 0.0, 0.0, 0.0, 0.0, 0.0)",0.126458192078,0.345826610586,0.159177532556,-0.00346984600398,-0.000443392193638,0.0607198998695,"(0.0, 0.0, 0.0, 0.0, 0.0, 0.0, 0.0, 0.0, 0.0, 0.0, 0.0, 0.0, 0.0, 0.0, 0.0, 0.0, 0.0, 0.0, 0.0, 0.0, 0.0, 0.0, 0.0, 0.0, 0.0, 0.0, 0.0, 0.0, 0.0, 0.0, 0.0, 0.0, 0.0, 0.0, 0.0, 0.0)"
1970/01/01/01:00:12.629000,22,12,611000000,map,map,0.486065684614,1.92248893978,-0.569112308748,0.000728459153206,-4.32084839962e-05,-0.688913269529,-0.724843421006,"(0.2561978001881612, 0.0, 0.0, 0.0, 0.0, 0.0, 0.0, 0.07813567227858706, 0.0, 0.0, 0.0, 0.0, 0.0, 0.0, 9.950501302247497e-05, 0.0, 0.0, 0.0, 0.0, 0.0, 0.0, 0.0, 0.0, 0.0, 0.0, 0.0, 0.0, 0.0, 0.0, 0.0, 0.0, 0.0, 0.0, 0.0, 0.0, 0.0)",0.131897367309,0.351243949528,0.171028130785,1.39421570199e-05,0.00414810570436,0.0596813425318,"(0.0, 0.0, 0.0, 0.0, 0.0, 0.0, 0.0, 0.0, 0.0, 0.0, 0.0, 0.0, 0.0, 0.0, 0.0, 0.0, 0.0, 0.0, 0.0, 0.0, 0.0, 0.0, 0.0, 0.0, 0.0, 0.0, 0.0, 0.0, 0.0, 0.0, 0.0, 0.0, 0.0, 0.0, 0.0, 0.0)"
1970/01/01/01:00:12.664000,23,12,631000000,map,map,0.494906737921,1.91322593269,-0.569379868447,0.000823772789968,2.78745015027e-05,-0.68934634552,-0.724431502733,"(0.26676850635570587, 0.0, 0.0, 0.0, 0.0, 0.0, 0.0, 0.0882072737284286, 0.0, 0.0, 0.0, 0.0, 0.0, 0.0, 9.901965293879097e-05, 0.0, 0.0, 0.0, 0.0, 0.0, 0.0, 0.0, 0.0, 0.0, 0.0, 0.0, 0.0, 0.0, 0.0, 0.0, 0.0, 0.0, 0.0, 0.0, 0.0, 0.0)",0.137008169387,0.356119554575,0.188705874174,0.00102221506888,-0.0152641495745,0.0615876248258,"(0.0, 0.0, 0.0, 0.0, 0.0, 0.0, 0.0, 0.0, 0.0, 0.0, 0.0, 0.0, 0.0, 0.0, 0.0, 0.0, 0.0, 0.0, 0.0, 0.0, 0.0, 0.0, 0.0, 0.0, 0.0, 0.0, 0.0, 0.0, 0.0, 0.0, 0.0, 0.0, 0.0, 0.0, 0.0, 0.0)"
1970/01/01/01:00:12.664000,24,12,651000000,map,map,0.503781379631,1.90400381341,-0.554825120596,0.000815486406742,5.73111940553e-05,-0.689699084349,-0.724095791231,"(0.27734765203397965, 0.0, 0.0, 0.0, 0.0, 0.0, 0.0, 0.09828639468925926, 0.0, 0.0, 0.0, 0.0, 0.0, 0.0, 9.901961023460821e-05, 0.0, 0.0, 0.0, 0.0, 0.0, 0.0, 0.0, 0.0, 0.0, 0.0, 0.0, 0.0, 0.0, 0.0, 0.0, 0.0, 0.0, 0.0, 0.0, 0.0, 0.0)",0.141856015496,0.360507599117,0.196701198361,0.00189839732566,-0.00468431183071,0.0454997437297,"(0.0, 0.0, 0.0, 0.0, 0.0, 0.0, 0.0, 0.0, 0.0, 0.0, 0.0, 0.0, 0.0, 0.0, 0.0, 0.0, 0.0, 0.0, 0.0, 0.0, 0.0, 0.0, 0.0, 0.0, 0.0, 0.0, 0.0, 0.0, 0.0, 0.0, 0.0, 0.0, 0.0, 0.0, 0.0, 0.0)"
1970/01/01/01:00:12.703000,25,12,672000000,map,map,0.512611193519,1.89474058434,-0.554023968481,0.00087441749681,1.83768079724e-05,-0.690081224556,-0.723731521288,"(0.28793531722298266, 0.0, 0.0, 0.0, 0.0, 0.0, 0.0, 0.10837311516107906, 0.0, 0.0, 0.0, 0.0, 0.0, 0.0, 9.901961414216225e-05, 0.0, 0.0, 0.0, 0.0, 0.0, 0.0, 0.0, 0.0, 0.0, 0.0, 0.0, 0.0, 0.0, 0.0, 0.0, 0.0, 0.0, 0.0, 0.0, 0.0, 0.0)",0.146694878158,0.36465430121,0.222283373822,-0.00414828206625,-0.00104284098914,0.0505640599373,"(0.0, 0.0, 0.0, 0.0, 0.0, 0.0, 0.0, 0.0, 0.0, 0.0, 0.0, 0.0, 0.0, 0.0, 0.0, 0.0, 0.0, 0.0, 0.0, 0.0, 0.0, 0.0, 0.0, 0.0, 0.0, 0.0, 0.0, 0.0, 0.0, 0.0, 0.0, 0.0, 0.0, 0.0, 0.0, 0.0)"
1970/01/01/01:00:12.704000,26,12,693000000,map,map,0.523131087258,1.95773767232,-0.549695849726,0.000831060778561,-9.28877028501e-06,-0.690400928158,-0.723426484789,"(0.2022792058802473, 0.0, 0.0, 0.0, 0.0, 0.0, 0.0, 0.04176025895421327, 0.0, 0.0, 0.0, 0.0, 0.0, 0.0, 9.901963878690852e-05, 0.0, 0.0, 0.0, 0.0, 0.0, 0.0, 0.0, 0.0, 0.0, 0.0, 0.0, 0.0, 0.0, 0.0, 0.0, 0.0, 0.0, 0.0, 0.0, 0.0, 0.0)",0.151271395418,0.368365599583,0.236666539597,0.00333734092136,0.00609946212236,0.0436737628364,"(0.0, 0.0, 0.0, 0.0, 0.0, 0.0, 0.0, 0.0, 0.0, 0.0, 0.0, 0.0, 0.0, 0.0, 0.0, 0.0, 0.0, 0.0, 0.0, 0.0, 0.0, 0.0, 0.0, 0.0, 0.0, 0.0, 0.0, 0.0, 0.0, 0.0, 0.0, 0.0, 0.0, 0.0, 0.0, 0.0)"
1970/01/01/01:00:12.740000,27,12,713000000,map,map,0.530588478245,1.94988113709,-0.553327452722,0.000813089345892,-6.57529526259e-05,-0.690695521458,-0.723145294187,"(0.21262601982760929, 0.0, 0.0, 0.0, 0.0, 0.0, 0.0, 0.05179418037232214, 0.0, 0.0, 0.0, 0.0, 0.0, 0.0, 9.90195923252022e-05, 0.0, 0.0, 0.0, 0.0, 0.0, 0.0, 0.0, 0.0, 0.0, 0.0, 0.0, 0.0, 0.0, 0.0, 0.0, 0.0, 0.0, 0.0, 0.0, 0.0, 0.0)",0.155469903611,0.371529039625,0.246921772737,-0.00763648935584,0.00238334466332,0.0399385217828,"(0.0, 0.0, 0.0, 0.0, 0.0, 0.0, 0.0, 0.0, 0.0, 0.0, 0.0, 0.0, 0.0, 0.0, 0.0, 0.0, 0.0, 0.0, 0.0, 0.0, 0.0, 0.0, 0.0, 0.0, 0.0, 0.0, 0.0, 0.0, 0.0, 0.0, 0.0, 0.0, 0.0, 0.0, 0.0, 0.0)"
1970/01/01/01:00:12.740000,28,12,731000000,map,map,0.539790684265,1.94016303574,-0.550520013322,0.000778817598983,-0.000172784318772,-0.690889972529,-0.722959525366,"(0.2230629744058211, 0.0, 0.0, 0.0, 0.0, 0.0, 0.0, 0.06184388182017773, 0.0, 0.0, 0.0, 0.0, 0.0, 0.0, 9.901963693957843e-05, 0.0, 0.0, 0.0, 0.0, 0.0, 0.0, 0.0, 0.0, 0.0, 0.0, 0.0, 0.0, 0.0, 0.0, 0.0, 0.0, 0.0, 0.0, 0.0, 0.0, 0.0)",0.159030245918,0.374091426059,0.241758139914,-0.00335069526878,0.0104289160242,0.0205100956229,"(0.0, 0.0, 0.0, 0.0, 0.0, 0.0, 0.0, 0.0, 0.0, 0.0, 0.0, 0.0, 0.0, 0.0, 0.0, 0.0, 0.0, 0.0, 0.0, 0.0, 0.0, 0.0, 0.0, 0.0, 0.0, 0.0, 0.0, 0.0, 0.0, 0.0, 0.0, 0.0, 0.0, 0.0, 0.0, 0.0)"
1970/01/01/01:00:12.776000,29,12,751000000,map,map,0.548610879706,1.93092788445,-0.554178180942,0.000711896162025,-0.000119805133388,-0.691072121989,-0.722785552395,"(0.23348797102200325, 0.0, 0.0, 0.0, 0.0, 0.0, 0.0, 0.07189930673074035, 0.0, 0.0, 0.0, 0.0, 0.0, 0.0, 9.901962988587791e-05, 0.0, 0.0, 0.0, 0.0, 0.0, 0.0, 0.0, 0.0, 0.0, 0.0, 0.0, 0.0, 0.0, 0.0, 0.0, 0.0, 0.0, 0.0, 0.0, 0.0, 0.0)",0.162886297494,0.376682283453,0.23432490916,0.00666715518799,0.00394313901625,0.0236007946242,"(0.0, 0.0, 0.0, 0.0, 0.0, 0.0, 0.0, 0.0, 0.0, 0.0, 0.0, 0.0, 0.0, 0.0, 0.0, 0.0, 0.0, 0.0, 0.0, 0.0, 0.0, 0.0, 0.0, 0.0, 0.0, 0.0, 0.0, 0.0, 0.0, 0.0, 0.0, 0.0, 0.0, 0.0, 0.0, 0.0)"
1970/01/01/01:00:12.776000,30,12,773000000,map,map,0.557400155955,1.92174088521,-0.544277850597,0.000704006407808,-0.000218825346754,-0.691284589521,-0.72258235717,"(0.2439216821736367, 0.0, 0.0, 0.0, 0.0, 0.0, 0.0, 0.08196270549332162, 0.0, 0.0, 0.0, 0.0, 0.0, 0.0, 9.901963368812317e-05, 0.0, 0.0, 0.0, 0.0, 0.0, 0.0, 0.0, 0.0, 0.0, 0.0, 0.0, 0.0, 0.0, 0.0, 0.0, 0.0, 0.0, 0.0, 0.0, 0.0, 0.0)",0.166951930538,0.379247232273,0.212212560331,-0.010649069758,0.0114180997577,0.0278754256452,"(0.0, 0.0, 0.0, 0.0, 0.0, 0.0, 0.0, 0.0, 0.0, 0.0, 0.0, 0.0, 0.0, 0.0, 0.0, 0.0, 0.0, 0.0, 0.0, 0.0, 0.0, 0.0, 0.0, 0.0, 0.0, 0.0, 0.0, 0.0, 0.0, 0.0, 0.0, 0.0, 0.0, 0.0, 0.0, 0.0)"
1970/01/01/01:00:12.817000,31,12,791000000,map,map,0.567034398321,1.9117047547,-0.525472797684,0.000693058043625,-0.000178078049379,-0.691557876272,-0.722320702949,"(0.25440892432887974, 0.0, 0.0, 0.0, 0.0, 0.0, 0.0, 0.09204174853124251, 0.0, 0.0, 0.0, 0.0, 0.0, 0.0, 9.901966337053934e-05, 0.0, 0.0, 0.0, 0.0, 0.0, 0.0, 0.0, 0.0, 0.0, 0.0, 0.0, 0.0, 0.0, 0.0, 0.0, 0.0, 0.0, 0.0, 0.0, 0.0, 0.0)",0.170099858597,0.381114981368,0.205218634865,0.000879959785381,-0.00347508435909,0.0320143632421,"(0.0, 0.0, 0.0, 0.0, 0.0, 0.0, 0.0, 0.0, 0.0, 0.0, 0.0, 0.0, 0.0, 0.0, 0.0, 0.0, 0.0, 0.0, 0.0, 0.0, 0.0, 0.0, 0.0, 0.0, 0.0, 0.0, 0.0, 0.0, 0.0, 0.0, 0.0, 0.0, 0.0, 0.0, 0.0, 0.0)"
1970/01/01/01:00:12.817000,32,12,812000000,map,map,0.574888060361,1.90355583103,-0.541306923131,0.000687803516995,-0.000195111138442,-0.691771683283,-0.722115915364,"(0.26481556048325755, 0.0, 0.0, 0.0, 0.0, 0.0, 0.0, 0.10211373697454001, 0.0, 0.0, 0.0, 0.0, 0.0, 0.0, 9.901961763252428e-05, 0.0, 0.0, 0.0, 0.0, 0.0, 0.0, 0.0, 0.0, 0.0, 0.0, 0.0, 0.0, 0.0, 0.0, 0.0, 0.0, 0.0, 0.0, 0.0, 0.0, 0.0)",0.173720331406,0.383097908325,0.224751926451,-0.0052841562493,0.00632827960939,0.0276871751594,"(0.0, 0.0, 0.0, 0.0, 0.0, 0.0, 0.0, 0.0, 0.0, 0.0, 0.0, 0.0, 0.0, 0.0, 0.0, 0.0, 0.0, 0.0, 0.0, 0.0, 0.0, 0.0, 0.0, 0.0, 0.0, 0.0, 0.0, 0.0, 0.0, 0.0, 0.0, 0.0, 0.0, 0.0, 0.0, 0.0)"
1970/01/01/01:00:12.853000,33,12,831000000,map,map,0.733028345352,1.90029282216,-0.545129908083,0.000692815225917,-0.000149511520496,-0.691946675681,-0.721948256517,"(0.1855636509915645, 0.0, 0.0, 0.0, 0.0, 0.0, 0.0, 0.028892994415538723, 0.0, 0.0, 0.0, 0.0, 0.0, 0.0, 9.900908539039987e-05, 0.0, 0.0, 0.0, 0.0, 0.0, 0.0, 0.0, 0.0, 0.0, 0.0, 0.0, 0.0, 0.0, 0.0, 0.0, 0.0, 0.0, 0.0, 0.0, 0.0, 0.0)",0.176814751834,0.384703607034,0.206819360918,0.00314023754808,-0.00739538188466,0.0195044265166,"(0.0, 0.0, 0.0, 0.0, 0.0, 0.0, 0.0, 0.0, 0.0, 0.0, 0.0, 0.0, 0.0, 0.0, 0.0, 0.0, 0.0, 0.0, 0.0, 0.0, 0.0, 0.0, 0.0, 0.0, 0.0, 0.0, 0.0, 0.0, 0.0, 0.0, 0.0, 0.0, 0.0, 0.0, 0.0, 0.0)"
1970/01/01/01:00:12.853000,34,12,851000000,map,map,0.741461631144,1.8916525739,-0.548783259813,0.000671509150234,-0.000138016811325,-0.692116121817,-0.721785891052,"(0.19586570359210492, 0.0, 0.0, 0.0, 0.0, 0.0, 0.0, 0.038920070584837575, 0.0, 0.0, 0.0, 0.0, 0.0, 0.0, 9.901963518080442e-05, 0.0, 0.0, 0.0, 0.0, 0.0, 0.0, 0.0, 0.0, 0.0, 0.0, 0.0, 0.0, 0.0, 0.0, 0.0, 0.0, 0.0, 0.0, 0.0, 0.0, 0.0)",0.185956178401,0.38623324633,0.178040703328,0.00544593337175,0.000203583809105,0.0212007054206,"(0.0, 0.0, 0.0, 0.0, 0.0, 0.0, 0.0, 0.0, 0.0, 0.0, 0.0, 0.0, 0.0, 0.0, 0.0, 0.0, 0.0, 0.0, 0.0, 0.0, 0.0, 0.0, 0.0, 0.0, 0.0, 0.0, 0.0, 0.0, 0.0, 0.0, 0.0, 0.0, 0.0, 0.0, 0.0, 0.0)"
1970/01/01/01:00:12.889000,35,12,871000000,map,map,0.750325971928,1.88251174404,-0.529072976901,0.000623571781603,-0.000166748717198,-0.692289943323,-0.721619150217,"(0.20619241577504077, 0.0, 0.0, 0.0, 0.0, 0.0, 0.0, 0.048956735120987346, 0.0, 0.0, 0.0, 0.0, 0.0, 0.0, 9.90196530778112e-05, 0.0, 0.0, 0.0, 0.0, 0.0, 0.0, 0.0, 0.0, 0.0, 0.0, 0.0, 0.0, 0.0, 0.0, 0.0, 0.0, 0.0, 0.0, 0.0, 0.0, 0.0)",0.194379341941,0.387609921697,0.142034879009,-0.00264274103379,0.00544079480665,0.0151490914787,"(0.0, 0.0, 0.0, 0.0, 0.0, 0.0, 0.0, 0.0, 0.0, 0.0, 0.0, 0.0, 0.0, 0.0, 0.0, 0.0, 0.0, 0.0, 0.0, 0.0, 0.0, 0.0, 0.0, 0.0, 0.0, 0.0, 0.0, 0.0, 0.0, 0.0, 0.0, 0.0, 0.0, 0.0, 0.0, 0.0)"
1970/01/01/01:00:12.895000,36,12,894000000,map,map,0.768700454773,1.86383349477,-0.524669302699,0.000551292169285,-0.000319915540435,-0.692697951158,-0.721227579652,"(0.22689059654391427, 0.0, 0.0, 0.0, 0.0, 0.0, 0.0, 0.06905831997757485, 0.0, 0.0, 0.0, 0.0, 0.0, 0.0, 0.010100407757762844, 0.0, 0.0, 0.0, 0.0, 0.0, 0.0, 0.0, 0.0, 0.0, 0.0, 0.0, 0.0, 0.0, 0.0, 0.0, 0.0, 0.0, 0.0, 0.0, 0.0, 0.0)",0.203333996197,0.389034780702,0.139862669256,0.00448135878108,0.00789523063502,0.0138986986583,"(0.0, 0.0, 0.0, 0.0, 0.0, 0.0, 0.0, 0.0, 0.0, 0.0, 0.0, 0.0, 0.0, 0.0, 0.0, 0.0, 0.0, 0.0, 0.0, 0.0, 0.0, 0.0, 0.0, 0.0, 0.0, 0.0, 0.0, 0.0, 0.0, 0.0, 0.0, 0.0, 0.0, 0.0, 0.0, 0.0)"
1970/01/01/01:00:12.932000,37,12,911000000,map,map,0.768700454786,1.86383349475,-0.552265621049,0.000551292169285,-0.000319915540435,-0.692697951158,-0.721227579652,"(0.22689059654391427, 0.0, 0.0, 0.0, 0.0, 0.0, 0.0, 0.06905831997757485, 0.0, 0.0, 0.0, 0.0, 0.0, 0.0, 9.901964703397395e-05, 0.0, 0.0, 0.0, 0.0, 0.0, 0.0, 0.0, 0.0, 0.0, 0.0, 0.0, 0.0, 0.0, 0.0, 0.0, 0.0, 0.0, 0.0, 0.0, 0.0, 0.0)",0.20966423585,0.389966824343,0.140236967219,0.00448135878108,0.00789523063502,0.0138986986583,"(0.0, 0.0, 0.0, 0.0, 0.0, 0.0, 0.0, 0.0, 0.0, 0.0, 0.0, 0.0, 0.0, 0.0, 0.0, 0.0, 0.0, 0.0, 0.0, 0.0, 0.0, 0.0, 0.0, 0.0, 0.0, 0.0, 0.0, 0.0, 0.0, 0.0, 0.0, 0.0, 0.0, 0.0, 0.0, 0.0)"
1970/01/01/01:00:12.932000,38,12,931000000,map,map,0.777240577491,1.85514604713,-0.527342496915,0.000602401047107,-0.000285880581434,-0.69284855897,-0.721082788105,"(0.2372272470223689, 0.0, 0.0, 0.0, 0.0, 0.0, 0.0, 0.07911758834606367, 0.0, 0.0, 0.0, 0.0, 0.0, 0.0, 9.901965015957584e-05, 0.0, 0.0, 0.0, 0.0, 0.0, 0.0, 0.0, 0.0, 0.0, 0.0, 0.0, 0.0, 0.0, 0.0, 0.0, 0.0, 0.0, 0.0, 0.0, 0.0, 0.0)",0.216340285536,0.390970141908,0.0906458186267,0.0032336268694,-0.00330069252657,0.022344992577,"(0.0, 0.0, 0.0, 0.0, 0.0, 0.0, 0.0, 0.0, 0.0, 0.0, 0.0, 0.0, 0.0, 0.0, 0.0, 0.0, 0.0, 0.0, 0.0, 0.0, 0.0, 0.0, 0.0, 0.0, 0.0, 0.0, 0.0, 0.0, 0.0, 0.0, 0.0, 0.0, 0.0, 0.0, 0.0, 0.0)"
1970/01/01/01:00:12.971000,39,12,951000000,map,map,0.786647016961,1.84551150534,-0.519554710119,0.000532462982394,-0.000318989297584,-0.693107623794,-0.720833922819,"(0.24760910747803253, 0.0, 0.0, 0.0, 0.0, 0.0, 0.0, 0.0891921974344194, 0.0, 0.0, 0.0, 0.0, 0.0, 0.0, 0.010100796576751178, 0.0, 0.0, 0.0, 0.0, 0.0, 0.0, 0.0, 0.0, 0.0, 0.0, 0.0, 0.0, 0.0, 0.0, 0.0, 0.0, 0.0, 0.0, 0.0, 0.0, 0.0)",0.222522603773,0.391873127717,0.0878368744014,0.00517762856322,0.00398673116307,0.0288901792864,"(0.0, 0.0, 0.0, 0.0, 0.0, 0.0, 0.0, 0.0, 0.0, 0.0, 0.0, 0.0, 0.0, 0.0, 0.0, 0.0, 0.0, 0.0, 0.0, 0.0, 0.0, 0.0, 0.0, 0.0, 0.0, 0.0, 0.0, 0.0, 0.0, 0.0, 0.0, 0.0, 0.0, 0.0, 0.0, 0.0)"
1970/01/01/01:00:12.971000,40,12,972000000,map,map,0.744366598228,1.91161423345,-0.520391247523,0.000471981657975,-0.000365563067493,-0.693242242145,-0.720704446383,"(0.17789707060738033, 0.0, 0.0, 0.0, 0.0, 0.0, 0.0, 0.02413922115840721, 0.0, 0.0, 0.0, 0.0, 0.0, 0.0, 0.009993212167787544, 0.0, 0.0, 0.0, 0.0, 0.0, 0.0, 0.0, 0.0, 0.0, 0.0, 0.0, 0.0, 0.0, 0.0, 0.0, 0.0, 0.0, 0.0, 0.0, 0.0, 0.0)",0.228578239125,0.392726449307,0.0959333844943,2.37775362583e-05,0.0094360924884,0.013039861764,"(0.0, 0.0, 0.0, 0.0, 0.0, 0.0, 0.0, 0.0, 0.0, 0.0, 0.0, 0.0, 0.0, 0.0, 0.0, 0.0, 0.0, 0.0, 0.0, 0.0, 0.0, 0.0, 0.0, 0.0, 0.0, 0.0, 0.0, 0.0, 0.0, 0.0, 0.0, 0.0, 0.0, 0.0, 0.0, 0.0)"
1970/01/01/01:00:13.008000,41,12,991000000,map,map,0.755302489315,1.89605314064,-0.547440530667,0.000470018063468,-0.000370488383607,-0.693409056738,-0.720543953818,"(0.18817758967873907, 0.0, 0.0, 0.0, 0.0, 0.0, 0.0, 0.03392119621889108, 0.0, 0.0, 0.0, 0.0, 0.0, 0.0, 0.010101057472595352, 0.0, 0.0, 0.0, 0.0, 0.0, 0.0, 0.0, 0.0, 0.0, 0.0, 0.0, 0.0, 0.0, 0.0, 0.0, 0.0, 0.0, 0.0, 0.0, 0.0, 0.0)",0.231697632992,0.393417436623,0.097475367839,-0.00489551185333,8.94892428805e-06,0.0205388297209,"(0.0, 0.0, 0.0, 0.0, 0.0, 0.0, 0.0, 0.0, 0.0, 0.0, 0.0, 0.0, 0.0, 0.0, 0.0, 0.0, 0.0, 0.0, 0.0, 0.0, 0.0, 0.0, 0.0, 0.0, 0.0, 0.0, 0.0, 0.0, 0.0, 0.0, 0.0, 0.0, 0.0, 0.0, 0.0, 0.0)"
1970/01/01/01:00:13.047000,42,13,11000000,map,map,0.763375364878,1.88785692597,-0.524342742075,0.000433742728174,-0.000429728482984,-0.693612464014,-0.720348132974,"(0.1984238540641548, 0.0, 0.0, 0.0, 0.0, 0.0, 0.0, 0.04395175168580105, 0.0, 0.0, 0.0, 0.0, 0.0, 0.0, 0.010100431866891536, 0.0, 0.0, 0.0, 0.0, 0.0, 0.0, 0.0, 0.0, 0.0, 0.0, 0.0, 0.0, 0.0, 0.0, 0.0, 0.0, 0.0, 0.0, 0.0, 0.0, 0.0)",0.234932982279,0.394075692961,0.0506700824517,3.99886992245e-05,0.00738581748899,0.0237320708001,"(0.0, 0.0, 0.0, 0.0, 0.0, 0.0, 0.0, 0.0, 0.0, 0.0, 0.0, 0.0, 0.0, 0.0, 0.0, 0.0, 0.0, 0.0, 0.0, 0.0, 0.0, 0.0, 0.0, 0.0, 0.0, 0.0, 0.0, 0.0, 0.0, 0.0, 0.0, 0.0, 0.0, 0.0, 0.0, 0.0)"
1970/01/01/01:00:13.047000,43,13,32000000,map,map,0.772319811797,1.87870801496,-0.530741551231,0.000373177092211,-0.000498220936871,-0.69377478865,-0.720191793191,"(0.20870654425383467, 0.0, 0.0, 0.0, 0.0, 0.0, 0.0, 0.05399424194909104, 0.0, 0.0, 0.0, 0.0, 0.0, 0.0, 9.950507978669277e-05, 0.0, 0.0, 0.0, 0.0, 0.0, 0.0, 0.0, 0.0, 0.0, 0.0, 0.0, 0.0, 0.0, 0.0, 0.0, 0.0, 0.0, 0.0, 0.0, 0.0, 0.0)",0.238134822117,0.3946977452,0.0483631348872,0.000661094293718,0.00643815230526,0.0168872395991,"(0.0, 0.0, 0.0, 0.0, 0.0, 0.0, 0.0, 0.0, 0.0, 0.0, 0.0, 0.0, 0.0, 0.0, 0.0, 0.0, 0.0, 0.0, 0.0, 0.0, 0.0, 0.0, 0.0, 0.0, 0.0, 0.0, 0.0, 0.0, 0.0, 0.0, 0.0, 0.0, 0.0, 0.0, 0.0, 0.0)"
1970/01/01/01:00:13.086000,44,13,51000000,map,map,0.781296850374,1.8695607155,-0.523897809104,0.000338872587857,-0.000521949545699,-0.693926206471,-0.720045938753,"(0.21899885129083435, 0.0, 0.0, 0.0, 0.0, 0.0, 0.0, 0.06404577137507379, 0.0, 0.0, 0.0, 0.0, 0.0, 0.0, 9.9019734733778e-05, 0.0, 0.0, 0.0, 0.0, 0.0, 0.0, 0.0, 0.0, 0.0, 0.0, 0.0, 0.0, 0.0, 0.0, 0.0, 0.0, 0.0, 0.0, 0.0, 0.0, 0.0)",0.240879962506,0.395201459406,0.0348979885805,0.00338370845154,0.00150853205621,0.0195794499158,"(0.0, 0.0, 0.0, 0.0, 0.0, 0.0, 0.0, 0.0, 0.0, 0.0, 0.0, 0.0, 0.0, 0.0, 0.0, 0.0, 0.0, 0.0, 0.0, 0.0, 0.0, 0.0, 0.0, 0.0, 0.0, 0.0, 0.0, 0.0, 0.0, 0.0, 0.0, 0.0, 0.0, 0.0, 0.0, 0.0)"
1970/01/01/01:00:13.086000,45,13,71000000,map,map,0.790277146831,1.86034764763,-0.525020353552,0.000337433246227,-0.000472829873591,-0.694100794523,-0.719877588435,"(0.22930085517510645, 0.0, 0.0, 0.0, 0.0, 0.0, 0.0, 0.07410641996259787, 0.0, 0.0, 0.0, 0.0, 0.0, 0.0, 9.901969216316566e-05, 0.0, 0.0, 0.0, 0.0, 0.0, 0.0, 0.0, 0.0, 0.0, 0.0, 0.0, 0.0, 0.0, 0.0, 0.0, 0.0, 0.0, 0.0, 0.0, 0.0, 0.0)",0.243673169008,0.395681313465,0.0332919172311,0.00277538270428,-0.00571562042342,0.0202470642801,"(0.0, 0.0, 0.0, 0.0, 0.0, 0.0, 0.0, 0.0, 0.0, 0.0, 0.0, 0.0, 0.0, 0.0, 0.0, 0.0, 0.0, 0.0, 0.0, 0.0, 0.0, 0.0, 0.0, 0.0, 0.0, 0.0, 0.0, 0.0, 0.0, 0.0, 0.0, 0.0, 0.0, 0.0, 0.0, 0.0)"
1970/01/01/01:00:13.126000,46,13,91000000,map,map,0.799265333985,1.85106236059,-0.52162318158,0.000348787767736,-0.000484373520851,-0.694218130032,-0.719764467611,"(0.239612635906651, 0.0, 0.0, 0.0, 0.0, 0.0, 0.0, 0.08417626771166327, 0.0, 0.0, 0.0, 0.0, 0.0, 0.0, 9.90196960486017e-05, 0.0, 0.0, 0.0, 0.0, 0.0, 0.0, 0.0, 0.0, 0.0, 0.0, 0.0, 0.0, 0.0, 0.0, 0.0, 0.0, 0.0, 0.0, 0.0, 0.0, 0.0)",0.246353562748,0.396113182119,0.0289728864524,-0.00292451724183,0.00194543504268,0.011058500668,"(0.0, 0.0, 0.0, 0.0, 0.0, 0.0, 0.0, 0.0, 0.0, 0.0, 0.0, 0.0, 0.0, 0.0, 0.0, 0.0, 0.0, 0.0, 0.0, 0.0, 0.0, 0.0, 0.0, 0.0, 0.0, 0.0, 0.0, 0.0, 0.0, 0.0, 0.0, 0.0, 0.0, 0.0, 0.0, 0.0)"
1970/01/01/01:00:13.126000,47,13,113000000,map,map,0.823960403449,1.97939952065,-0.547049945806,0.000247066446608,-0.000395638543074,-0.694309264689,-0.719676620408,"(0.17549860584355936, 0.0, 0.0, 0.0, 0.0, 0.0, 0.0, 0.02338337597982473, 0.0, 0.0, 0.0, 0.0, 0.0, 0.0, 9.900968697844273e-05, 0.0, 0.0, 0.0, 0.0, 0.0, 0.0, 0.0, 0.0, 0.0, 0.0, 0.0, 0.0, 0.0, 0.0, 0.0, 0.0, 0.0, 0.0, 0.0, 0.0, 0.0)",0.249188200396,0.396540732086,0.0301795843494,0.0137229027594,0.00372670200912,0.00817685081327,"(0.0, 0.0, 0.0, 0.0, 0.0, 0.0, 0.0, 0.0, 0.0, 0.0, 0.0, 0.0, 0.0, 0.0, 0.0, 0.0, 0.0, 0.0, 0.0, 0.0, 0.0, 0.0, 0.0, 0.0, 0.0, 0.0, 0.0, 0.0, 0.0, 0.0, 0.0, 0.0, 0.0, 0.0, 0.0, 0.0)"
1970/01/01/01:00:13.162000,48,13,131000000,map,map,0.833083166626,1.97018308904,-0.529379920608,0.000279117108108,-0.000446214267378,-0.694455051956,-0.719536059351,"(0.1857327532782428, 0.0, 0.0, 0.0, 0.0, 0.0, 0.0, 0.03340879031852385, 0.0, 0.0, 0.0, 0.0, 0.0, 0.0, 9.901970285754684e-05, 0.0, 0.0, 0.0, 0.0, 0.0, 0.0, 0.0, 0.0, 0.0, 0.0, 0.0, 0.0, 0.0, 0.0, 0.0, 0.0, 0.0, 0.0, 0.0, 0.0, 0.0)",0.251946242472,0.396852066198,-0.0081465745843,-0.00659961030696,0.00832016775671,0.0158061064205,"(0.0, 0.0, 0.0, 0.0, 0.0, 0.0, 0.0, 0.0, 0.0, 0.0, 0.0, 0.0, 0.0, 0.0, 0.0, 0.0, 0.0, 0.0, 0.0, 0.0, 0.0, 0.0, 0.0, 0.0, 0.0, 0.0, 0.0, 0.0, 0.0, 0.0, 0.0, 0.0, 0.0, 0.0, 0.0, 0.0)"
1970/01/01/01:00:13.162000,49,13,151000000,map,map,0.841711646587,1.96140011668,-0.521120345655,0.000266658202314,-0.000557241398631,-0.694475825084,-0.719515876279,"(0.1959644114736082, 0.0, 0.0, 0.0, 0.0, 0.0, 0.0, 0.043441667632348656, 0.0, 0.0, 0.0, 0.0, 0.0, 0.0, 9.90196889583304e-05, 0.0, 0.0, 0.0, 0.0, 0.0, 0.0, 0.0, 0.0, 0.0, 0.0, 0.0, 0.0, 0.0, 0.0, 0.0, 0.0, 0.0, 0.0, 0.0, 0.0, 0.0)",0.254920424482,0.397166859578,-0.014521309368,-0.00847328934897,0.00711682423215,-0.00191509494383,"(0.0, 0.0, 0.0, 0.0, 0.0, 0.0, 0.0, 0.0, 0.0, 0.0, 0.0, 0.0, 0.0, 0.0, 0.0, 0.0, 0.0, 0.0, 0.0, 0.0, 0.0, 0.0, 0.0, 0.0, 0.0, 0.0, 0.0, 0.0, 0.0, 0.0, 0.0, 0.0, 0.0, 0.0, 0.0, 0.0)"
1970/01/01/01:00:13.199000,50,13,171000000,map,map,0.851226836246,1.95169474462,-0.541058918323,0.000208138620246,-0.000548985802361,-0.694575038765,-0.719420118639,"(0.20623099158098446, 0.0, 0.0, 0.0, 0.0, 0.0, 0.0, 0.05348797347929827, 0.0, 0.0, 0.0, 0.0, 0.0, 0.0, 9.901973148193765e-05, 0.0, 0.0, 0.0, 0.0, 0.0, 0.0, 0.0, 0.0, 0.0, 0.0, 0.0, 0.0, 0.0, 0.0, 0.0, 0.0, 0.0, 0.0, 0.0, 0.0, 0.0)",0.257740770496,0.39745017362,-0.00558358645421,0.00697380091387,0.00722933471271,0.0104731716946,"(0.0, 0.0, 0.0, 0.0, 0.0, 0.0, 0.0, 0.0, 0.0, 0.0, 0.0, 0.0, 0.0, 0.0, 0.0, 0.0, 0.0, 0.0, 0.0, 0.0, 0.0, 0.0, 0.0, 0.0, 0.0, 0.0, 0.0, 0.0, 0.0, 0.0, 0.0, 0.0, 0.0, 0.0, 0.0, 0.0)"
1970/01/01/01:00:13.199000,51,13,191000000,map,map,0.861208151996,1.94155614163,-0.542432959887,0.000186806820168,-0.000514203354185,-0.69464511712,-0.719352400507,"(0.2165222258017054, 0.0, 0.0, 0.0, 0.0, 0.0, 0.0, 0.06354780329940292, 0.0, 0.0, 0.0, 0.0, 0.0, 0.0, 9.901975763086012e-05, 0.0, 0.0, 0.0, 0.0, 0.0, 0.0, 0.0, 0.0, 0.0, 0.0, 0.0, 0.0, 0.0, 0.0, 0.0, 0.0, 0.0, 0.0, 0.0, 0.0, 0.0)",0.260455753155,0.397705156258,-0.0311803189244,0.00318511158872,-0.00249422796474,0.00752799106672,"(0.0, 0.0, 0.0, 0.0, 0.0, 0.0, 0.0, 0.0, 0.0, 0.0, 0.0, 0.0, 0.0, 0.0, 0.0, 0.0, 0.0, 0.0, 0.0, 0.0, 0.0, 0.0, 0.0, 0.0, 0.0, 0.0, 0.0, 0.0, 0.0, 0.0, 0.0, 0.0, 0.0, 0.0, 0.0, 0.0)"
1970/01/01/01:00:13.237000,52,13,212000000,map,map,0.869366537548,1.93322926018,-0.565034498,0.000145616908856,-0.000534858612968,-0.694731914603,-0.719268721891,"(0.2267696785220547, 0.0, 0.0, 0.0, 0.0, 0.0, 0.0, 0.07360543736578161, 0.0, 0.0, 0.0, 0.0, 0.0, 0.0, 9.901968096263621e-05, 0.0, 0.0, 0.0, 0.0, 0.0, 0.0, 0.0, 0.0, 0.0, 0.0, 0.0, 0.0, 0.0, 0.0, 0.0, 0.0, 0.0, 0.0, 0.0, 0.0, 0.0)",0.263224124783,0.397946114851,-0.0548907214098,-0.000299252335658,0.00545005410955,0.0110647871191,"(0.0, 0.0, 0.0, 0.0, 0.0, 0.0, 0.0, 0.0, 0.0, 0.0, 0.0, 0.0, 0.0, 0.0, 0.0, 0.0, 0.0, 0.0, 0.0, 0.0, 0.0, 0.0, 0.0, 0.0, 0.0, 0.0, 0.0, 0.0, 0.0, 0.0, 0.0, 0.0, 0.0, 0.0, 0.0, 0.0)"
1970/01/01/01:00:13.237000,53,13,231000000,map,map,0.879364255673,1.9230730058,-0.538686602063,0.000103653609047,-0.000550905634528,-0.694789383148,-0.719213107807,"(0.2370834255288542, 0.0, 0.0, 0.0, 0.0, 0.0, 0.0, 0.08368658761904708, 0.0, 0.0, 0.0, 0.0, 0.0, 0.0, 9.901976635330503e-05, 0.0, 0.0, 0.0, 0.0, 0.0, 0.0, 0.0, 0.0, 0.0, 0.0, 0.0, 0.0, 0.0, 0.0, 0.0, 0.0, 0.0, 0.0, 0.0, 0.0, 0.0)",0.265568021624,0.39814123394,-0.106587036928,-0.00192743472961,0.00712690877439,0.00738973521571,"(0.0, 0.0, 0.0, 0.0, 0.0, 0.0, 0.0, 0.0, 0.0, 0.0, 0.0, 0.0, 0.0, 0.0, 0.0, 0.0, 0.0, 0.0, 0.0, 0.0, 0.0, 0.0, 0.0, 0.0, 0.0, 0.0, 0.0, 0.0, 0.0, 0.0, 0.0, 0.0, 0.0, 0.0, 0.0, 0.0)"
1970/01/01/01:00:13.274000,54,13,252000000,map,map,0.823918797449,1.98624686723,-0.540803608015,0.000116790831119,-0.000495196061875,-0.694884469073,-0.719121309337,"(0.168519730042522, 0.0, 0.0, 0.0, 0.0, 0.0, 0.0, 0.02417715474604686, 0.0, 0.0, 0.0, 0.0, 0.0, 0.0, 9.900833489538781e-05, 0.0, 0.0, 0.0, 0.0, 0.0, 0.0, 0.0, 0.0, 0.0, 0.0, 0.0, 0.0, 0.0, 0.0, 0.0, 0.0, 0.0, 0.0, 0.0, 0.0, 0.0)",0.268122386591,0.398336404377,-0.104934909233,0.00191230427138,0.000301391222212,0.00601930976943,"(0.0, 0.0, 0.0, 0.0, 0.0, 0.0, 0.0, 0.0, 0.0, 0.0, 0.0, 0.0, 0.0, 0.0, 0.0, 0.0, 0.0, 0.0, 0.0, 0.0, 0.0, 0.0, 0.0, 0.0, 0.0, 0.0, 0.0, 0.0, 0.0, 0.0, 0.0, 0.0, 0.0, 0.0, 0.0, 0.0)"
1970/01/01/01:00:13.274000,55,13,271000000,map,map,0.833015443104,1.97703414118,-0.56340467284,6.25680667493e-05,-0.000512652739113,-0.694975743342,-0.719033069641,"(0.17872942342539663, 0.0, 0.0, 0.0, 0.0, 0.0, 0.0, 0.034204633253681956, 0.0, 0.0, 0.0, 0.0, 0.0, 0.0, 9.90197294677599e-05, 0.0, 0.0, 0.0, 0.0, 0.0, 0.0, 0.0, 0.0, 0.0, 0.0, 0.0, 0.0, 0.0, 0.0, 0.0, 0.0, 0.0, 0.0, 0.0, 0.0, 0.0)",0.267871963338,0.398494445961,-0.103561938408,0.00567044517275,0.00523405200987,0.0163963697135,"(0.0, 0.0, 0.0, 0.0, 0.0, 0.0, 0.0, 0.0, 0.0, 0.0, 0.0, 0.0, 0.0, 0.0, 0.0, 0.0, 0.0, 0.0, 0.0, 0.0, 0.0, 0.0, 0.0, 0.0, 0.0, 0.0, 0.0, 0.0, 0.0, 0.0, 0.0, 0.0, 0.0, 0.0, 0.0, 0.0)"
1970/01/01/01:00:13.314000,56,13,292000000,map,map,0.843915887456,1.96598434098,-0.556643030737,-1.83582658285e-05,-0.000526490385007,-0.695032973494,-0.718977693951,"(0.18899486114912376, 0.0, 0.0, 0.0, 0.0, 0.0, 0.0, 0.04425076035374678, 0.0, 0.0, 0.0, 0.0, 0.0, 0.0, 9.901983113271419e-05, 0.0, 0.0, 0.0, 0.0, 0.0, 0.0, 0.0, 0.0, 0.0, 0.0, 0.0, 0.0, 0.0, 0.0, 0.0, 0.0, 0.0, 0.0, 0.0, 0.0, 0.0)",0.267789571637,0.398652529135,-0.138395545924,-0.00177512003803,0.00372787849503,0.00756730637344,"(0.0, 0.0, 0.0, 0.0, 0.0, 0.0, 0.0, 0.0, 0.0, 0.0, 0.0, 0.0, 0.0, 0.0, 0.0, 0.0, 0.0, 0.0, 0.0, 0.0, 0.0, 0.0, 0.0, 0.0, 0.0, 0.0, 0.0, 0.0, 0.0, 0.0, 0.0, 0.0, 0.0, 0.0, 0.0, 0.0)"
1970/01/01/01:00:13.314000,57,13,312000000,map,map,0.851140625986,1.95863962476,-0.558010887632,3.72422353902e-05,-0.000629292928175,-0.695052819391,-0.718958522403,"(0.19918024116235208, 0.0, 0.0, 0.0, 0.0, 0.0, 0.0, 0.05428952159765704, 0.0, 0.0, 0.0, 0.0, 0.0, 0.0, 9.901965905164187e-05, 0.0, 0.0, 0.0, 0.0, 0.0, 0.0, 0.0, 0.0, 0.0, 0.0, 0.0, 0.0, 0.0, 0.0, 0.0, 0.0, 0.0, 0.0, 0.0, 0.0, 0.0)",0.267930347846,0.398787276221,-0.149709617372,-0.00971112183687,0.00603676169415,0.00374057309369,"(0.0, 0.0, 0.0, 0.0, 0.0, 0.0, 0.0, 0.0, 0.0, 0.0, 0.0, 0.0, 0.0, 0.0, 0.0, 0.0, 0.0, 0.0, 0.0, 0.0, 0.0, 0.0, 0.0, 0.0, 0.0, 0.0, 0.0, 0.0, 0.0, 0.0, 0.0, 0.0, 0.0, 0.0, 0.0, 0.0)"
1970/01/01/01:00:13.351000,58,13,333000000,map,map,0.861986374066,1.94764089721,-0.540380810824,6.30218656539e-05,-0.000567029273625,-0.695098255011,-0.718914688363,"(0.20947105867827978, 0.0, 0.0, 0.0, 0.0, 0.0, 0.0, 0.06435979342718127, 0.0, 0.0, 0.0, 0.0, 0.0, 0.0, 9.901984120167262e-05, 0.0, 0.0, 0.0, 0.0, 0.0, 0.0, 0.0, 0.0, 0.0, 0.0, 0.0, 0.0, 0.0, 0.0, 0.0, 0.0, 0.0, 0.0, 0.0, 0.0, 0.0)",0.268141877141,0.398914612218,-0.156763342847,0.00529643425104,-0.00666395467157,0.00778307296213,"(0.0, 0.0, 0.0, 0.0, 0.0, 0.0, 0.0, 0.0, 0.0, 0.0, 0.0, 0.0, 0.0, 0.0, 0.0, 0.0, 0.0, 0.0, 0.0, 0.0, 0.0, 0.0, 0.0, 0.0, 0.0, 0.0, 0.0, 0.0, 0.0, 0.0, 0.0, 0.0, 0.0, 0.0, 0.0, 0.0)"
1970/01/01/01:00:13.353000,59,13,351000000,map,map,0.869676458765,1.93987878551,-0.556633947007,6.96398057893e-05,-0.0004856517969,-0.695178571099,-0.718837069674,"(0.21968636641203212, 0.0, 0.0, 0.0, 0.0, 0.0, 0.0, 0.07441843294545898, 0.0, 0.0, 0.0, 0.0, 0.0, 0.0, 9.90196831453545e-05, 0.0, 0.0, 0.0, 0.0, 0.0, 0.0, 0.0, 0.0, 0.0, 0.0, 0.0, 0.0, 0.0, 0.0, 0.0, 0.0, 0.0, 0.0, 0.0, 0.0, 0.0)",0.268492041917,0.399012297119,-0.13037875451,0.00350597359028,-0.00902658096632,0.0144127052078,"(0.0, 0.0, 0.0, 0.0, 0.0, 0.0, 0.0, 0.0, 0.0, 0.0, 0.0, 0.0, 0.0, 0.0, 0.0, 0.0, 0.0, 0.0, 0.0, 0.0, 0.0, 0.0, 0.0, 0.0, 0.0, 0.0, 0.0, 0.0, 0.0, 0.0, 0.0, 0.0, 0.0, 0.0, 0.0, 0.0)"
1970/01/01/01:00:13.389000,60,13,371000000,map,map,0.879642324658,1.92980670528,-0.550874380152,3.62500763504e-05,-0.000457673327683,-0.695208424239,-0.718808143765,"(0.22997656154445542, 0.0, 0.0, 0.0, 0.0, 0.0, 0.0, 0.08450532905589715, 0.0, 0.0, 0.0, 0.0, 0.0, 0.0, 0.01010198665659103, 0.0, 0.0, 0.0, 0.0, 0.0, 0.0, 0.0, 0.0, 0.0, 0.0, 0.0, 0.0, 0.0, 0.0, 0.0, 0.0, 0.0, 0.0, 0.0, 0.0, 0.0)",0.268960638648,0.399111067407,-0.128725122934,0.00578399182374,0.000979661345696,0.00938388780622,"(0.0, 0.0, 0.0, 0.0, 0.0, 0.0, 0.0, 0.0, 0.0, 0.0, 0.0, 0.0, 0.0, 0.0, 0.0, 0.0, 0.0, 0.0, 0.0, 0.0, 0.0, 0.0, 0.0, 0.0, 0.0, 0.0, 0.0, 0.0, 0.0, 0.0, 0.0, 0.0, 0.0, 0.0, 0.0, 0.0)"
1970/01/01/01:00:13.427000,61,13,391000000,map,map,0.803557077085,1.88756564351,-0.536560095615,7.07811663192e-05,-0.000421187430661,-0.695213707083,-0.718803113802,"(0.1661308231741077, 0.0, 0.0, 0.0, 0.0, 0.0, 0.0, 0.02483615445729623, 0.0, 0.0, 0.0, 0.0, 0.0, 0.0, 0.00998640107329623, 0.0, 0.0, 0.0, 0.0, 0.0, 0.0, 0.0, 0.0, 0.0, 0.0, 0.0, 0.0, 0.0, 0.0, 0.0, 0.0, 0.0, 0.0, 0.0, 0.0, 0.0)",0.269566216709,0.399199960666,-0.113456981097,-0.00361418378488,-0.00297293270742,0.00563047435094,"(0.0, 0.0, 0.0, 0.0, 0.0, 0.0, 0.0, 0.0, 0.0, 0.0, 0.0, 0.0, 0.0, 0.0, 0.0, 0.0, 0.0, 0.0, 0.0, 0.0, 0.0, 0.0, 0.0, 0.0, 0.0, 0.0, 0.0, 0.0, 0.0, 0.0, 0.0, 0.0, 0.0, 0.0, 0.0, 0.0)"
1970/01/01/01:00:13.427000,62,13,413000000,map,map,0.810452403611,1.87809594184,-0.549503228517,7.54108268181e-05,-0.000391789252672,-0.695244953702,-0.718772794413,"(0.17627951019533225, 0.0, 0.0, 0.0, 0.0, 0.0, 0.0, 0.03462965130355518, 0.0, 0.0, 0.0, 0.0, 0.0, 0.0, 0.010100453360002669, 0.0, 0.0, 0.0, 0.0, 0.0, 0.0, 0.0, 0.0, 0.0, 0.0, 0.0, 0.0, 0.0, 0.0, 0.0, 0.0, 0.0, 0.0, 0.0, 0.0, 0.0)",0.266581302734,0.399287964993,-0.069058240121,0.000989913243876,-0.0020175331685,0.00978829819288,"(0.0, 0.0, 0.0, 0.0, 0.0, 0.0, 0.0, 0.0, 0.0, 0.0, 0.0, 0.0, 0.0, 0.0, 0.0, 0.0, 0.0, 0.0, 0.0, 0.0, 0.0, 0.0, 0.0, 0.0, 0.0, 0.0, 0.0, 0.0, 0.0, 0.0, 0.0, 0.0, 0.0, 0.0, 0.0, 0.0)"
1970/01/01/01:00:13.466000,63,13,431000000,map,map,0.818530074583,1.86985870101,-0.557935567923,3.07083008386e-05,-0.000398184985485,-0.695217632008,-0.718799188876,"(0.18646698957708052, 0.0, 0.0, 0.0, 0.0, 0.0, 0.0, 0.0446634322980293, 0.0, 0.0, 0.0, 0.0, 0.0, 0.0, 9.950509561439058e-05, 0.0, 0.0, 0.0, 0.0, 0.0, 0.0, 0.0, 0.0, 0.0, 0.0, 0.0, 0.0, 0.0, 0.0, 0.0, 0.0, 0.0, 0.0, 0.0, 0.0, 0.0)",0.26444247796,0.399352048143,-0.0563943898571,0.00174877965196,0.00362483965227,-0.00321816653933,"(0.0, 0.0, 0.0, 0.0, 0.0, 0.0, 0.0, 0.0, 0.0, 0.0, 0.0, 0.0, 0.0, 0.0, 0.0, 0.0, 0.0, 0.0, 0.0, 0.0, 0.0, 0.0, 0.0, 0.0, 0.0, 0.0, 0.0, 0.0, 0.0, 0.0, 0.0, 0.0, 0.0, 0.0, 0.0, 0.0)"
1970/01/01/01:00:13.466000,64,13,451000000,map,map,0.828397970506,1.85980987124,-0.538992946587,7.08373072385e-05,-0.000429026168257,-0.695240926044,-0.718776653483,"(0.19670828360063908, 0.0, 0.0, 0.0, 0.0, 0.0, 0.0, 0.05471633630830317, 0.0, 0.0, 0.0, 0.0, 0.0, 0.0, 0.010053012333717243, 0.0, 0.0, 0.0, 0.0, 0.0, 0.0, 0.0, 0.0, 0.0, 0.0, 0.0, 0.0, 0.0, 0.0, 0.0, 0.0, 0.0, 0.0, 0.0, 0.0, 0.0)",0.262411056767,0.399416843329,-0.0568383669796,-0.00215219939704,0.00234069485419,0.00835492160743,"(0.0, 0.0, 0.0, 0.0, 0.0, 0.0, 0.0, 0.0, 0.0, 0.0, 0.0, 0.0, 0.0, 0.0, 0.0, 0.0, 0.0, 0.0, 0.0, 0.0, 0.0, 0.0, 0.0, 0.0, 0.0, 0.0, 0.0, 0.0, 0.0, 0.0, 0.0, 0.0, 0.0, 0.0, 0.0, 0.0)"
1970/01/01/01:00:13.505000,65,13,471000000,map,map,0.836959855513,1.85119340267,-0.556455883799,0.00011038006497,-0.000456878937791,-0.695287387676,-0.718731793431,"(0.20692750278334027, 0.0, 0.0, 0.0, 0.0, 0.0, 0.0, 0.06477236811833977, 0.0, 0.0, 0.0, 0.0, 0.0, 0.0, 9.950398715955698e-05, 0.0, 0.0, 0.0, 0.0, 0.0, 0.0, 0.0, 0.0, 0.0, 0.0, 0.0, 0.0, 0.0, 0.0, 0.0, 0.0, 0.0, 0.0, 0.0, 0.0, 0.0)",0.260765939548,0.399475158996,-0.0237427001225,-0.00414161301914,-0.0039461223434,0.00991968803809,"(0.0, 0.0, 0.0, 0.0, 0.0, 0.0, 0.0, 0.0, 0.0, 0.0, 0.0, 0.0, 0.0, 0.0, 0.0, 0.0, 0.0, 0.0, 0.0, 0.0, 0.0, 0.0, 0.0, 0.0, 0.0, 0.0, 0.0, 0.0, 0.0, 0.0, 0.0, 0.0, 0.0, 0.0, 0.0, 0.0)"
1970/01/01/01:00:13.505000,66,13,491000000,map,map,0.849533155183,1.83852151805,-0.541831671786,3.690812695e-05,-0.000478750415093,-0.695297967852,-0.718721466136,"(0.21726900537998528, 0.0, 0.0, 0.0, 0.0, 0.0, 0.0, 0.07487256146682207, 0.0, 0.0, 0.0, 0.0, 0.0, 0.0, 0.010055110236781427, 0.0, 0.0, 0.0, 0.0, 0.0, 0.0, 0.0, 0.0, 0.0, 0.0, 0.0, 0.0, 0.0, 0.0, 0.0, 0.0, 0.0, 0.0, 0.0, 0.0, 0.0)",0.259417880606,0.399527643097,-0.0244764497563,0.000987008363728,0.00465429869897,0.0061374538445,"(0.0, 0.0, 0.0, 0.0, 0.0, 0.0, 0.0, 0.0, 0.0, 0.0, 0.0, 0.0, 0.0, 0.0, 0.0, 0.0, 0.0, 0.0, 0.0, 0.0, 0.0, 0.0, 0.0, 0.0, 0.0, 0.0, 0.0, 0.0, 0.0, 0.0, 0.0, 0.0, 0.0, 0.0, 0.0, 0.0)"
1970/01/01/01:00:13.542000,67,13,512000000,map,map,0.8553647122,1.83259181773,-0.548230592337,3.75941039526e-05,-0.000455586873466,-0.695321734724,-0.718698626496,"(0.22743506819721612, 0.0, 0.0, 0.0, 0.0, 0.0, 0.0, 0.08492625468440608, 0.0, 0.0, 0.0, 0.0, 0.0, 0.0, 9.950399509531932e-05, 0.0, 0.0, 0.0, 0.0, 0.0, 0.0, 0.0, 0.0, 0.0, 0.0, 0.0, 0.0, 0.0, 0.0, 0.0, 0.0, 0.0, 0.0, 0.0, 0.0, 0.0)",0.258453000102,0.399577240571,0.00133056607845,0.00204908961923,-0.00423269182671,0.00403117297135,"(0.0, 0.0, 0.0, 0.0, 0.0, 0.0, 0.0, 0.0, 0.0, 0.0, 0.0, 0.0, 0.0, 0.0, 0.0, 0.0, 0.0, 0.0, 0.0, 0.0, 0.0, 0.0, 0.0, 0.0, 0.0, 0.0, 0.0, 0.0, 0.0, 0.0, 0.0, 0.0, 0.0, 0.0, 0.0, 0.0)"
1970/01/01/01:00:13.542000,68,13,531000000,map,map,0.867452231239,1.8203143071,-0.536170910774,5.14478430285e-05,-0.000473748028692,-0.695299620799,-0.718719897483,"(0.23779532784038498, 0.0, 0.0, 0.0, 0.0, 0.0, 0.0, 0.0950524562359268, 0.0, 0.0, 0.0, 0.0, 0.0, 0.0, 0.010054888398240515, 0.0, 0.0, 0.0, 0.0, 0.0, 0.0, 0.0, 0.0, 0.0, 0.0, 0.0, 0.0, 0.0, 0.0, 0.0, 0.0, 0.0, 0.0, 0.0, 0.0, 0.0)",0.257686260326,0.399617402717,0.010458655621,-0.00308653507516,-0.000802625173749,-0.00149137115911,"(0.0, 0.0, 0.0, 0.0, 0.0, 0.0, 0.0, 0.0, 0.0, 0.0, 0.0, 0.0, 0.0, 0.0, 0.0, 0.0, 0.0, 0.0, 0.0, 0.0, 0.0, 0.0, 0.0, 0.0, 0.0, 0.0, 0.0, 0.0, 0.0, 0.0, 0.0, 0.0, 0.0, 0.0, 0.0, 0.0)"
1970/01/01/01:00:13.582000,69,13,551000000,map,map,0.798496681988,1.84494009023,-0.533605947414,0.000118272967852,-0.000482918816612,-0.695325061691,-0.718695299529,"(0.1820457824599528, 0.0, 0.0, 0.0, 0.0, 0.0, 0.0, 0.03421572959218184, 0.0, 0.0, 0.0, 0.0, 0.0, 0.0, 9.950153862719982e-05, 0.0, 0.0, 0.0, 0.0, 0.0, 0.0, 0.0, 0.0, 0.0, 0.0, 0.0, 0.0, 0.0, 0.0, 0.0, 0.0, 0.0, 0.0, 0.0, 0.0, 0.0)",0.257242916283,0.399655662445,0.0382988876998,-0.00227796422692,-0.0068456740755,0.00690454076046,"(0.0, 0.0, 0.0, 0.0, 0.0, 0.0, 0.0, 0.0, 0.0, 0.0, 0.0, 0.0, 0.0, 0.0, 0.0, 0.0, 0.0, 0.0, 0.0, 0.0, 0.0, 0.0, 0.0, 0.0, 0.0, 0.0, 0.0, 0.0, 0.0, 0.0, 0.0, 0.0, 0.0, 0.0, 0.0, 0.0)"
1970/01/01/01:00:13.582000,70,13,576000000,map,map,0.807008419092,1.83627319921,-0.546660702121,0.000128259507202,-0.000423668167822,-0.695315720895,-0.718704387443,"(0.19224714425911543, 0.0, 0.0, 0.0, 0.0, 0.0, 0.0, 0.04425229093649402, 0.0, 0.0, 0.0, 0.0, 0.0, 0.0, 9.901980863407728e-05, 0.0, 0.0, 0.0, 0.0, 0.0, 0.0, 0.0, 0.0, 0.0, 0.0, 0.0, 0.0, 0.0, 0.0, 0.0, 0.0, 0.0, 0.0, 0.0, 0.0, 0.0)",0.253038690513,0.39969870464,0.0710470161268,0.00310687897443,-0.00440006895701,-0.000457591606071,"(0.0, 0.0, 0.0, 0.0, 0.0, 0.0, 0.0, 0.0, 0.0, 0.0, 0.0, 0.0, 0.0, 0.0, 0.0, 0.0, 0.0, 0.0, 0.0, 0.0, 0.0, 0.0, 0.0, 0.0, 0.0, 0.0, 0.0, 0.0, 0.0, 0.0, 0.0, 0.0, 0.0, 0.0, 0.0, 0.0)"
1970/01/01/01:00:13.623000,71,13,591000000,map,map,0.818130760961,1.82488796649,-0.527593071995,8.34688082871e-05,-0.00043479658219,-0.695310111413,-0.718709828338,"(0.2025279962497104, 0.0, 0.0, 0.0, 0.0, 0.0, 0.0, 0.05431562463921222, 0.0, 0.0, 0.0, 0.0, 0.0, 0.0, 9.901994758287157e-05, 0.0, 0.0, 0.0, 0.0, 0.0, 0.0, 0.0, 0.0, 0.0, 0.0, 0.0, 0.0, 0.0, 0.0, 0.0, 0.0, 0.0, 0.0, 0.0, 0.0, 0.0)",0.250893891909,0.399721301792,0.0682683902942,0.00118672913644,0.00116426411937,0.00178729106623,"(0.0, 0.0, 0.0, 0.0, 0.0, 0.0, 0.0, 0.0, 0.0, 0.0, 0.0, 0.0, 0.0, 0.0, 0.0, 0.0, 0.0, 0.0, 0.0, 0.0, 0.0, 0.0, 0.0, 0.0, 0.0, 0.0, 0.0, 0.0, 0.0, 0.0, 0.0, 0.0, 0.0, 0.0, 0.0, 0.0)"
1970/01/01/01:00:13.623000,72,13,611000000,map,map,0.824328938885,1.81850515829,-0.54816546471,1.97561088649e-05,-0.00042442150158,-0.695260947114,-0.718757306763,"(0.21269320984128826, 0.0, 0.0, 0.0, 0.0, 0.0, 0.0, 0.06435868940307968, 0.0, 0.0, 0.0, 0.0, 0.0, 0.0, 9.9019654328631e-05, 0.0, 0.0, 0.0, 0.0, 0.0, 0.0, 0.0, 0.0, 0.0, 0.0, 0.0, 0.0, 0.0, 0.0, 0.0, 0.0, 0.0, 0.0, 0.0, 0.0, 0.0)",0.248541710758,0.399749171613,0.0951224891589,0.00601986459623,0.00377488788585,-0.00402092033157,"(0.0, 0.0, 0.0, 0.0, 0.0, 0.0, 0.0, 0.0, 0.0, 0.0, 0.0, 0.0, 0.0, 0.0, 0.0, 0.0, 0.0, 0.0, 0.0, 0.0, 0.0, 0.0, 0.0, 0.0, 0.0, 0.0, 0.0, 0.0, 0.0, 0.0, 0.0, 0.0, 0.0, 0.0, 0.0, 0.0)"
1970/01/01/01:00:13.665000,73,13,633000000,map,map,0.833630033525,1.80890992761,-0.548633129243,-6.50477543554e-05,-0.000458546784076,-0.695255151923,-0.718763017661,"(0.22295180516286758, 0.0, 0.0, 0.0, 0.0, 0.0, 0.0, 0.07443360569039252, 0.0, 0.0, 0.0, 0.0, 0.0, 0.0, 9.90198277334154e-05, 0.0, 0.0, 0.0, 0.0, 0.0, 0.0, 0.0, 0.0, 0.0, 0.0, 0.0, 0.0, 0.0, 0.0, 0.0, 0.0, 0.0, 0.0, 0.0, 0.0, 0.0)",0.246264984623,0.399776762735,0.0785348685369,0.00134393116498,0.0103673011772,0.000847392041576,"(0.0, 0.0, 0.0, 0.0, 0.0, 0.0, 0.0, 0.0, 0.0, 0.0, 0.0, 0.0, 0.0, 0.0, 0.0, 0.0, 0.0, 0.0, 0.0, 0.0, 0.0, 0.0, 0.0, 0.0, 0.0, 0.0, 0.0, 0.0, 0.0, 0.0, 0.0, 0.0, 0.0, 0.0, 0.0, 0.0)"
1970/01/01/01:00:13.665000,74,13,651000000,map,map,0.842516380691,1.79971199907,-0.534613096217,-5.31035062395e-05,-0.000430049031935,-0.695272010662,-0.718746664684,"(0.23321018023655463, 0.0, 0.0, 0.0, 0.0, 0.0, 0.0, 0.08451653984770617, 0.0, 0.0, 0.0, 0.0, 0.0, 0.0, 9.901980444384897e-05, 0.0, 0.0, 0.0, 0.0, 0.0, 0.0, 0.0, 0.0, 0.0, 0.0, 0.0, 0.0, 0.0, 0.0, 0.0, 0.0, 0.0, 0.0, 0.0, 0.0, 0.0)",0.244745108418,0.399796854089,0.064108411708,0.00323193022434,-0.00111738679066,0.00764146906029,"(0.0, 0.0, 0.0, 0.0, 0.0, 0.0, 0.0, 0.0, 0.0, 0.0, 0.0, 0.0, 0.0, 0.0, 0.0, 0.0, 0.0, 0.0, 0.0, 0.0, 0.0, 0.0, 0.0, 0.0, 0.0, 0.0, 0.0, 0.0, 0.0, 0.0, 0.0, 0.0, 0.0, 0.0, 0.0, 0.0)"
1970/01/01/01:00:13.693000,75,13,671000000,map,map,0.850967084166,1.79095905191,-0.544800302148,-1.44612875434e-05,-0.000366882862716,-0.695247425878,-0.71877040653,"(0.24346663928941675, 0.0, 0.0, 0.0, 0.0, 0.0, 0.0, 0.09460587051714368, 0.0, 0.0, 0.0, 0.0, 0.0, 0.0, 9.901977958960427e-05, 0.0, 0.0, 0.0, 0.0, 0.0, 0.0, 0.0, 0.0, 0.0, 0.0, 0.0, 0.0, 0.0, 0.0, 0.0, 0.0, 0.0, 0.0, 0.0, 0.0, 0.0)",0.243386487798,0.39981716868,0.0719749822506,0.000835726283312,-0.00819578660343,-0.00420915157501,"(0.0, 0.0, 0.0, 0.0, 0.0, 0.0, 0.0, 0.0, 0.0, 0.0, 0.0, 0.0, 0.0, 0.0, 0.0, 0.0, 0.0, 0.0, 0.0, 0.0, 0.0, 0.0, 0.0, 0.0, 0.0, 0.0, 0.0, 0.0, 0.0, 0.0, 0.0, 0.0, 0.0, 0.0, 0.0, 0.0)"
1970/01/01/01:00:13.693000,76,13,691000000,map,map,0.896177706577,1.7956683701,-0.543666641321,2.17975351011e-05,-0.000387919922966,-0.695249585904,-0.718768330798,"(0.20265827897909441, 0.0, 0.0, 0.0, 0.0, 0.0, 0.0, 0.03865570147632419, 0.0, 0.0, 0.0, 0.0, 0.0, 0.0, 9.901990616529536e-05, 0.0, 0.0, 0.0, 0.0, 0.0, 0.0, 0.0, 0.0, 0.0, 0.0, 0.0, 0.0, 0.0, 0.0, 0.0, 0.0, 0.0, 0.0, 0.0, 0.0, 0.0)",0.242305961292,0.399835451812,0.0591526150759,-0.00523017787539,-0.0021052908619,-0.0020677396386,"(0.0, 0.0, 0.0, 0.0, 0.0, 0.0, 0.0, 0.0, 0.0, 0.0, 0.0, 0.0, 0.0, 0.0, 0.0, 0.0, 0.0, 0.0, 0.0, 0.0, 0.0, 0.0, 0.0, 0.0, 0.0, 0.0, 0.0, 0.0, 0.0, 0.0, 0.0, 0.0, 0.0, 0.0, 0.0, 0.0)"
1970/01/01/01:00:13.713000,77,13,711000000,map,map,0.903718062955,1.7878188634,-0.557988720832,6.3606395933e-05,-0.000330604890831,-0.695247843396,-0.7187701576,"(0.21285945612393564, 0.0, 0.0, 0.0, 0.0, 0.0, 0.0, 0.04869668663775307, 0.0, 0.0, 0.0, 0.0, 0.0, 0.0, 9.90197333348404e-05, 0.0, 0.0, 0.0, 0.0, 0.0, 0.0, 0.0, 0.0, 0.0, 0.0, 0.0, 0.0, 0.0, 0.0, 0.0, 0.0, 0.0, 0.0, 0.0, 0.0, 0.0)",0.242947203142,0.399851906631,0.048384989973,0.00322362489109,-0.0078151052429,0.000981525584316,"(0.0, 0.0, 0.0, 0.0, 0.0, 0.0, 0.0, 0.0, 0.0, 0.0, 0.0, 0.0, 0.0, 0.0, 0.0, 0.0, 0.0, 0.0, 0.0, 0.0, 0.0, 0.0, 0.0, 0.0, 0.0, 0.0, 0.0, 0.0, 0.0, 0.0, 0.0, 0.0, 0.0, 0.0, 0.0, 0.0)"
1970/01/01/01:00:13.737000,78,13,734000000,map,map,0.912127529535,1.77907542146,-0.532439926899,8.03206156872e-05,-0.000368712155302,-0.695278675132,-0.718740253094,"(0.22309463752546965, 0.0, 0.0, 0.0, 0.0, 0.0, 0.0, 0.05875240261985236, 0.0, 0.0, 0.0, 0.0, 0.0, 0.0, 9.901978914219675e-05, 0.0, 0.0, 0.0, 0.0, 0.0, 0.0, 0.0, 0.0, 0.0, 0.0, 0.0, 0.0, 0.0, 0.0, 0.0, 0.0, 0.0, 0.0, 0.0, 0.0, 0.0)",0.243734823367,0.399868937368,0.00876060557191,-0.00159595816386,0.00485651561733,0.00858354641219,"(0.0, 0.0, 0.0, 0.0, 0.0, 0.0, 0.0, 0.0, 0.0, 0.0, 0.0, 0.0, 0.0, 0.0, 0.0, 0.0, 0.0, 0.0, 0.0, 0.0, 0.0, 0.0, 0.0, 0.0, 0.0, 0.0, 0.0, 0.0, 0.0, 0.0, 0.0, 0.0, 0.0, 0.0, 0.0, 0.0)"
1970/01/01/01:00:13.757000,79,13,753000000,map,map,0.922672718361,1.76805329259,-0.531744829466,6.0684650036e-05,-0.000400699617109,-0.695278472301,-0.718740455926,"(0.23340741030798445, 0.0, 0.0, 0.0, 0.0, 0.0, 0.0, 0.06883783751043397, 0.0, 0.0, 0.0, 0.0, 0.0, 0.0, 9.901995776343434e-05, 0.0, 0.0, 0.0, 0.0, 0.0, 0.0, 0.0, 0.0, 0.0, 0.0, 0.0, 0.0, 0.0, 0.0, 0.0, 0.0, 0.0, 0.0, 0.0, 0.0, 0.0)",0.244417866114,0.399881388318,0.0222462885023,0.00040109816251,0.0031627525238,0.00183261530889,"(0.0, 0.0, 0.0, 0.0, 0.0, 0.0, 0.0, 0.0, 0.0, 0.0, 0.0, 0.0, 0.0, 0.0, 0.0, 0.0, 0.0, 0.0, 0.0, 0.0, 0.0, 0.0, 0.0, 0.0, 0.0, 0.0, 0.0, 0.0, 0.0, 0.0, 0.0, 0.0, 0.0, 0.0, 0.0, 0.0)"
1970/01/01/01:00:13.781000,80,13,771000000,map,map,0.93057978108,1.7597691935,-0.541581706404,0.000113546377833,-0.000368702554958,-0.695283598411,-0.718735498403,"(0.2436535579893436, 0.0, 0.0, 0.0, 0.0, 0.0, 0.0, 0.07891300947028554, 0.0, 0.0, 0.0, 0.0, 0.0, 0.0, 9.901976919297664e-05, 0.0, 0.0, 0.0, 0.0, 0.0, 0.0, 0.0, 0.0, 0.0, 0.0, 0.0, 0.0, 0.0, 0.0, 0.0, 0.0, 0.0, 0.0, 0.0, 0.0, 0.0)",0.245216397575,0.39989206337,0.0333877446108,-0.00176279691777,-0.0028967442389,0.00382957808523,"(0.0, 0.0, 0.0, 0.0, 0.0, 0.0, 0.0, 0.0, 0.0, 0.0, 0.0, 0.0, 0.0, 0.0, 0.0, 0.0, 0.0, 0.0, 0.0, 0.0, 0.0, 0.0, 0.0, 0.0, 0.0, 0.0, 0.0, 0.0, 0.0, 0.0, 0.0, 0.0, 0.0, 0.0, 0.0, 0.0)"
1970/01/01/01:00:13.803000,81,13,791000000,map,map,0.941561339734,1.74827881647,-0.567822329297,8.80158934786e-05,-0.000344363439357,-0.695302199659,-0.718717487211,"(0.2540120030382507, 0.0, 0.0, 0.0, 0.0, 0.0, 0.0, 0.08903331664498287, 0.0, 0.0, 0.0, 0.0, 0.0, 0.0, 9.902000672187367e-05, 0.0, 0.0, 0.0, 0.0, 0.0, 0.0, 0.0, 0.0, 0.0, 0.0, 0.0, 0.0, 0.0, 0.0, 0.0, 0.0, 0.0, 0.0, 0.0, 0.0, 0.0)",0.246164102518,0.399902857033,0.0505703351572,-0.000447575300334,0.00354841021922,0.000688574784143,"(0.0, 0.0, 0.0, 0.0, 0.0, 0.0, 0.0, 0.0, 0.0, 0.0, 0.0, 0.0, 0.0, 0.0, 0.0, 0.0, 0.0, 0.0, 0.0, 0.0, 0.0, 0.0, 0.0, 0.0, 0.0, 0.0, 0.0, 0.0, 0.0, 0.0, 0.0, 0.0, 0.0, 0.0, 0.0, 0.0)"
1970/01/01/01:00:13.836000,82,13,811000000,map,map,0.94817369301,1.74139326791,-0.564282243401,0.000129398501088,-0.000434514889777,-0.695271835489,-0.718746839856,"(0.2642363678806832, 0.0, 0.0, 0.0, 0.0, 0.0, 0.0, 0.0991144239196748, 0.0, 0.0, 0.0, 0.0, 0.0, 0.0, 0.010100923254043185, 0.0, 0.0, 0.0, 0.0, 0.0, 0.0, 0.0, 0.0, 0.0, 0.0, 0.0, 0.0, 0.0, 0.0, 0.0, 0.0, 0.0, 0.0, 0.0, 0.0, 0.0)",0.247260126929,0.399912571329,-0.00462455835867,-0.00494254429462,-0.00335878474759,-0.00261987637249,"(0.0, 0.0, 0.0, 0.0, 0.0, 0.0, 0.0, 0.0, 0.0, 0.0, 0.0, 0.0, 0.0, 0.0, 0.0, 0.0, 0.0, 0.0, 0.0, 0.0, 0.0, 0.0, 0.0, 0.0, 0.0, 0.0, 0.0, 0.0, 0.0, 0.0, 0.0, 0.0, 0.0, 0.0, 0.0, 0.0)"
1970/01/01/01:00:13.874000,83,13,835000000,map,map,0.863660650047,1.84244209267,-0.554965590208,0.00019486254818,-0.000377198108383,-0.695286999135,-0.718732097679,"(0.2190776507546085, 0.0, 0.0, 0.0, 0.0, 0.0, 0.0, 0.03030337699595125, 0.0, 0.0, 0.0, 0.0, 0.0, 0.0, 9.901275701256499e-05, 0.0, 0.0, 0.0, 0.0, 0.0, 0.0, 0.0, 0.0, 0.0, 0.0, 0.0, 0.0, 0.0, 0.0, 0.0, 0.0, 0.0, 0.0, 0.0, 0.0, 0.0)",0.248472209471,0.399922625627,-0.0505572252738,0.00505192829826,-0.00268831229742,0.00809386039011,"(0.0, 0.0, 0.0, 0.0, 0.0, 0.0, 0.0, 0.0, 0.0, 0.0, 0.0, 0.0, 0.0, 0.0, 0.0, 0.0, 0.0, 0.0, 0.0, 0.0, 0.0, 0.0, 0.0, 0.0, 0.0, 0.0, 0.0, 0.0, 0.0, 0.0, 0.0, 0.0, 0.0, 0.0, 0.0, 0.0)"
1970/01/01/01:00:13.874000,84,13,851000000,map,map,0.872884733275,1.83286749008,-0.550315024784,0.000141986373563,-0.000358537169325,-0.695308966863,-0.718710888595,"(0.22934912670214813, 0.0, 0.0, 0.0, 0.0, 0.0, 0.0, 0.040346126132798, 0.0, 0.0, 0.0, 0.0, 0.0, 0.0, 0.010102777458301763, 0.0, 0.0, 0.0, 0.0, 0.0, 0.0, 0.0, 0.0, 0.0, 0.0, 0.0, 0.0, 0.0, 0.0, 0.0, 0.0, 0.0, 0.0, 0.0, 0.0, 0.0)",0.246197260913,0.399929202448,-0.062837327056,0.00197721010689,0.00219684276434,0.000817864651525,"(0.0, 0.0, 0.0, 0.0, 0.0, 0.0, 0.0, 0.0, 0.0, 0.0, 0.0, 0.0, 0.0, 0.0, 0.0, 0.0, 0.0, 0.0, 0.0, 0.0, 0.0, 0.0, 0.0, 0.0, 0.0, 0.0, 0.0, 0.0, 0.0, 0.0, 0.0, 0.0, 0.0, 0.0, 0.0, 0.0)"
1970/01/01/01:00:13.874000,85,13,871000000,map,map,0.881199471786,1.82417620162,-0.54104653759,0.000117966044952,-0.000296582248672,-0.695350324775,-0.718671047969,"(0.23960671930148567, 0.0, 0.0, 0.0, 0.0, 0.0, 0.0, 0.050396270529262106, 0.0, 0.0, 0.0, 0.0, 0.0, 0.0, 0.010102149303564647, 0.0, 0.0, 0.0, 0.0, 0.0, 0.0, 0.0, 0.0, 0.0, 0.0, 0.0, 0.0, 0.0, 0.0, 0.0, 0.0, 0.0, 0.0, 0.0, 0.0, 0.0)",0.243949533525,0.399936282203,-0.0662477956589,0.00817484372523,-0.00470278736121,0.00300912212353,"(0.0, 0.0, 0.0, 0.0, 0.0, 0.0, 0.0, 0.0, 0.0, 0.0, 0.0, 0.0, 0.0, 0.0, 0.0, 0.0, 0.0, 0.0, 0.0, 0.0, 0.0, 0.0, 0.0, 0.0, 0.0, 0.0, 0.0, 0.0, 0.0, 0.0, 0.0, 0.0, 0.0, 0.0, 0.0, 0.0)"
1970/01/01/01:00:13.913000,86,13,891000000,map,map,0.891302849594,1.81371409429,-0.552148744554,0.000157604909023,-0.000334631468618,-0.695381833495,-0.718640382185,"(0.24993387804299375, 0.0, 0.0, 0.0, 0.0, 0.0, 0.0, 0.06047170704248246, 0.0, 0.0, 0.0, 0.0, 0.0, 0.0, 0.01010363360683029, 0.0, 0.0, 0.0, 0.0, 0.0, 0.0, 0.0, 0.0, 0.0, 0.0, 0.0, 0.0, 0.0, 0.0, 0.0, 0.0, 0.0, 0.0, 0.0, 0.0, 0.0)",0.242062210608,0.399942653983,-0.0514341143168,-0.0143018639484,-0.00330350155148,0.00351370398681,"(0.0, 0.0, 0.0, 0.0, 0.0, 0.0, 0.0, 0.0, 0.0, 0.0, 0.0, 0.0, 0.0, 0.0, 0.0, 0.0, 0.0, 0.0, 0.0, 0.0, 0.0, 0.0, 0.0, 0.0, 0.0, 0.0, 0.0, 0.0, 0.0, 0.0, 0.0, 0.0, 0.0, 0.0, 0.0, 0.0)"
1970/01/01/01:00:13.913000,87,13,912000000,map,map,0.898784356516,1.80593716178,-0.557333658758,0.000145121189477,-0.000342502865906,-0.695417170994,-0.718606224799,"(0.26018654077834447, 0.0, 0.0, 0.0, 0.0, 0.0, 0.0, 0.07053787727091407, 0.0, 0.0, 0.0, 0.0, 0.0, 0.0, 9.950526665957241e-05, 0.0, 0.0, 0.0, 0.0, 0.0, 0.0, 0.0, 0.0, 0.0, 0.0, 0.0, 0.0, 0.0, 0.0, 0.0, 0.0, 0.0, 0.0, 0.0, 0.0, 0.0)",0.24049811471,0.399948675315,-0.0561008113287,0.000400789921474,0.00397320412922,0.00192986163952,"(0.0, 0.0, 0.0, 0.0, 0.0, 0.0, 0.0, 0.0, 0.0, 0.0, 0.0, 0.0, 0.0, 0.0, 0.0, 0.0, 0.0, 0.0, 0.0, 0.0, 0.0, 0.0, 0.0, 0.0, 0.0, 0.0, 0.0, 0.0, 0.0, 0.0, 0.0, 0.0, 0.0, 0.0, 0.0, 0.0)"
1970/01/01/01:00:13.951000,88,13,932000000,map,map,0.907555063066,1.7967980925,-0.535837240951,0.000186605295259,-0.000365908690173,-0.695466179876,-0.718558817497,"(0.27049568068824553, 0.0, 0.0, 0.0, 0.0, 0.0, 0.0, 0.08062713872910139, 0.0, 0.0, 0.0, 0.0, 0.0, 0.0, 9.901990423665381e-05, 0.0, 0.0, 0.0, 0.0, 0.0, 0.0, 0.0, 0.0, 0.0, 0.0, 0.0, 0.0, 0.0, 0.0, 0.0, 0.0, 0.0, 0.0, 0.0, 0.0, 0.0)",0.23926083718,0.399953807783,-0.0664532749435,-0.00890771715698,-0.00574214289835,-0.000521890782454,"(0.0, 0.0, 0.0, 0.0, 0.0, 0.0, 0.0, 0.0, 0.0, 0.0, 0.0, 0.0, 0.0, 0.0, 0.0, 0.0, 0.0, 0.0, 0.0, 0.0, 0.0, 0.0, 0.0, 0.0, 0.0, 0.0, 0.0, 0.0, 0.0, 0.0, 0.0, 0.0, 0.0, 0.0, 0.0, 0.0)"
