time,.header.seq,.header.stamp.secs,.header.stamp.nsecs,.header.frame_id,.position,.velocity,.acceleration
1970/01/01/01:00:00.129000,1,0,128000000,,-0.548633396626,0.0471219345927,-0.000134875444928
1970/01/01/01:00:00.147000,2,0,147000000,,-0.547738134861,0.0471185334027,-0.000223236726015
1970/01/01/01:00:00.167000,3,0,166000000,,-0.546842932701,0.0471134521067,-0.000311590061756
1970/01/01/01:00:00.186000,4,0,186000000,,-0.545900702477,0.0471062883735,-0.000404581543989
1970/01/01/01:00:00.207000,5,0,206000000,,-0.54495871067,0.0470972694457,-0.00049755704822
1970/01/01/01:00:00.227000,6,0,226000000,,-0.544016838074,0.0470863878727,-0.000590512878262
1970/01/01/01:00:00.247000,7,0,246000000,,-0.5430752635,0.0470736473799,-0.000683445425238
1970/01/01/01:00:00.267000,8,0,267000000,,-0.542086839676,0.0470582693815,-0.00078099546954
1970/01/01/01:00:00.286000,9,0,286000000,,-0.541192889214,0.0470425933599,-0.000869225885253
1970/01/01/01:00:00.306000,10,0,306000000,,-0.54025220871,0.0470242798328,-0.000962066464126
1970/01/01/01:00:00.327000,11,0,326000000,,-0.539311945438,0.0470041111112,-0.0010548690334
1970/01/01/01:00:00.347000,12,0,346000000,,-0.5383720994,0.0469820871949,-0.0011476300424
1970/01/01/01:00:00.366000,13,0,366000000,,-0.537432670593,0.0469582080841,-0.00124034564942
1970/01/01/01:00:00.387000,14,0,387000000,,-0.536493778229,0.0469324737787,-0.00133301236201
1970/01/01/01:00:00.407000,15,0,407000000,,-0.535555362701,0.0469048880041,-0.00142562645487
1970/01/01/01:00:00.427000,16,0,427000000,,-0.53457069397,0.0468739271164,-0.00152281054761
1970/01/01/01:00:00.446000,17,0,446000000,,-0.533680379391,0.0468441583216,-0.0016106821131
1970/01/01/01:00:00.467000,18,0,466000000,,-0.532743811607,0.0468110218644,-0.00170311634429
1970/01/01/01:00:00.487000,19,0,486000000,,-0.53180795908,0.0467760339379,-0.00179548340384
1970/01/01/01:00:00.506000,20,0,506000000,,-0.530872821808,0.0467392019928,-0.00188777956646
1970/01/01/01:00:00.526000,21,0,526000000,,-0.529938399792,0.0467005260289,-0.00198000110686
1970/01/01/01:00:00.547000,22,0,546000000,,-0.529004812241,0.046660002321,-0.00207214453258
1970/01/01/01:00:00.567000,23,0,566000000,,-0.52807199955,0.0466176383197,-0.00216420623474
1970/01/01/01:00:00.586000,24,0,586000000,,-0.527140080929,0.046573434025,-0.00225618248805
1970/01/01/01:00:00.607000,25,0,606000000,,-0.526209056377,0.0465273931623,-0.00234806956723
1970/01/01/01:00:00.627000,26,0,627000000,,-0.525232553482,0.0464770719409,-0.00244445120916
1970/01/01/01:00:00.647000,27,0,647000000,,-0.524349927902,0.046429798007,-0.00253156223334
1970/01/01/01:00:00.667000,28,0,667000000,,-0.523375451565,0.0463756248355,-0.00262773758732
1970/01/01/01:00:00.687000,29,0,687000000,,-0.522494792938,0.0463248714805,-0.00271465489641
1970/01/01/01:00:00.707000,30,0,707000000,,-0.521522581577,0.0462668575346,-0.00281060882844
1970/01/01/01:00:00.727000,31,0,726000000,,-0.520644009113,0.0462126322091,-0.00289731891826
1970/01/01/01:00:00.747000,32,0,747000000,,-0.519720375538,0.0461537726223,-0.00298848142847
1970/01/01/01:00:00.766000,33,0,766000000,,-0.518797874451,0.046093095094,-0.00307952566072
1970/01/01/01:00:00.787000,34,0,786000000,,-0.517876625061,0.0460305921733,-0.00317044835538
1970/01/01/01:00:00.806000,35,0,806000000,,-0.516956686974,0.0459662750363,-0.00326124601997
1970/01/01/01:00:00.827000,36,0,827000000,,-0.515992105007,0.0458967909217,-0.0033564446494
1970/01/01/01:00:00.848000,37,0,847000000,,-0.515074849129,0.045828755945,-0.00344697455876
1970/01/01/01:00:00.866000,38,0,866000000,,-0.514204740524,0.0457624457777,-0.00353285181336
1970/01/01/01:00:00.887000,39,0,886000000,,-0.513290166855,0.0456908866763,-0.00362311303616
1970/01/01/01:00:00.907000,40,0,906000000,,-0.512377083302,0.0456175245345,-0.0037132310681
1970/01/01/01:00:00.927000,41,0,927000000,,-0.511465489864,0.0455423593521,-0.00380320264958
1970/01/01/01:00:00.947000,42,0,946000000,,-0.510555446148,0.0454653985798,-0.00389302382246
1970/01/01/01:00:00.977000,43,0,966000000,,-0.509646892548,0.0453866384923,-0.00398269155994
1970/01/01/01:00:00.987000,44,0,986000000,,-0.508739948273,0.0453060902655,-0.00407220190391
1970/01/01/01:00:01.007000,45,1,7000000,,-0.507789433002,0.0452195890248,-0.00416601495817
1970/01/01/01:00:01.027000,46,1,26000000,,-0.506931006908,0.0451396293938,-0.00425073690712
1970/01/01/01:00:01.047000,47,1,46000000,,-0.506029069424,0.0450537241995,-0.00433975458145
1970/01/01/01:00:01.068000,48,1,67000000,,-0.505083918571,0.0449616089463,-0.00443303864449
1970/01/01/01:00:01.087000,49,1,86000000,,-0.504230439663,0.0448765829206,-0.00451727211475
1970/01/01/01:00:01.107000,50,1,107000000,,-0.503333866596,0.0447853505611,-0.00460576545447
1970/01/01/01:00:01.127000,51,1,126000000,,-0.502439081669,0.0446923524141,-0.00469407672063
1970/01/01/01:00:01.147000,52,1,146000000,,-0.501546144485,0.0445975884795,-0.00478220265359
1970/01/01/01:00:01.167000,53,1,166000000,,-0.500655174255,0.0445010662079,-0.00487013952807
1970/01/01/01:00:01.188000,54,1,186000000,,-0.499766141176,0.0444027855992,-0.00495788455009
1970/01/01/01:00:01.207000,55,1,206000000,,-0.49887907505,0.0443027503788,-0.00504543352872
1970/01/01/01:00:01.227000,56,1,226000000,,-0.497994035482,0.0442009679973,-0.00513278366998
1970/01/01/01:00:01.247000,57,1,246000000,,-0.497111052275,0.0440974421799,-0.00521993078291
1970/01/01/01:00:01.268000,58,1,267000000,,-0.49623015523,0.0439921729267,-0.00530687207356
1970/01/01/01:00:01.286000,59,1,286000000,,-0.495351374149,0.0438851676881,-0.00539360381663
1970/01/01/01:00:01.307000,60,1,306000000,,-0.494474738836,0.0437764301896,-0.00548012275249
1970/01/01/01:00:01.327000,61,1,326000000,,-0.493600308895,0.0436659641564,-0.00556642515585
1970/01/01/01:00:01.346000,62,1,346000000,,-0.492728114128,0.0435537733138,-0.00565250776708
1970/01/01/01:00:01.367000,63,1,366000000,,-0.491858184338,0.0434398651123,-0.00573836732656
1970/01/01/01:00:01.388000,64,1,387000000,,-0.490947216749,0.043318413198,-0.00582827627659
1970/01/01/01:00:01.407000,65,1,406000000,,-0.490125209093,0.0432069078088,-0.00590940378606
1970/01/01/01:00:01.426000,66,1,426000000,,-0.489262282848,0.0430878661573,-0.00599457323551
1970/01/01/01:00:01.447000,67,1,447000000,,-0.488401710987,0.0429671257734,-0.00607950659469
1970/01/01/01:00:01.467000,68,1,467000000,,-0.487543612719,0.0428446866572,-0.00616419967264
1970/01/01/01:00:01.486000,69,1,486000000,,-0.486687958241,0.0427205599844,-0.0062486496754
1970/01/01/01:00:01.507000,70,1,507000000,,-0.485834777355,0.0425947420299,-0.00633285241202
1970/01/01/01:00:01.527000,71,1,527000000,,-0.48494169116,0.0424608290195,-0.00642099650577
1970/01/01/01:00:01.548000,72,1,546000000,,-0.484136104584,0.0423380732536,-0.00650050537661
1970/01/01/01:00:01.567000,73,1,566000000,,-0.4832906425,0.0422072261572,-0.00658394861966
1970/01/01/01:00:01.588000,74,1,586000000,,-0.482447832823,0.0420747175813,-0.00666713202372
1970/01/01/01:00:01.607000,75,1,607000000,,-0.481607675552,0.0419405438006,-0.00675005186349
1970/01/01/01:00:01.626000,76,1,626000000,,-0.480770230293,0.041804715991,-0.006832705345
1970/01/01/01:00:01.647000,77,1,647000000,,-0.479935497046,0.0416672378778,-0.00691508920863
1970/01/01/01:00:01.667000,78,1,666000000,,-0.479103535414,0.0415281131864,-0.00699719972908
1970/01/01/01:00:01.687000,79,1,687000000,,-0.478233009577,0.0413802713156,-0.00708311889321
1970/01/01/01:00:01.707000,80,1,707000000,,-0.477448046207,0.0412449538708,-0.00716058956459
1970/01/01/01:00:01.727000,81,1,726000000,,-0.47662460804,0.0411009304225,-0.00724186189473
1970/01/01/01:00:01.747000,82,1,747000000,,-0.475763082504,0.040947958827,-0.00732689024881
1970/01/01/01:00:01.776000,83,1,774000000,,-0.474700927734,0.0407560952008,-0.00743172084913
1970/01/01/01:00:01.788000,84,1,787000000,,-0.474131077528,0.0406516566873,-0.00748796341941
1970/01/01/01:00:01.808000,85,1,807000000,,-0.473319530487,0.0405010953546,-0.00756805855781
1970/01/01/01:00:01.829000,86,1,826000000,,-0.472551375628,0.0403565838933,-0.00764387194067
1970/01/01/01:00:01.850000,87,1,850000000,,-0.471625208855,0.0401797220111,-0.00773528125137
1970/01/01/01:00:01.866000,88,1,866000000,,-0.470943272114,0.0400476492941,-0.00780258560553
1970/01/01/01:00:01.887000,89,1,887000000,,-0.470104008913,0.0398829244077,-0.0078854188323
1970/01/01/01:00:01.907000,90,1,906000000,,-0.469347655773,0.0397323928773,-0.00796006713063
1970/01/01/01:00:01.927000,91,1,926000000,,-0.468554615974,0.0395724065602,-0.00803833827376
1970/01/01/01:00:01.947000,92,1,946000000,,-0.467764765024,0.0394108593464,-0.0081162918359
1970/01/01/01:00:01.968000,93,1,967000000,,-0.466978192329,0.0392477586865,-0.00819392502308
1970/01/01/01:00:01.988000,94,1,987000000,,-0.466194868088,0.0390831045806,-0.00827123411
1970/01/01/01:00:02.008000,95,2,7000000,,-0.465375959873,0.038908559829,-0.00835205800831
1970/01/01/01:00:02.027000,96,2,26000000,,-0.464638203382,0.0387491807342,-0.00842487160116
1970/01/01/01:00:02.048000,97,2,47000000,,-0.463826328516,0.0385714136064,-0.00850499980152
1970/01/01/01:00:02.068000,98,2,67000000,,-0.463056623936,0.0384005531669,-0.00858096778393
1970/01/01/01:00:02.086000,99,2,86000000,,-0.4623285532,0.0382368341088,-0.00865282490849
1970/01/01/01:00:02.107000,100,2,106000000,,-0.461565554142,0.0380630232394,-0.00872812978923
1970/01/01/01:00:02.127000,101,2,127000000,,-0.460768163204,0.0378789044917,-0.00880682934076
1970/01/01/01:00:02.148000,102,2,146000000,,-0.460050046444,0.0377109013498,-0.00887770298868
1970/01/01/01:00:02.166000,103,2,166000000,,-0.459297627211,0.0375326052308,-0.00895196571946
1970/01/01/01:00:02.187000,104,2,187000000,,-0.458548754454,0.0373528264463,-0.00902587547898
1970/01/01/01:00:02.207000,105,2,206000000,,-0.45780351758,0.0371715724468,-0.00909942761064
1970/01/01/01:00:02.227000,106,2,226000000,,-0.45706191659,0.036988850683,-0.00917262211442
1970/01/01/01:00:02.247000,107,2,247000000,,-0.456323981285,0.0368046686053,-0.0092454534024
1970/01/01/01:00:02.269000,108,2,266000000,,-0.455589741468,0.0366190336645,-0.00931791961193
1970/01/01/01:00:02.287000,109,2,286000000,,-0.454859226942,0.036431953311,-0.00939001794904
1970/01/01/01:00:02.306000,110,2,306000000,,-0.454132467508,0.0362434349954,-0.0094617465511
1970/01/01/01:00:02.327000,111,2,326000000,,-0.45340949297,0.0360534861684,-0.00953310076147
1970/01/01/01:00:02.347000,112,2,346000000,,-0.452690333128,0.0358621142805,-0.00960407871753
1970/01/01/01:00:02.367000,113,2,367000000,,-0.451939344406,0.0356596522033,-0.00967819802463
1970/01/01/01:00:02.387000,114,2,386000000,,-0.451263576746,0.0354751311243,-0.00974489469081
1970/01/01/01:00:02.407000,115,2,407000000,,-0.450556010008,0.0352795347571,-0.0098147271201
1970/01/01/01:00:02.429000,116,2,428000000,,-0.449782252312,0.0350627675653,-0.0098910946399
1970/01/01/01:00:02.447000,117,2,446000000,,-0.449152737856,0.0348841696978,-0.00995322689414
1970/01/01/01:00:02.467000,118,2,467000000,,-0.448457032442,0.0346844159067,-0.010021888651
1970/01/01/01:00:02.487000,119,2,486000000,,-0.447765350342,0.034483294934,-0.0100901545957
1970/01/01/01:00:02.507000,120,2,507000000,,-0.447077721357,0.0342808142304,-0.0101580219343
1970/01/01/01:00:02.527000,121,2,526000000,,-0.446394145489,0.0340769775212,-0.0102254888043
1970/01/01/01:00:02.548000,122,2,547000000,,-0.445714652538,0.0338717959821,-0.0102925514802
1970/01/01/01:00:02.567000,123,2,566000000,,-0.445039272308,0.0336652807891,-0.0103592080995
1970/01/01/01:00:02.586000,124,2,586000000,,-0.444368034601,0.0334574319422,-0.0104254558682
1970/01/01/01:00:02.608000,125,2,607000000,,-0.44366773963,0.0332377701998,-0.0104945730418
1970/01/01/01:00:02.627000,126,2,626000000,,-0.443038135767,0.0330377817154,-0.0105567136779
1970/01/01/01:00:02.650000,127,2,647000000,,-0.442346662283,0.032815374434,-0.0106249582022
1970/01/01/01:00:02.667000,128,2,666000000,,-0.441725105047,0.0326129160821,-0.0106863044202
1970/01/01/01:00:02.689000,129,2,686000000,,-0.441074967384,0.0323985479772,-0.0107504688203
1970/01/01/01:00:02.710000,130,2,706000000,,-0.440429151058,0.0321829020977,-0.0108142085373
1970/01/01/01:00:02.728000,131,2,728000000,,-0.439787656069,0.0319659821689,-0.0108775207773
1970/01/01/01:00:02.747000,132,2,747000000,,-0.439118772745,0.0317368619144,-0.0109435366467
1970/01/01/01:00:02.772000,133,2,769000000,,-0.438486248255,0.0315173640847,-0.0110059669241
1970/01/01/01:00:02.789000,134,2,787000000,,-0.437858104706,0.0312966257334,-0.0110679613426
1970/01/01/01:00:02.809000,135,2,808000000,,-0.437265455723,0.0310857780278,-0.0111264521256
1970/01/01/01:00:02.828000,136,2,826000000,,-0.43664598465,0.0308626368642,-0.0111875934526
1970/01/01/01:00:02.848000,137,2,847000000,,-0.436000347137,0.030627027154,-0.0112513154745
1970/01/01/01:00:02.868000,138,2,866000000,,-0.435420453548,0.0304127074778,-0.0113085471094
1970/01/01/01:00:02.888000,139,2,887000000,,-0.434814482927,0.0301859378815,-0.0113683566451
1970/01/01/01:00:02.911000,140,2,909000000,,-0.43412321806,0.0299236793071,-0.0114365816116
1970/01/01/01:00:02.929000,141,2,926000000,,-0.433616161346,0.0297288317233,-0.0114866243675
1970/01/01/01:00:02.947000,142,2,947000000,,-0.432994395494,0.0294869672507,-0.0115479910746
1970/01/01/01:00:02.968000,143,2,968000000,,-0.432406961918,0.0292554274201,-0.0116059677675
1970/01/01/01:00:02.987000,144,2,986000000,,-0.431853204966,0.0290343947709,-0.0116606205702
1970/01/01/01:00:03.007000,145,3,6000000,,-0.431274861097,0.0288006104529,-0.0117177022621
1970/01/01/01:00:03.027000,146,3,26000000,,-0.430701196194,0.0285656899214,-0.0117743201554
1970/01/01/01:00:03.047000,147,3,46000000,,-0.430132240057,0.0283296406269,-0.01183047425
1970/01/01/01:00:03.068000,148,3,68000000,,-0.429511845112,0.0280686952174,-0.0118917031214
1970/01/01/01:00:03.087000,149,3,87000000,,-0.429008543491,0.0278541967273,-0.0119413780048
1970/01/01/01:00:03.107000,150,3,106000000,,-0.428453862667,0.0276148207486,-0.0119961239398
1970/01/01/01:00:03.127000,151,3,126000000,,-0.427903950214,0.0273743551224,-0.0120503958315
1970/01/01/01:00:03.147000,152,3,147000000,,-0.42735889554,0.0271328091621,-0.0121041927487
1970/01/01/01:00:03.167000,153,3,166000000,,-0.426818668842,0.0268901903182,-0.0121575118974
1970/01/01/01:00:03.186000,154,3,186000000,,-0.426283299923,0.0266465116292,-0.0122103504837
1970/01/01/01:00:03.206000,155,3,206000000,,-0.425752788782,0.0264017805457,-0.0122627066448
1970/01/01/01:00:03.227000,156,3,226000000,,-0.425227224827,0.0261560063809,-0.0123145794496
1970/01/01/01:00:03.247000,157,3,246000000,,-0.424706578255,0.0259092003107,-0.012365966104
1970/01/01/01:00:03.267000,158,3,266000000,,-0.424190849066,0.0256613716483,-0.0124168647453
1970/01/01/01:00:03.287000,159,3,286000000,,-0.423680126667,0.025412529707,-0.0124672725797
1970/01/01/01:00:03.309000,160,3,308000000,,-0.423124074936,0.0251376442611,-0.012522152625
1970/01/01/01:00:03.327000,161,3,326000000,,-0.422673612833,0.0249118451029,-0.0125666102394
1970/01/01/01:00:03.346000,162,3,346000000,,-0.422177910805,0.0246600229293,-0.0126155354083
1970/01/01/01:00:03.368000,163,3,366000000,,-0.421687215567,0.0244072265923,-0.0126639632508
1970/01/01/01:00:03.387000,164,3,386000000,,-0.421201616526,0.0241534672678,-0.0127118909732
1970/01/01/01:00:03.406000,165,3,406000000,,-0.420721083879,0.0238987542689,-0.0127593167126
1970/01/01/01:00:03.427000,166,3,426000000,,-0.420245677233,0.0236430969089,-0.0128062386066
1970/01/01/01:00:03.446000,167,3,446000000,,-0.419775366783,0.0233865082264,-0.0128526557237
1970/01/01/01:00:03.467000,168,3,466000000,,-0.419310212135,0.0231289956719,-0.0128985643387
1970/01/01/01:00:03.486000,169,3,486000000,,-0.418850213289,0.0228705685586,-0.0129439644516
1970/01/01/01:00:03.509000,170,3,509000000,,-0.418327629566,0.0225722640753,-0.0129955420271
1970/01/01/01:00:03.527000,171,3,526000000,,-0.417945772409,0.0223510172218,-0.0130332289264
1970/01/01/01:00:03.547000,172,3,546000000,,-0.417501360178,0.0220899134874,-0.0130770914257
1970/01/01/01:00:03.567000,173,3,566000000,,-0.417062193155,0.0218279380351,-0.0131204361096
1970/01/01/01:00:03.588000,174,3,587000000,,-0.41660669446,0.0215519350022,-0.0131653910503
1970/01/01/01:00:03.608000,175,3,606000000,,-0.416199594736,0.0213014110923,-0.0132055711001
1970/01/01/01:00:03.627000,176,3,626000000,,-0.415776193142,0.0210368800908,-0.0132473576814
1970/01/01/01:00:03.647000,177,3,646000000,,-0.415358126163,0.0207715202123,-0.0132886208594
1970/01/01/01:00:03.667000,178,3,666000000,,-0.414945334196,0.0205053389072,-0.0133293597028
1970/01/01/01:00:03.688000,179,3,687000000,,-0.41451767087,0.0202249791473,-0.0133715691045
1970/01/01/01:00:03.707000,180,3,706000000,,-0.414135813713,0.0199705604464,-0.0134092569351
1970/01/01/01:00:03.727000,181,3,727000000,,-0.413739085197,0.019701981917,-0.0134484125301
1970/01/01/01:00:03.747000,182,3,746000000,,-0.413347750902,0.0194326266646,-0.0134870372713
1970/01/01/01:00:03.766000,183,3,766000000,,-0.412961781025,0.0191625040025,-0.0135251292959
1970/01/01/01:00:03.787000,184,3,787000000,,-0.4125623703,0.0188780613244,-0.0135645512491
1970/01/01/01:00:03.807000,185,3,807000000,,-0.412187516689,0.0186064001173,-0.0136015461758
1970/01/01/01:00:03.827000,186,3,827000000,,-0.411836445332,0.0183476414531,-0.0136361951008
1970/01/01/01:00:03.847000,187,3,847000000,,-0.411454170942,0.0180608835071,-0.0136739257723
1970/01/01/01:00:03.867000,188,3,867000000,,-0.411113470793,0.0178007576615,-0.0137075502425
1970/01/01/01:00:03.887000,189,3,887000000,,-0.4107427001,0.0175125151873,-0.0137441456318
1970/01/01/01:00:03.907000,190,3,907000000,,-0.410412430763,0.0172510650009,-0.0137767409906
1970/01/01/01:00:03.927000,191,3,927000000,,-0.410053193569,0.0169613808393,-0.0138121955097
1970/01/01/01:00:03.947000,192,3,946000000,,-0.40973341465,0.0166986491531,-0.0138437552378
1970/01/01/01:00:03.967000,193,3,966000000,,-0.409402221441,0.0164214447141,-0.0138764437288
1970/01/01/01:00:03.988000,194,3,987000000,,-0.409060448408,0.0161296855658,-0.0139101771638
1970/01/01/01:00:04.007000,195,4,6000000,,-0.408756494522,0.0158651061356,-0.0139401759952
1970/01/01/01:00:04.028000,196,4,27000000,,-0.408426403999,0.0155720189214,-0.0139727545902
1970/01/01/01:00:04.048000,197,4,46000000,,-0.40813305974,0.0153062604368,-0.0140017066151
1970/01/01/01:00:04.067000,198,4,66000000,,-0.407829731703,0.0150259258226,-0.0140316430479
1970/01/01/01:00:04.087000,199,4,87000000,,-0.407517284155,0.0147309368476,-0.014062481001
1970/01/01/01:00:04.107000,200,4,107000000,,-0.407225489616,0.0144493980333,-0.014091280289
1970/01/01/01:00:04.126000,201,4,126000000,,-0.40695348382,0.0141814080998,-0.0141181256622
1970/01/01/01:00:04.147000,202,4,146000000,,-0.406672686338,0.0138987675309,-0.0141458390281
1970/01/01/01:00:04.166000,203,4,166000000,,-0.406397521496,0.013615578413,-0.014172995463
1970/01/01/01:00:04.190000,204,4,189000000,,-0.406101435423,0.0133034493774,-0.0142022203654
1970/01/01/01:00:04.208000,205,4,207000000,,-0.405864268541,0.0130475983024,-0.0142256263644
1970/01/01/01:00:04.229000,206,4,226000000,,-0.405606150627,0.0127628305927,-0.0142511008307
1970/01/01/01:00:04.252000,207,4,251000000,,-0.405291557312,0.0124061629176,-0.0142821520567
1970/01/01/01:00:04.267000,208,4,267000000,,-0.405107051134,0.0121917938814,-0.014300359413
1970/01/01/01:00:04.289000,209,4,286000000,,-0.404866099358,0.0119055472314,-0.0143241425976
1970/01/01/01:00:04.307000,210,4,307000000,,-0.404619216919,0.0116044832394,-0.0143485069275
1970/01/01/01:00:04.335000,211,4,333000000,,-0.404333591461,0.0112454164773,-0.0143766971305
1970/01/01/01:00:04.348000,212,4,346000000,,-0.404177576303,0.0110440347344,-0.0143920956179
1970/01/01/01:00:04.369000,213,4,366000000,,-0.403959572315,0.010755976662,-0.0144136119634
1970/01/01/01:00:04.392000,214,4,389000000,,-0.403715997934,0.0104241855443,-0.0144376512617
1970/01/01/01:00:04.410000,215,4,408000000,,-0.403520554304,0.0101496865973,-0.0144569417462
1970/01/01/01:00:04.426000,216,4,426000000,,-0.403340190649,0.00988930091262,-0.0144747421145
1970/01/01/01:00:04.447000,217,4,446000000,,-0.403145313263,0.00959961209446,-0.0144939767197
1970/01/01/01:00:04.468000,218,4,466000000,,-0.402956217527,0.00930954515934,-0.0145126394928
1970/01/01/01:00:04.488000,219,4,486000000,,-0.402772933245,0.0090191103518,-0.0145307295024
1970/01/01/01:00:04.509000,220,4,508000000,,-0.402595460415,0.00872831977904,-0.0145482448861
1970/01/01/01:00:04.530000,221,4,527000000,,-0.402415364981,0.00842261873186,-0.0145660191774
1970/01/01/01:00:04.549000,222,4,546000000,,-0.402257978916,0.00814571604133,-0.014581553638
1970/01/01/01:00:04.570000,223,4,569000000,,-0.402082294226,0.00782473012805,-0.0145988920704
1970/01/01/01:00:04.592000,224,4,590000000,,-0.401936262846,0.00754721323028,-0.0146133052185
1970/01/01/01:00:04.608000,225,4,607000000,,-0.401795506477,0.00726942764595,-0.0146271977574
1970/01/01/01:00:04.627000,226,4,627000000,,-0.401653051376,0.00697674229741,-0.0146412579343
1970/01/01/01:00:04.647000,227,4,646000000,,-0.401516437531,0.00668378127739,-0.0146547406912
1970/01/01/01:00:04.667000,228,4,666000000,,-0.401385694742,0.00639055669308,-0.0146676441655
1970/01/01/01:00:04.687000,229,4,687000000,,-0.401254713535,0.0060823992826,-0.0146805699915
1970/01/01/01:00:04.707000,230,4,707000000,,-0.401141822338,0.00580336153507,-0.0146917141974
1970/01/01/01:00:04.727000,231,4,726000000,,-0.401028692722,0.0055094147101,-0.0147028798237
1970/01/01/01:00:04.747000,232,4,746000000,,-0.400921434164,0.00521525042132,-0.0147134643048
1970/01/01/01:00:04.767000,233,4,766000000,,-0.400820076466,0.00492087984458,-0.0147234685719
1970/01/01/01:00:04.787000,234,4,786000000,,-0.400724589825,0.00462631555274,-0.0147328907624
1970/01/01/01:00:04.807000,235,4,807000000,,-0.400635033846,0.00433156825602,-0.0147417327389
1970/01/01/01:00:04.829000,236,4,827000000,,-0.400547325611,0.00402189977467,-0.0147503893822
1970/01/01/01:00:04.847000,237,4,846000000,,-0.400473564863,0.0037415723782,-0.0147576685995
1970/01/01/01:00:04.868000,238,4,866000000,,-0.400401681662,0.00344634708017,-0.0147647624835
1970/01/01/01:00:04.887000,239,4,886000000,,-0.40033569932,0.00315098580904,-0.0147712733597
1970/01/01/01:00:04.907000,240,4,907000000,,-0.40027564764,0.00285550020635,-0.0147772021592
1970/01/01/01:00:04.927000,241,4,926000000,,-0.40022149682,0.0025599016808,-0.0147825470194
1970/01/01/01:00:04.947000,242,4,946000000,,-0.400173246861,0.00226420210674,-0.0147873079404
1970/01/01/01:00:04.967000,243,4,966000000,,-0.400130927563,0.00196841312572,-0.0147914858535
1970/01/01/01:00:04.987000,244,4,986000000,,-0.400094509125,0.0016725466121,-0.014795078896
1970/01/01/01:00:05.007000,245,5,6000000,,-0.400064021349,0.00137661397457,-0.0147980879992
1970/01/01/01:00:05.027000,246,5,26000000,,-0.400039434433,0.00108062697109,-0.0148005131632
1970/01/01/01:00:05.047000,247,5,47000000,,-0.400020778179,0.00078459730139,-0.0148023543879
1970/01/01/01:00:05.067000,248,5,66000000,,-0.400008052588,0.000488536665216,-0.0148036107421
1970/01/01/01:00:05.101000,249,5,100000000,,-0.40000000596,-1.4804406419e-05,-0.0148044060916
1970/01/01/01:00:05.107000,250,5,106000000,,-0.400000363588,-0.000103630765807,-0.0148043707013
1970/01/01/01:00:05.127000,251,5,126000000,,-0.400005400181,-0.00039971419028,-0.0148038743064
1970/01/01/01:00:05.147000,252,5,146000000,,-0.400016337633,-0.000695781840477,-0.0148027930409
1970/01/01/01:00:05.166000,253,5,166000000,,-0.40003323555,-0.000991821987554,-0.0148011269048
1970/01/01/01:00:05.187000,254,5,187000000,,-0.400057315826,-0.001302621793,-0.0147987492383
1970/01/01/01:00:05.207000,255,5,206000000,,-0.400084733963,-0.00158377317712,-0.0147960428149
1970/01/01/01:00:05.226000,256,5,226000000,,-0.400119364262,-0.00187966087833,-0.014792624861
1970/01/01/01:00:05.247000,257,5,246000000,,-0.400159925222,-0.00217547430657,-0.0147886229679
1970/01/01/01:00:05.266000,258,5,266000000,,-0.400206387043,-0.0024712018203,-0.0147840362042
1970/01/01/01:00:05.286000,259,5,286000000,,-0.400258779526,-0.00276683177799,-0.0147788664326
1970/01/01/01:00:05.307000,260,5,306000000,,-0.400317072868,-0.00306235253811,-0.0147731136531
1970/01/01/01:00:05.329000,261,5,326000000,,-0.400381267071,-0.00335775245912,-0.0147667769343
1970/01/01/01:00:05.351000,262,5,350000000,,-0.400466114283,-0.00371205643751,-0.0147584043443
1970/01/01/01:00:05.368000,263,5,367000000,,-0.400527387857,-0.00394814275205,-0.0147523554042
1970/01/01/01:00:05.388000,264,5,388000000,,-0.400609284639,-0.00424311030656,-0.0147442715243
1970/01/01/01:00:05.407000,265,5,407000000,,-0.400697112083,-0.00453790975735,-0.0147356046364
1970/01/01/01:00:05.429000,266,5,427000000,,-0.400795668364,-0.00484725646675,-0.0147258788347
1970/01/01/01:00:05.446000,267,5,446000000,,-0.400890409946,-0.00512696010992,-0.0147165264934
1970/01/01/01:00:05.469000,268,5,469000000,,-0.40100133419,-0.0054358933121,-0.0147055806592
1970/01/01/01:00:05.487000,269,5,487000000,,-0.401107251644,-0.00571520114318,-0.0146951247007
1970/01/01/01:00:05.508000,270,5,507000000,,-0.40123051405,-0.00602367194369,-0.0146829597652
1970/01/01/01:00:05.526000,271,5,526000000,,-0.401347607374,-0.0063025392592,-0.014671402052
1970/01/01/01:00:05.548000,272,5,547000000,,-0.401476591825,-0.00659584114328,-0.0146586718038
1970/01/01/01:00:05.567000,273,5,567000000,,-0.401611447334,-0.00688888225704,-0.0146453632042
1970/01/01/01:00:05.588000,274,5,587000000,,-0.401752144098,-0.00718165189028,-0.0146314762533
1970/01/01/01:00:05.607000,275,5,606000000,,-0.40189871192,-0.00747413747013,-0.0146170118824
1970/01/01/01:00:05.628000,276,5,627000000,,-0.402051120996,-0.00776632828638,-0.0146019700915
1970/01/01/01:00:05.648000,277,5,647000000,,-0.402217417955,-0.00807279814035,-0.0145855555311
1970/01/01/01:00:05.669000,278,5,668000000,,-0.402381807566,-0.00836434867233,-0.0145693328232
1970/01/01/01:00:05.688000,279,5,687000000,,-0.402552008629,-0.00865556765348,-0.0145525345579
1970/01/01/01:00:05.709000,280,5,708000000,,-0.402719080448,-0.00893191061914,-0.0145360445604
1970/01/01/01:00:05.728000,281,5,727000000,,-0.402900636196,-0.00922245252877,-0.0145181268454
1970/01/01/01:00:05.748000,282,5,747000000,,-0.403087973595,-0.00951263122261,-0.0144996354356
1970/01/01/01:00:05.767000,283,5,766000000,,-0.403281122446,-0.00980243459344,-0.0144805721939
1970/01/01/01:00:05.788000,284,5,787000000,,-0.40348008275,-0.0100918505341,-0.01446093712
1970/01/01/01:00:05.808000,285,5,807000000,,-0.403684794903,-0.0103808678687,-0.0144407320768
1970/01/01/01:00:05.826000,286,5,826000000,,-0.403895288706,-0.0106694763526,-0.0144199561328
1970/01/01/01:00:05.848000,287,5,847000000,,-0.404111564159,-0.0109576629475,-0.0143986102194
1970/01/01/01:00:05.867000,288,5,867000000,,-0.404333591461,-0.0112454164773,-0.0143766971305
1970/01/01/01:00:05.887000,289,5,887000000,,-0.404561400414,-0.0115327266976,-0.0143542159349
1970/01/01/01:00:05.907000,290,5,906000000,,-0.404794901609,-0.0118195815012,-0.0143311675638
1970/01/01/01:00:05.927000,291,5,926000000,,-0.405034154654,-0.0121059697121,-0.0143075538799
1970/01/01/01:00:05.947000,292,5,947000000,,-0.405279159546,-0.0123918801546,-0.0142833758146
1970/01/01/01:00:05.967000,293,5,967000000,,-0.40552982688,-0.0126773007214,-0.0142586333677
1970/01/01/01:00:05.987000,294,5,986000000,,-0.405786246061,-0.012962221168,-0.014233328402
1970/01/01/01:00:06.008000,295,6,7000000,,-0.406048327684,-0.0132466303185,-0.0142074609175
1970/01/01/01:00:06.027000,296,6,26000000,,-0.406316101551,-0.0135305160657,-0.0141810327768
1970/01/01/01:00:06.048000,297,6,48000000,,-0.406603366137,-0.0138280214742,-0.0141526805237
1970/01/01/01:00:06.068000,298,6,67000000,,-0.406882762909,-0.0141107998788,-0.0141251059249
1970/01/01/01:00:06.087000,299,6,86000000,,-0.407153397799,-0.0143789239228,-0.0140983937308
1970/01/01/01:00:06.107000,300,6,106000000,,-0.407443791628,-0.0146606061608,-0.0140697332099
1970/01/01/01:00:06.128000,301,6,126000000,,-0.407739818096,-0.0149417100474,-0.0140405166894
1970/01/01/01:00:06.148000,302,6,147000000,,-0.408041477203,-0.0152222234756,-0.014010746032
1970/01/01/01:00:06.167000,303,6,167000000,,-0.408348709345,-0.0155021362007,-0.013980422169
1970/01/01/01:00:06.188000,304,6,187000000,,-0.408661544323,-0.0157814361155,-0.0139495460317
1970/01/01/01:00:06.210000,305,6,208000000,,-0.409012109041,-0.0160879474133,-0.0139149464667
1970/01/01/01:00:06.229000,306,6,227000000,,-0.409320294857,-0.0163520425558,-0.0138845304027
1970/01/01/01:00:06.247000,307,6,246000000,,-0.409633487463,-0.016615556553,-0.0138536198065
1970/01/01/01:00:06.268000,308,6,267000000,,-0.40998545289,-0.0169061180204,-0.0138188805431
1970/01/01/01:00:06.287000,309,6,286000000,,-0.410309165716,-0.0171683747321,-0.0137869315222
1970/01/01/01:00:06.308000,310,6,307000000,,-0.410655289888,-0.0174437724054,-0.0137527706102
1970/01/01/01:00:06.327000,311,6,326000000,,-0.41100692749,-0.0177184808999,-0.0137180667371
1970/01/01/01:00:06.347000,312,6,347000000,,-0.411364018917,-0.0179924909025,-0.0136828217655
1970/01/01/01:00:06.367000,313,6,366000000,,-0.411726623774,-0.0182657912374,-0.0136470356956
1970/01/01/01:00:06.388000,314,6,387000000,,-0.412094652653,-0.0185383688658,-0.0136107113212
1970/01/01/01:00:06.408000,315,6,408000000,,-0.412486970425,-0.0188237894326,-0.0135719925165
1970/01/01/01:00:06.433000,316,6,431000000,,-0.412942647934,-0.0191489774734,-0.0135270198807
1970/01/01/01:00:06.447000,317,6,446000000,,-0.413231402636,-0.0193516705185,-0.0134985204786
1970/01/01/01:00:06.467000,318,6,466000000,,-0.413621127605,-0.0196212567389,-0.013460055925
1970/01/01/01:00:06.487000,319,6,486000000,,-0.414016246796,-0.0198900680989,-0.0134210595861
1970/01/01/01:00:06.508000,320,6,507000000,,-0.414436876774,-0.020171476528,-0.0133795430884
1970/01/01/01:00:06.528000,321,6,526000000,,-0.414822548628,-0.0204253271222,-0.0133414790034
1970/01/01/01:00:06.547000,322,6,547000000,,-0.41523373127,-0.0206917505711,-0.0133008975536
1970/01/01/01:00:06.568000,323,6,567000000,,-0.415650218725,-0.0209573600441,-0.0132597917691
1970/01/01/01:00:06.587000,324,6,586000000,,-0.416072010994,-0.0212221387774,-0.01321816165
1970/01/01/01:00:06.607000,325,6,607000000,,-0.416499108076,-0.0214860830456,-0.0131760109216
1970/01/01/01:00:06.627000,326,6,626000000,,-0.416931450367,-0.021749176085,-0.0131333386526
1970/01/01/01:00:06.650000,327,6,649000000,,-0.417413115501,-0.0220375880599,-0.0130858011544
1970/01/01/01:00:06.667000,328,6,666000000,,-0.417811900377,-0.022272778675,-0.0130464415997
1970/01/01/01:00:06.689000,329,6,687000000,,-0.418259978294,-0.0225332658738,-0.0130022196099
1970/01/01/01:00:06.708000,330,6,707000000,,-0.418713241816,-0.0227928645909,-0.0129574844614
1970/01/01/01:00:06.727000,331,6,727000000,,-0.419171690941,-0.0230515617877,-0.0129122380167
1970/01/01/01:00:06.748000,332,6,748000000,,-0.419635295868,-0.0233093500137,-0.0128664812073
1970/01/01/01:00:06.768000,333,6,767000000,,-0.420127630234,-0.023579036817,-0.0128178903833
1970/01/01/01:00:06.788000,334,6,788000000,,-0.420577943325,-0.0238221567124,-0.0127734467387
1970/01/01/01:00:06.807000,335,6,806000000,,-0.42105692625,-0.0240771528333,-0.0127261718735
1970/01/01/01:00:06.828000,336,6,827000000,,-0.421541005373,-0.0243311990052,-0.0126783940941
1970/01/01/01:00:06.847000,337,6,846000000,,-0.42203015089,-0.0245842859149,-0.0126301161945
1970/01/01/01:00:06.867000,338,6,866000000,,-0.422524362803,-0.0248364005238,-0.0125813400373
1970/01/01/01:00:06.887000,339,6,886000000,,-0.423023611307,-0.0250875353813,-0.0125320665538
1970/01/01/01:00:06.908000,340,6,908000000,,-0.423553198576,-0.0253501608968,-0.012479797937
1970/01/01/01:00:06.927000,341,6,926000000,,-0.424037128687,-0.0255868248641,-0.012432038784
1970/01/01/01:00:06.948000,342,6,947000000,,-0.424551337957,-0.0258349590003,-0.0123812872916
1970/01/01/01:00:06.970000,343,6,969000000,,-0.425122708082,-0.0261067282408,-0.0123248957098
1970/01/01/01:00:06.989000,344,6,988000000,,-0.425620943308,-0.0263404343277,-0.0122757209465
1970/01/01/01:00:07.007000,345,7,7000000,,-0.42612361908,-0.0265732016414,-0.0122261084616
1970/01/01/01:00:07.027000,346,7,26000000,,-0.426657527685,-0.0268171988428,-0.012173413299
1970/01/01/01:00:07.046000,347,7,46000000,,-0.427196294069,-0.027060136199,-0.0121202385053
1970/01/01/01:00:07.069000,348,7,67000000,,-0.427767246962,-0.0273140706122,-0.0120638897642
1970/01/01/01:00:07.088000,349,7,87000000,,-0.428315937519,-0.0275548063219,-0.0120097361505
1970/01/01/01:00:07.107000,350,7,106000000,,-0.428841620684,-0.0277824997902,-0.0119578512385
1970/01/01/01:00:07.129000,351,7,129000000,,-0.429455727339,-0.0280449073762,-0.0118972416967
1970/01/01/01:00:07.148000,352,7,147000000,,-0.429962486029,-0.0282586067915,-0.0118472287431
1970/01/01/01:00:07.168000,353,7,166000000,,-0.430530011654,-0.0284949932247,-0.0117912152782
1970/01/01/01:00:07.187000,354,7,186000000,,-0.431102275848,-0.0287302527577,-0.011734736152
1970/01/01/01:00:07.207000,355,7,206000000,,-0.431679219007,-0.0289643798023,-0.0116777932271
1970/01/01/01:00:07.227000,356,7,226000000,,-0.432260841131,-0.0291973613203,-0.0116203902289
1970/01/01/01:00:07.249000,357,7,248000000,,-0.432847112417,-0.0294291917235,-0.0115625280887
1970/01/01/01:00:07.267000,358,7,267000000,,-0.433438003063,-0.0296598598361,-0.0115042086691
1970/01/01/01:00:07.292000,359,7,292000000,,-0.434213042259,-0.0299579761922,-0.011427716352
1970/01/01/01:00:07.306000,360,7,307000000,,-0.434663683176,-0.0301290582865,-0.0113832382485
1970/01/01/01:00:07.328000,361,7,327000000,,-0.435238182545,-0.0303448028862,-0.0113265374675
1970/01/01/01:00:07.346000,362,7,346000000,,-0.435847342014,-0.0305707324296,-0.0112664159387
1970/01/01/01:00:07.371000,363,7,367000000,,-0.436461001635,-0.0307954568416,-0.0112058492377
1970/01/01/01:00:07.396000,364,7,394000000,,-0.43732765317,-0.0311080235988,-0.0111203137785
1970/01/01/01:00:07.407000,365,7,406000000,,-0.437701761723,-0.0312412474304,-0.0110833924264
1970/01/01/01:00:07.429000,366,7,427000000,,-0.438328802586,-0.0314622968435,-0.0110215060413
1970/01/01/01:00:07.448000,367,7,446000000,,-0.438960254192,-0.0316821038723,-0.0109591847286
1970/01/01/01:00:07.466000,368,7,466000000,,-0.439596056938,-0.0319006592035,-0.0108964312822
1970/01/01/01:00:07.490000,369,7,488000000,,-0.440300524235,-0.0321396179497,-0.010826905258
1970/01/01/01:00:07.510000,370,7,508000000,,-0.440945476294,-0.0323555208743,-0.0107632512227
1970/01/01/01:00:07.532000,371,7,530000000,,-0.441659897566,-0.0325915366411,-0.0106927398592
1970/01/01/01:00:07.553000,372,7,552000000,,-0.442346662283,-0.032815374434,-0.0106249582022
1970/01/01/01:00:07.569000,373,7,568000000,,-0.442873060703,-0.032984957099,-0.0105730043724
1970/01/01/01:00:07.588000,374,7,587000000,,-0.443501681089,-0.0331852585077,-0.0105109624565
1970/01/01/01:00:07.609000,375,7,607000000,,-0.444167494774,-0.0333948209882,-0.0104452501982
1970/01/01/01:00:07.627000,376,7,627000000,,-0.444837480783,-0.0336030647159,-0.0103791253641
1970/01/01/01:00:07.647000,377,7,647000000,,-0.445511609316,-0.0338099822402,-0.0103125916794
1970/01/01/01:00:07.667000,378,7,666000000,,-0.446189850569,-0.0340155661106,-0.0102456500754
1970/01/01/01:00:07.688000,379,7,688000000,,-0.446906447411,-0.0342299826443,-0.0101749263704
1970/01/01/01:00:07.707000,380,7,706000000,,-0.447558641434,-0.0344226956367,-0.010110556148
1970/01/01/01:00:07.727000,381,7,727000000,,-0.448249101639,-0.0346242263913,-0.0100424094126
1970/01/01/01:00:07.749000,382,7,748000000,,-0.448978424072,-0.0348343588412,-0.00997042935342
1970/01/01/01:00:07.768000,383,7,767000000,,-0.44964209199,-0.03502317518,-0.00990492943674
1970/01/01/01:00:07.787000,384,7,786000000,,-0.450344532728,-0.0352205820382,-0.00983560178429
1970/01/01/01:00:07.806000,385,7,806000000,,-0.451050907373,-0.0354165993631,-0.009765884839
1970/01/01/01:00:07.831000,386,7,830000000,,-0.451903700829,-0.0356499701738,-0.00968171656132
1970/01/01/01:00:07.848000,387,7,846000000,,-0.452475339174,-0.0358044281602,-0.00962529890239
1970/01/01/01:00:07.867000,388,7,867000000,,-0.453229337931,-0.0360057763755,-0.00955088064075
1970/01/01/01:00:07.887000,389,7,886000000,,-0.453915178776,-0.0361866019666,-0.00948319211602
1970/01/01/01:00:07.907000,390,7,907000000,,-0.454677194357,-0.0363849587739,-0.00940798502415
1970/01/01/01:00:07.927000,391,7,927000000,,-0.455370187759,-0.0365630611777,-0.00933958776295
1970/01/01/01:00:07.947000,392,7,947000000,,-0.45610332489,-0.0367491319776,-0.00926723144948
1970/01/01/01:00:07.967000,393,7,967000000,,-0.456840157509,-0.0369337499142,-0.00919450912625
1970/01/01/01:00:07.987000,394,7,986000000,,-0.457580655813,-0.037116907537,-0.0091214235872
1970/01/01/01:00:08.008000,395,8,7000000,,-0.458324819803,-0.037298604846,-0.00904797855765
1970/01/01/01:00:08.028000,396,8,28000000,,-0.459110081196,-0.0374877974391,-0.00897047668695
1970/01/01/01:00:08.047000,397,8,46000000,,-0.459823966026,-0.0376575700939,-0.00890001934022
1970/01/01/01:00:08.067000,398,8,67000000,,-0.460578888655,-0.0378348231316,-0.00882551074028
1970/01/01/01:00:08.087000,399,8,86000000,,-0.461337327957,-0.0380105860531,-0.0087506538257
1970/01/01/01:00:08.108000,400,8,107000000,,-0.462137490511,-0.0381935201585,-0.00867168325931
1970/01/01/01:00:08.129000,401,8,127000000,,-0.462864726782,-0.0383576005697,-0.00859990715981
1970/01/01/01:00:08.148000,402,8,147000000,,-0.4636721313,-0.0385373644531,-0.00852022040635
1970/01/01/01:00:08.168000,403,8,166000000,,-0.464405864477,-0.0386985614896,-0.0084478026256
1970/01/01/01:00:08.187000,404,8,187000000,,-0.465181529522,-0.038866750896,-0.00837124884129
1970/01/01/01:00:08.208000,405,8,207000000,,-0.465960532427,-0.0390334092081,-0.00829436350614
1970/01/01/01:00:08.227000,406,8,226000000,,-0.46674284339,-0.03919852525,-0.00821715220809
1970/01/01/01:00:08.247000,407,8,246000000,,-0.46752846241,-0.0393620915711,-0.00813961494714
1970/01/01/01:00:08.268000,408,8,267000000,,-0.468356847763,-0.0395321659744,-0.00805785600096
1970/01/01/01:00:08.288000,409,8,287000000,,-0.469149082899,-0.039692543447,-0.00797966402024
1970/01/01/01:00:08.307000,410,8,307000000,,-0.469904690981,-0.0398434475064,-0.00790509022772
1970/01/01/01:00:08.330000,411,8,329000000,,-0.470823168755,-0.0400242246687,-0.00781443994492
1970/01/01/01:00:08.348000,412,8,348000000,,-0.471504718065,-0.0401564985514,-0.00774717470631
1970/01/01/01:00:08.368000,413,8,367000000,,-0.472349703312,-0.0403183139861,-0.00766377756372
1970/01/01/01:00:08.387000,414,8,387000000,,-0.473157584667,-0.040470790118,-0.00758404145017
1970/01/01/01:00:08.407000,415,8,407000000,,-0.473927915096,-0.0406141653657,-0.0075080152601
1970/01/01/01:00:08.427000,416,8,426000000,,-0.474741667509,-0.0407635234296,-0.00742769846693
1970/01/01/01:00:08.448000,417,8,447000000,,-0.475558429956,-0.0409112721682,-0.00734708830714
1970/01/01/01:00:08.468000,418,8,467000000,,-0.476378113031,-0.0410574041307,-0.00726618804038
1970/01/01/01:00:08.488000,419,8,488000000,,-0.477241933346,-0.0412091016769,-0.00718093430623
1970/01/01/01:00:08.508000,420,8,507000000,,-0.478067547083,-0.0413519069552,-0.00709944963455
1970/01/01/01:00:08.528000,421,8,527000000,,-0.478854507208,-0.0414860583842,-0.00702177966014
1970/01/01/01:00:08.548000,422,8,547000000,,-0.479685634375,-0.041625674814,-0.00693975109607
1970/01/01/01:00:08.568000,423,8,566000000,,-0.480519503355,-0.0417636446655,-0.00685744872317
1970/01/01/01:00:08.587000,424,8,586000000,,-0.481356143951,-0.0418999679387,-0.00677487580106
1970/01/01/01:00:08.608000,425,8,607000000,,-0.482237547636,-0.0420413278043,-0.0066878865473
1970/01/01/01:00:08.627000,426,8,627000000,,-0.483037531376,-0.0421676486731,-0.00660893088207
1970/01/01/01:00:08.648000,427,8,647000000,,-0.483882188797,-0.0422989949584,-0.00652556540444
1970/01/01/01:00:08.668000,428,8,668000000,,-0.48477190733,-0.0424351096153,-0.00643775425851
1970/01/01/01:00:08.688000,429,8,687000000,,-0.48557934165,-0.0425566695631,-0.00635806471109
1970/01/01/01:00:08.708000,430,8,707000000,,-0.486431747675,-0.0426829904318,-0.00627393648028
1970/01/01/01:00:08.728000,431,8,727000000,,-0.487286657095,-0.0428076274693,-0.00618956051767
1970/01/01/01:00:08.747000,432,8,746000000,,-0.488144040108,-0.042930573225,-0.00610493961722
1970/01/01/01:00:08.767000,433,8,766000000,,-0.489003866911,-0.0430518239737,-0.00602007843554
1970/01/01/01:00:08.788000,434,8,787000000,,-0.489909261465,-0.0431773066521,-0.00593071803451
1970/01/01/01:00:08.807000,435,8,807000000,,-0.490730702877,-0.0432892218232,-0.00584964547306
1970/01/01/01:00:08.828000,436,8,827000000,,-0.491597652435,-0.0434053577483,-0.00576408114284
1970/01/01/01:00:08.848000,437,8,847000000,,-0.492466896772,-0.0435197800398,-0.00567828956991
1970/01/01/01:00:08.867000,438,8,867000000,,-0.493338435888,-0.0436324886978,-0.00559227308258
1970/01/01/01:00:08.888000,439,8,887000000,,-0.494255930185,-0.0437489748001,-0.00550171872601
1970/01/01/01:00:08.907000,440,8,906000000,,-0.495088160038,-0.0438527278602,-0.00541958212852
1970/01/01/01:00:08.928000,441,8,926000000,,-0.495966285467,-0.0439602546394,-0.00533291371539
1970/01/01/01:00:08.950000,442,8,950000000,,-0.496978759766,-0.0440817624331,-0.00523298513144
1970/01/01/01:00:08.968000,443,8,967000000,,-0.497728914022,-0.0441700927913,-0.00515894917771
1970/01/01/01:00:08.987000,444,8,987000000,,-0.498613357544,-0.0442724004388,-0.00507165957242
1970/01/01/01:00:09.007000,445,9,7000000,,-0.499499797821,-0.0443729571998,-0.00498416973278
1970/01/01/01:00:09.029000,446,9,26000000,,-0.500388264656,-0.0444717667997,-0.00489648338407
1970/01/01/01:00:09.047000,447,9,47000000,,-0.50127863884,-0.0445688143373,-0.00480860378593
1970/01/01/01:00:09.068000,448,9,67000000,,-0.50221568346,-0.0446688272059,-0.00471612531692
1970/01/01/01:00:09.091000,449,9,89000000,,-0.503154754639,-0.0447668917477,-0.0046234424226
1970/01/01/01:00:09.108000,450,9,107000000,,-0.503961265087,-0.0448493994772,-0.00454383902252
1970/01/01/01:00:09.127000,451,9,127000000,,-0.504859149456,-0.0449393875897,-0.00445522088557
1970/01/01/01:00:09.147000,452,9,147000000,,-0.505758821964,-0.0450276061893,-0.00436642672867
1970/01/01/01:00:09.168000,453,9,167000000,,-0.506660282612,-0.0451140441,-0.00427746027708
1970/01/01/01:00:09.187000,454,9,187000000,,-0.507563412189,-0.0451987013221,-0.00418832479045
1970/01/01/01:00:09.206000,455,9,206000000,,-0.508468210697,-0.0452815778553,-0.00409902399406
1970/01/01/01:00:09.227000,456,9,226000000,,-0.509374678135,-0.045362662524,-0.00400956114754
1970/01/01/01:00:09.249000,457,9,249000000,,-0.510373592377,-0.0454497896135,-0.00391096994281
1970/01/01/01:00:09.268000,458,9,267000000,,-0.511237859726,-0.0455232858658,-0.00382567220367
1970/01/01/01:00:09.288000,459,9,287000000,,-0.512103438377,-0.0455951616168,-0.00374023802578
1970/01/01/01:00:09.307000,460,9,307000000,,-0.513016104698,-0.045669067651,-0.00365016353317
1970/01/01/01:00:09.330000,461,9,329000000,,-0.51402169466,-0.0457482784986,-0.00355091528036
1970/01/01/01:00:09.347000,462,9,346000000,,-0.514845728874,-0.0458114631474,-0.00346958590671
1970/01/01/01:00:09.367000,463,9,367000000,,-0.515762686729,-0.0458799526095,-0.0033790897578
1970/01/01/01:00:09.388000,464,9,387000000,,-0.516726851463,-0.0459499135613,-0.00328392535448
1970/01/01/01:00:09.408000,465,9,407000000,,-0.517600536346,-0.0460114888847,-0.00319770094939
1970/01/01/01:00:09.428000,466,9,427000000,,-0.518521368504,-0.0460745356977,-0.0031068152748
1970/01/01/01:00:09.447000,467,9,446000000,,-0.519443511963,-0.0461357608438,-0.00301580713131
1970/01/01/01:00:09.467000,468,9,467000000,,-0.52036678791,-0.0461951643229,-0.00292467977852
1970/01/01/01:00:09.488000,469,9,488000000,,-0.521291255951,-0.046252746135,-0.00283343717456
1970/01/01/01:00:09.508000,470,9,506000000,,-0.522216916084,-0.0463085025549,-0.00274208257906
1970/01/01/01:00:09.531000,471,9,529000000,,-0.52318996191,-0.0463650785387,-0.00264604389668
1970/01/01/01:00:09.548000,472,9,546000000,,-0.524071395397,-0.0464145280421,-0.00255905231461
1970/01/01/01:00:09.573000,473,9,569000000,,-0.525000154972,-0.0464647896588,-0.00246738363057
1970/01/01/01:00:09.588000,474,9,588000000,,-0.525976479053,-0.0465155951679,-0.00237102690153
1970/01/01/01:00:09.611000,475,9,608000000,,-0.526953816414,-0.046564374119,-0.00227456702851
1970/01/01/01:00:09.628000,476,9,626000000,,-0.527792334557,-0.0466045700014,-0.00219180830754
1970/01/01/01:00:09.647000,477,9,647000000,,-0.528771519661,-0.0466495864093,-0.00209516775794
1970/01/01/01:00:09.672000,478,9,670000000,,-0.529798328876,-0.0466945655644,-0.00199382775463
1970/01/01/01:00:09.689000,479,9,689000000,,-0.530639111996,-0.0467297062278,-0.00191084202379
1970/01/01/01:00:09.709000,480,9,707000000,,-0.531527340412,-0.046765178442,-0.00182317977306
1970/01/01/01:00:09.729000,481,9,728000000,,-0.532509803772,-0.0468024462461,-0.00172621454112
1970/01/01/01:00:09.750000,482,9,749000000,,-0.533493041992,-0.0468376800418,-0.00162917410489
1970/01/01/01:00:09.769000,483,9,767000000,,-0.534383237362,-0.0468677990139,-0.00154131441377
1970/01/01/01:00:09.789000,484,9,788000000,,-0.535273969173,-0.0468962490559,-0.00145339989103
1970/01/01/01:00:09.815000,485,9,812000000,,-0.536493778229,-0.0469324737787,-0.00133301236201
1970/01/01/01:00:09.829000,486,9,828000000,,-0.537244856358,-0.0469532087445,-0.00125888304319
1970/01/01/01:00:09.850000,487,9,850000000,,-0.538090229034,-0.0469751171768,-0.00117544969544
1970/01/01/01:00:09.873000,488,9,872000000,,-0.539076924324,-0.0469987802207,-0.00107806338929
1970/01/01/01:00:09.892000,489,9,891000000,,-0.540017127991,-0.0470194108784,-0.000985270831734
1970/01/01/01:00:09.911000,490,9,907000000,,-0.540910661221,-0.0470372959971,-0.000897081801668
1970/01/01/01:00:09.930000,491,9,927000000,,-0.541851580143,-0.0470543093979,-0.000804216833785
1970/01/01/01:00:09.948000,492,9,946000000,,-0.542792797089,-0.0470694638789,-0.00071132008452
1970/01/01/01:00:09.971000,493,9,970000000,,-0.543828487396,-0.0470839887857,-0.000609101378359
1970/01/01/01:00:09.988000,494,9,987000000,,-0.54467612505,-0.0470941998065,-0.000525446026586
1970/01/01/01:00:10.007000,495,10,7000000,,-0.545618116856,-0.0471037775278,-0.000432476022979
1970/01/01/01:00:10.028000,496,10,27000000,,-0.546560227871,-0.0471114963293,-0.000339488964528
1970/01/01/01:00:10.047000,497,10,47000000,,-0.547549664974,-0.0471176020801,-0.000241838206421
1970/01/01/01:00:10.067000,498,10,67000000,,-0.548444926739,-0.0471213571727,-0.000153478322318
1970/01/01/01:00:10.087000,499,10,86000000,,-0.549387395382,-0.0471234954894,-6.04620727245e-05
1970/01/01/01:00:10.107000,500,10,107000000,,-0.550329864025,-0.0471237748861,3.2556563383e-05
1970/01/01/01:00:10.128000,501,10,126000000,,-0.551272332668,-0.047122195363,0.000125573918922
1970/01/01/01:00:10.148000,502,10,147000000,,-0.552214741707,-0.0471187531948,0.000218586312258
1970/01/01/01:00:10.167000,503,10,167000000,,-0.553157091141,-0.0471134521067,0.000311590061756
1970/01/01/01:00:10.187000,504,10,186000000,,-0.554099261761,-0.0471062883735,0.000404581543989
1970/01/01/01:00:10.208000,505,10,208000000,,-0.555088400841,-0.0470967665315,0.000502205337398
1970/01/01/01:00:10.227000,506,10,227000000,,-0.555983126163,-0.0470863878727,0.000590512878262
1970/01/01/01:00:10.247000,507,10,246000000,,-0.556924760342,-0.0470736473799,0.000683445425238
1970/01/01/01:00:10.267000,508,10,266000000,,-0.557866096497,-0.0470590479672,0.000776350963861
1970/01/01/01:00:10.287000,509,10,287000000,,-0.558854162693,-0.047041721642,0.000873868761119
1970/01/01/01:00:10.308000,510,10,308000000,,-0.559747755527,-0.0470242798328,0.000962066464126
1970/01/01/01:00:10.327000,511,10,326000000,,-0.560688078403,-0.0470041111112,0.0010548690334
1970/01/01/01:00:10.348000,512,10,348000000,,-0.561674892902,-0.0469809360802,0.00115226686466
1970/01/01/01:00:10.369000,513,10,369000000,,-0.562614262104,-0.0469569638371,0.0012449802598
1970/01/01/01:00:10.389000,514,10,389000000,,-0.563600122929,-0.0469297990203,0.00134227622766
1970/01/01/01:00:10.408000,515,10,407000000,,-0.564444601536,-0.0469048880041,0.00142562645487
1970/01/01/01:00:10.427000,516,10,427000000,,-0.565382421017,-0.0468754470348,0.00151818420272
1970/01/01/01:00:10.447000,517,10,447000000,,-0.566319644451,-0.0468441583216,0.0016106821131
1970/01/01/01:00:10.468000,518,10,468000000,,-0.567303001881,-0.0468093156815,0.00170773628633
1970/01/01/01:00:10.487000,519,10,487000000,,-0.568192064762,-0.0467760339379,0.00179548340384
1970/01/01/01:00:10.508000,520,10,507000000,,-0.569127202034,-0.0467392019928,0.00188777956646
1970/01/01/01:00:10.527000,521,10,527000000,,-0.57006162405,-0.0467005260289,0.00198000110686
1970/01/01/01:00:10.548000,522,10,547000000,,-0.570995211601,-0.046660002321,0.00207214453258
1970/01/01/01:00:10.568000,523,10,567000000,,-0.571974635124,-0.0466154739261,0.00216880720109
1970/01/01/01:00:10.587000,524,10,587000000,,-0.572906494141,-0.0465711764991,0.00226077903062
1970/01/01/01:00:10.607000,525,10,606000000,,-0.57379090786,-0.0465273931623,0.00234806956723
1970/01/01/01:00:10.628000,526,10,626000000,,-0.574720978737,-0.046479512006,0.00243986397982
1970/01/01/01:00:10.650000,527,10,648000000,,-0.575742959976,-0.0464247278869,0.00254072644748
1970/01/01/01:00:10.668000,528,10,666000000,,-0.576578199863,-0.0463782511652,0.00262316036969
1970/01/01/01:00:10.689000,529,10,688000000,,-0.577505230904,-0.0463248714805,0.00271465489641
1970/01/01/01:00:10.708000,530,10,706000000,,-0.578431129456,-0.0462696664035,0.00280604232103
1970/01/01/01:00:10.731000,531,10,729000000,,-0.579448401928,-0.0462068282068,0.00290644052438
1970/01/01/01:00:10.753000,532,10,746000000,,-0.580279648304,-0.0461537726223,0.00298848142847
1970/01/01/01:00:10.769000,533,10,767000000,,-0.581202089787,-0.046093095094,0.00307952566072
1970/01/01/01:00:10.791000,534,10,786000000,,-0.582123339176,-0.0460305921733,0.00317044835538
1970/01/01/01:00:10.809000,535,10,807000000,,-0.583089292049,-0.045963011682,0.00326578249224
1970/01/01/01:00:10.828000,536,10,828000000,,-0.583962023258,-0.045900143683,0.0033519146964
1970/01/01/01:00:10.852000,537,10,852000000,,-0.585108458996,-0.0458149313927,0.00346506433561
1970/01/01/01:00:10.869000,538,10,868000000,,-0.585841059685,-0.0457589104772,0.00353736826219
1970/01/01/01:00:10.887000,539,10,887000000,,-0.586709797382,-0.0456908866763,0.00362311303616
1970/01/01/01:00:10.909000,540,10,907000000,,-0.587668538094,-0.0456138066947,0.00371773308143
1970/01/01/01:00:10.928000,541,10,926000000,,-0.588534474373,-0.0455423593521,0.00380320264958
1970/01/01/01:00:10.948000,542,10,948000000,,-0.589444577694,-0.0454653985798,0.00389302382246
1970/01/01/01:00:10.967000,543,10,967000000,,-0.590353131294,-0.0453866384923,0.00398269155994
1970/01/01/01:00:10.988000,544,10,986000000,,-0.591260015965,-0.0453060902655,0.00407220190391
1970/01/01/01:00:11.008000,545,11,7000000,,-0.592165350914,-0.0452237538993,0.00416155159473
1970/01/01/01:00:11.027000,546,11,27000000,,-0.593068957329,-0.0451396293938,0.00425073690712
1970/01/01/01:00:11.048000,547,11,46000000,,-0.593970894814,-0.0450537241995,0.00433975458145
1970/01/01/01:00:11.068000,548,11,67000000,,-0.594871103764,-0.0449660383165,0.00442860089242
1970/01/01/01:00:11.087000,549,11,87000000,,-0.595769524574,-0.0448765829206,0.00451727211475
1970/01/01/01:00:11.111000,550,11,113000000,,-0.59693479538,-0.0447576381266,0.00463227787986
1970/01/01/01:00:11.127000,551,11,126000000,,-0.597560942173,-0.0446923524141,0.00469407672063
1970/01/01/01:00:11.148000,552,11,146000000,,-0.598453819752,-0.0445975884795,0.00478220265359
1970/01/01/01:00:11.168000,553,11,167000000,,-0.599389314651,-0.0444961935282,0.00487453164533
1970/01/01/01:00:11.188000,554,11,187000000,,-0.600278258324,-0.0443978235126,0.00496226642281
1970/01/01/01:00:11.210000,555,11,208000000,,-0.601209521294,-0.0442926511168,0.00505417771637
1970/01/01/01:00:11.227000,556,11,226000000,,-0.602005958557,-0.0442009679973,0.00513278366998
1970/01/01/01:00:11.248000,557,11,247000000,,-0.602888941765,-0.0440974421799,0.00521993078291
1970/01/01/01:00:11.268000,558,11,267000000,,-0.60376983881,-0.0439921729267,0.00530687207356
1970/01/01/01:00:11.289000,559,11,288000000,,-0.604692518711,-0.0438797697425,0.00539793493226
1970/01/01/01:00:11.315000,560,11,314000000,,-0.605875313282,-0.0437324494123,0.00551466969773
1970/01/01/01:00:11.331000,561,11,329000000,,-0.606530666351,-0.0436492450535,0.00557935144752
1970/01/01/01:00:11.348000,562,11,346000000,,-0.607271850109,-0.0435537733138,0.00565250776708
1970/01/01/01:00:11.368000,563,11,367000000,,-0.608141839504,-0.0434398651123,0.00573836732656
1970/01/01/01:00:11.386000,564,11,386000000,,-0.609009444714,-0.043324239552,0.00582400057465
1970/01/01/01:00:11.409000,565,11,407000000,,-0.609917998314,-0.0432009957731,0.00591366784647
1970/01/01/01:00:11.428000,566,11,428000000,,-0.610823869705,-0.0430758669972,0.0060030776076
1970/01/01/01:00:11.449000,567,11,448000000,,-0.611641228199,-0.0429610423744,0.00608374690637
1970/01/01/01:00:11.467000,568,11,466000000,,-0.612456381321,-0.0428446866572,0.00616419967264
1970/01/01/01:00:11.489000,569,11,488000000,,-0.613354802132,-0.0427143089473,0.00625286530703
1970/01/01/01:00:11.509000,570,11,507000000,,-0.614207804203,-0.0425884090364,0.00633705640212
1970/01/01/01:00:11.527000,571,11,526000000,,-0.615015804768,-0.0424672476947,0.00641680555418
1970/01/01/01:00:11.548000,572,11,547000000,,-0.615906238556,-0.0423315688968,0.00650468375534
1970/01/01/01:00:11.569000,573,11,566000000,,-0.61670935154,-0.0422072261572,0.00658394861966
1970/01/01/01:00:11.588000,574,11,587000000,,-0.617594242096,-0.0420680455863,0.00667128385976
1970/01/01/01:00:11.610000,575,11,607000000,,-0.618434250355,-0.0419337935746,0.00675419066101
1970/01/01/01:00:11.627000,576,11,627000000,,-0.619229793549,-0.041804715991,0.006832705345
1970/01/01/01:00:11.648000,577,11,646000000,,-0.620064496994,-0.0416672378778,0.00691508920863
1970/01/01/01:00:11.668000,578,11,667000000,,-0.620938003063,-0.0415211170912,0.00700129801407
1970/01/01/01:00:11.687000,579,11,686000000,,-0.621725618839,-0.0413873530924,0.00707903457806
1970/01/01/01:00:11.708000,580,11,707000000,,-0.62255191803,-0.0412449538708,0.00716058956459
1970/01/01/01:00:11.728000,581,11,727000000,,-0.623375415802,-0.0411009304225,0.00724186189473
1970/01/01/01:00:11.746000,582,11,746000000,,-0.624195992947,-0.0409552827477,0.00732284830883
1970/01/01/01:00:11.767000,583,11,767000000,,-0.625013589859,-0.040808018297,0.00740354601294
1970/01/01/01:00:11.790000,584,11,789000000,,-0.625909566879,-0.0406441651285,0.0074919750914
1970/01/01/01:00:11.809000,585,11,808000000,,-0.626720964909,-0.0404935255647,0.00757205532864
1970/01/01/01:00:11.828000,586,11,826000000,,-0.627448618412,-0.0403565838933,0.00764387194067
1970/01/01/01:00:11.848000,587,11,846000000,,-0.628254234791,-0.0402029082179,0.00772338081151
1970/01/01/01:00:11.868000,588,11,868000000,,-0.629096746445,-0.040039844811,0.00780653767288
1970/01/01/01:00:11.887000,589,11,886000000,,-0.629856109619,-0.039890807122,0.00788148213178
1970/01/01/01:00:11.907000,590,11,906000000,,-0.630652368069,-0.0397323928773,0.00796006713063
1970/01/01/01:00:11.927000,591,11,927000000,,-0.631445407867,-0.0395724065602,0.00803833827376
1970/01/01/01:00:11.947000,592,11,947000000,,-0.632274627686,-0.0394027419388,0.00812018103898
1970/01/01/01:00:11.967000,593,11,966000000,,-0.633021831512,-0.0392477586865,0.00819392502308
1970/01/01/01:00:11.986000,594,11,986000000,,-0.633805155754,-0.0390831045806,0.00827123411
1970/01/01/01:00:12.007000,595,12,7000000,,-0.634585142136,-0.0389169119298,0.00834821723402
1970/01/01/01:00:12.028000,596,12,26000000,,-0.635361790657,-0.0387491807342,0.00842487160116
1970/01/01/01:00:12.046000,597,12,46000000,,-0.636135101318,-0.0385799184442,0.00850119255483
1970/01/01/01:00:12.068000,598,12,66000000,,-0.63690495491,-0.0384091325104,0.00857717730105
1970/01/01/01:00:12.090000,599,12,89000000,,-0.637747883797,-0.0382195189595,0.00866037048399
1970/01/01/01:00:12.108000,600,12,106000000,,-0.6384344697,-0.0380630232394,0.00872812978923
1970/01/01/01:00:12.127000,601,12,127000000,,-0.639193952084,-0.0378877110779,0.00880309008062
1970/01/01/01:00:12.147000,602,12,146000000,,-0.639949917793,-0.0377109013498,0.00887770298868
1970/01/01/01:00:12.168000,603,12,167000000,,-0.640702366829,-0.0375326052308,0.00895196571946
1970/01/01/01:00:12.187000,604,12,187000000,,-0.641451239586,-0.0373528264463,0.00902587547898
1970/01/01/01:00:12.207000,605,12,207000000,,-0.64219647646,-0.0371715724468,0.00909942761064
1970/01/01/01:00:12.229000,606,12,227000000,,-0.64293807745,-0.036988850683,0.00917262211442
1970/01/01/01:00:12.249000,607,12,248000000,,-0.643676042557,-0.0368046686053,0.0092454534024
1970/01/01/01:00:12.267000,608,12,267000000,,-0.644410252571,-0.0366190336645,0.00931791961193
1970/01/01/01:00:12.290000,609,12,288000000,,-0.645213603973,-0.036413166672,0.00939720775932
1970/01/01/01:00:12.308000,610,12,306000000,,-0.645867526531,-0.0362434349954,0.0094617465511
1970/01/01/01:00:12.327000,611,12,327000000,,-0.646626532078,-0.0360439531505,0.00953665841371
1970/01/01/01:00:12.348000,612,12,346000000,,-0.647309660912,-0.0358621142805,0.00960407871753
1970/01/01/01:00:12.367000,613,12,366000000,,-0.648024976254,-0.0356693267822,0.0096746776253
1970/01/01/01:00:12.386000,614,12,386000000,,-0.648736417294,-0.0354751311243,0.00974489469081
1970/01/01/01:00:12.416000,615,12,415000000,,-0.649761080742,-0.0351910591125,0.00984602514654
1970/01/01/01:00:12.429000,616,12,427000000,,-0.650182664394,-0.035072658211,0.00988763384521
1970/01/01/01:00:12.446000,617,12,446000000,,-0.650847256184,-0.0348841696978,0.00995322689414
1970/01/01/01:00:12.471000,618,12,470000000,,-0.651681602001,-0.0346443019807,0.0100355735049
1970/01/01/01:00:12.489000,619,12,488000000,,-0.652303576469,-0.0344631075859,0.0100969588384
1970/01/01/01:00:12.507000,620,12,506000000,,-0.652922272682,-0.0342808142304,0.0101580219343
1970/01/01/01:00:12.529000,621,12,528000000,,-0.653674006462,-0.0340565219522,0.0102322129533
1970/01/01/01:00:12.547000,622,12,546000000,,-0.654285371304,-0.0338717959821,0.0102925514802
1970/01/01/01:00:12.567000,623,12,567000000,,-0.654960751534,-0.0336652807891,0.0103592080995
1970/01/01/01:00:12.587000,624,12,586000000,,-0.655631959438,-0.0334574319422,0.0104254558682
1970/01/01/01:00:12.608000,625,12,606000000,,-0.656298995018,-0.0332482643425,0.0104912919924
1970/01/01/01:00:12.627000,626,12,626000000,,-0.656961858273,-0.0330377817154,0.0105567136779
1970/01/01/01:00:12.648000,627,12,648000000,,-0.657653331757,-0.032815374434,0.0106249582022
1970/01/01/01:00:12.668000,628,12,668000000,,-0.658274888992,-0.0326129160821,0.0106863044202
1970/01/01/01:00:12.697000,629,12,696000000,,-0.65924847126,-0.0322908833623,0.0107823917642
1970/01/01/01:00:12.708000,630,12,707000000,,-0.659602999687,-0.0321720838547,0.0108173843473
1970/01/01/01:00:12.729000,631,12,729000000,,-0.66027623415,-0.0319442227483,0.0108838286251
1970/01/01/01:00:12.749000,632,12,748000000,,-0.660912930965,-0.0317259170115,0.0109466686845
1970/01/01/01:00:12.768000,633,12,767000000,,-0.661482214928,-0.0315283685923,0.0110028553754
1970/01/01/01:00:12.788000,634,12,786000000,,-0.662110567093,-0.0313076898456,0.0110648721457
1970/01/01/01:00:12.808000,635,12,807000000,,-0.662734508514,-0.0310857780278,0.0111264521256
1970/01/01/01:00:12.828000,636,12,826000000,,-0.663354039192,-0.0308626368642,0.0111875934526
1970/01/01/01:00:12.847000,637,12,847000000,,-0.663969039917,-0.0306382775307,0.0112482924014
1970/01/01/01:00:12.867000,638,12,866000000,,-0.664579570293,-0.0304127074778,0.0113085471094
1970/01/01/01:00:12.890000,639,12,888000000,,-0.665245890617,-0.0301631949842,0.011374312453
