time,.header.seq,.header.stamp.secs,.header.stamp.nsecs,.header.frame_id,.position,.velocity,.acceleration
1970/01/01/01:00:00.407000,1,0,406000000,,-0.530919551849,0.0467410869896,-0.00188316649292
1970/01/01/01:00:00.427000,2,0,426000000,,-0.529985070229,0.0467025004327,-0.00197539175861
1970/01/01/01:00:00.446000,3,0,446000000,,-0.529051423073,0.0466620735824,-0.00206753937528
1970/01/01/01:00:00.467000,4,0,467000000,,-0.52807199955,0.0466176383197,-0.00216420623474
1970/01/01/01:00:00.486000,5,0,486000000,,-0.527186691761,0.0465756878257,-0.00225158571266
1970/01/01/01:00:00.506000,6,0,506000000,,-0.526255607605,0.0465297400951,-0.00234347744845
1970/01/01/01:00:00.526000,7,0,526000000,,-0.525325477123,0.0464819520712,-0.00243527651764
1970/01/01/01:00:00.547000,8,0,547000000,,-0.524349927902,0.046429798007,-0.00253156223334
1970/01/01/01:00:00.567000,9,0,567000000,,-0.523421823978,0.0463782511652,-0.00262316036969
1970/01/01/01:00:00.587000,10,0,586000000,,-0.522541105747,0.0463275834918,-0.00271008280106
1970/01/01/01:00:00.606000,11,0,606000000,,-0.521615087986,0.0462724678218,-0.00280147558078
1970/01/01/01:00:00.626000,12,0,626000000,,-0.520690262318,0.0462155267596,-0.00289275799878
1970/01/01/01:00:00.647000,13,0,646000000,,-0.519766509533,0.0461567603052,-0.0029839258641
1970/01/01/01:00:00.666000,14,0,666000000,,-0.518843948841,0.0460961721838,-0.00307497638278
1970/01/01/01:00:00.686000,15,0,686000000,,-0.517922699451,0.0460337623954,-0.00316590513103
1970/01/01/01:00:00.706000,16,0,706000000,,-0.517002642155,0.0459695346653,-0.00325670908205
1970/01/01/01:00:00.727000,17,0,726000000,,-0.51608389616,0.0459034927189,-0.00334738451056
1970/01/01/01:00:00.746000,18,0,746000000,,-0.515166521072,0.0458356402814,-0.00343792769127
1970/01/01/01:00:00.767000,19,0,766000000,,-0.514250516891,0.0457659773529,-0.0035283351317
1970/01/01/01:00:00.786000,20,0,786000000,,-0.513335883617,0.0456945076585,-0.00361860333942
1970/01/01/01:00:00.807000,21,0,807000000,,-0.512422740459,0.0456212349236,-0.00370872858912
1970/01/01/01:00:00.826000,22,0,826000000,,-0.511511027813,0.0455461591482,-0.00379870738834
1970/01/01/01:00:00.847000,23,0,846000000,,-0.510600864887,0.0454692877829,-0.00388853647746
1970/01/01/01:00:00.866000,24,0,866000000,,-0.509692311287,0.0453906208277,-0.00397821189836
1970/01/01/01:00:00.887000,25,0,887000000,,-0.508739948273,0.0453060902655,-0.00407220190391
1970/01/01/01:00:00.907000,26,0,907000000,,-0.507879912853,0.0452279113233,-0.0041570882313
1970/01/01/01:00:00.926000,27,0,926000000,,-0.506976187229,0.0451438762248,-0.00424628192559
1970/01/01/01:00:00.947000,28,0,947000000,,-0.506029069424,0.0450537241995,-0.00433975458145
1970/01/01/01:00:00.967000,29,0,966000000,,-0.50517386198,0.0449704676867,-0.0044241626747
1970/01/01/01:00:00.987000,30,0,986000000,,-0.50427532196,0.0448810979724,-0.00451284274459
1970/01/01/01:00:01.006000,31,1,6000000,,-0.503378629684,0.04478995502,-0.00460134493187
1970/01/01/01:00:01.027000,32,1,27000000,,-0.502439081669,0.0446923524141,-0.00469407672063
1970/01/01/01:00:01.047000,33,1,46000000,,-0.50159072876,0.044602368027,-0.00477780075744
1970/01/01/01:00:01.067000,34,1,67000000,,-0.500699698925,0.044505931437,-0.0048657474108
1970/01/01/01:00:01.088000,35,1,87000000,,-0.499810546637,0.0444077402353,-0.00495350174606
1970/01/01/01:00:01.106000,36,1,106000000,,-0.498923361301,0.0443077944219,-0.00504106096923
1970/01/01/01:00:01.126000,37,1,126000000,,-0.498038232327,0.0442060977221,-0.00512842088938
1970/01/01/01:00:01.148000,38,1,147000000,,-0.497111052275,0.0440974421799,-0.00521993078291
1970/01/01/01:00:01.167000,39,1,166000000,,-0.496274143457,0.04399747774,-0.00530253024772
1970/01/01/01:00:01.187000,40,1,187000000,,-0.495395243168,0.0438905581832,-0.00538927223533
1970/01/01/01:00:01.207000,41,1,206000000,,-0.494518518448,0.0437819063663,-0.0054758018814
1970/01/01/01:00:01.227000,42,1,226000000,,-0.4936439991,0.0436715297401,-0.00556211546063
1970/01/01/01:00:01.247000,43,1,247000000,,-0.492771685123,0.0435594245791,-0.00564820924774
1970/01/01/01:00:01.267000,44,1,267000000,,-0.491858184338,0.0434398651123,-0.00573836732656
1970/01/01/01:00:01.287000,45,1,287000000,,-0.4910338521,0.0433300621808,-0.00581972440705
1970/01/01/01:00:01.307000,46,1,306000000,,-0.490168422461,0.0432128123939,-0.00590513879433
1970/01/01/01:00:01.327000,47,1,326000000,,-0.489305377007,0.0430938601494,-0.00599032035097
1970/01/01/01:00:01.346000,48,1,346000000,,-0.488444685936,0.0429732017219,-0.00607526535168
1970/01/01/01:00:01.367000,49,1,366000000,,-0.487586438656,0.0428508482873,-0.00615997100249
1970/01/01/01:00:01.387000,50,1,386000000,,-0.486730664968,0.042726803571,-0.00624443264678
1970/01/01/01:00:01.407000,51,1,407000000,,-0.485834777355,0.0425947420299,-0.00633285241202
1970/01/01/01:00:01.427000,52,1,427000000,,-0.485026627779,0.0424736626446,-0.00641261413693
1970/01/01/01:00:01.447000,53,1,446000000,,-0.484178453684,0.0423445701599,-0.00649632653221
1970/01/01/01:00:01.467000,54,1,466000000,,-0.483332872391,0.0422138087451,-0.00657978234813
1970/01/01/01:00:01.486000,55,1,486000000,,-0.482489913702,0.0420813821256,-0.0066629787907
1970/01/01/01:00:01.507000,56,1,507000000,,-0.48164960742,0.0419472940266,-0.00674591213465
1970/01/01/01:00:01.526000,57,1,526000000,,-0.480812042952,0.0418115481734,-0.00682857912034
1970/01/01/01:00:01.547000,58,1,546000000,,-0.479977160692,0.0416741520166,-0.00691097648814
1970/01/01/01:00:01.567000,59,1,566000000,,-0.479145079851,0.0415351092815,-0.00699310097843
1970/01/01/01:00:01.586000,60,1,586000000,,-0.478315770626,0.0413944274187,-0.00707494933158
1970/01/01/01:00:01.609000,61,1,609000000,,-0.477365583181,0.0412306264043,-0.00716872978956
1970/01/01/01:00:01.627000,62,1,626000000,,-0.476665705442,0.0411081686616,-0.00723780505359
1970/01/01/01:00:01.646000,63,1,646000000,,-0.475844979286,0.0409626029432,-0.0073188059032
1970/01/01/01:00:01.667000,64,1,666000000,,-0.47502720356,0.0408154204488,-0.0073995180428
1970/01/01/01:00:01.687000,65,1,686000000,,-0.474212378263,0.0406666249037,-0.00747993774712
1970/01/01/01:00:01.707000,66,1,706000000,,-0.473400563002,0.0405162237585,-0.00756006222218
1970/01/01/01:00:01.727000,67,1,727000000,,-0.472551375628,0.0403565838933,-0.00764387194067
1970/01/01/01:00:01.746000,68,1,746000000,,-0.471785992384,0.0402106307447,-0.00771941291168
1970/01/01/01:00:01.767000,69,1,766000000,,-0.470983326435,0.040055450052,-0.00779863260686
1970/01/01/01:00:01.787000,70,1,787000000,,-0.47018378973,0.039898686111,-0.00787754449993
1970/01/01/01:00:01.807000,71,1,807000000,,-0.469387382269,0.0397403500974,-0.00795614533126
1970/01/01/01:00:01.827000,72,1,826000000,,-0.468594193459,0.0395804420114,-0.00803443230689
1970/01/01/01:00:01.846000,73,1,846000000,,-0.467804193497,0.0394189730287,-0.00811240170151
1970/01/01/01:00:01.867000,74,1,866000000,,-0.467017441988,0.0392559505999,-0.00819005072117
1970/01/01/01:00:01.886000,75,1,886000000,,-0.466233968735,0.0390913747251,-0.00826737657189
1970/01/01/01:00:01.906000,76,1,906000000,,-0.465453803539,0.0389252565801,-0.00834437645972
1970/01/01/01:00:01.927000,77,1,927000000,,-0.464676946402,0.0387576036155,-0.00842104665935
1970/01/01/01:00:01.947000,78,1,947000000,,-0.463864922523,0.0385799184442,-0.00850119255483
1970/01/01/01:00:01.967000,79,1,966000000,,-0.46313342452,0.0384177081287,-0.00857338681817
1970/01/01/01:00:01.987000,80,1,986000000,,-0.462366789579,0.0382454842329,-0.0086490502581
1970/01/01/01:00:02.007000,81,2,7000000,,-0.461603611708,0.0380717478693,-0.00872437283397
1970/01/01/01:00:02.027000,82,2,26000000,,-0.46084395051,0.0378965102136,-0.00879935082048
1970/01/01/01:00:02.046000,83,2,46000000,,-0.460087776184,0.0377197787166,-0.00887398142368
1970/01/01/01:00:02.067000,84,2,66000000,,-0.459335148335,0.0375415533781,-0.00894826091826
1970/01/01/01:00:02.087000,85,2,86000000,,-0.458586126566,0.0373618490994,-0.00902218837291
1970/01/01/01:00:02.107000,86,2,107000000,,-0.45780351758,0.0371715724468,-0.00909942761064
1970/01/01/01:00:02.127000,87,2,127000000,,-0.45706191659,0.036988850683,-0.00917262211442
1970/01/01/01:00:02.146000,88,2,146000000,,-0.456360787153,0.0368139110506,-0.00924182031304
1970/01/01/01:00:02.167000,89,2,167000000,,-0.455626368523,0.0366283506155,-0.00931430514902
1970/01/01/01:00:02.186000,90,2,186000000,,-0.45489564538,0.0364413447678,-0.00938642211258
1970/01/01/01:00:02.206000,91,2,206000000,,-0.454168707132,0.0362528972328,-0.00945816840976
1970/01/01/01:00:02.227000,92,2,227000000,,-0.45340949297,0.0360534861684,-0.00953310076147
1970/01/01/01:00:02.247000,93,2,246000000,,-0.452726215124,0.0358717180789,-0.00960053876042
1970/01/01/01:00:02.267000,94,2,266000000,,-0.452010691166,0.0356790013611,-0.00967115722597
1970/01/01/01:00:02.286000,95,2,286000000,,-0.45129904151,0.0354848727584,-0.00974139291793
1970/01/01/01:00:02.311000,96,2,311000000,,-0.450414985418,0.0352402478456,-0.00982864759862
1970/01/01/01:00:02.327000,97,2,327000000,,-0.449852406979,0.0350825451314,-0.0098841721192
1970/01/01/01:00:02.347000,98,2,347000000,,-0.449187606573,0.0348941199481,-0.00994978286326
1970/01/01/01:00:02.367000,99,2,366000000,,-0.448491722345,0.0346944369376,-0.0100184641778
1970/01/01/01:00:02.387000,100,2,386000000,,-0.447799861431,0.0344933867455,-0.0100867506117
1970/01/01/01:00:02.407000,101,2,407000000,,-0.447111994028,0.0342909693718,-0.0101546384394
1970/01/01/01:00:02.427000,102,2,426000000,,-0.446428209543,0.0340872034431,-0.0102221248671
1970/01/01/01:00:02.447000,103,2,446000000,,-0.445748537779,0.0338820889592,-0.0102892080322
1970/01/01/01:00:02.467000,104,2,466000000,,-0.445072948933,0.0336756370962,-0.0103558851406
1970/01/01/01:00:02.487000,105,2,486000000,,-0.444401502609,0.0334678553045,-0.0104221533984
1970/01/01/01:00:02.508000,106,2,507000000,,-0.443700999022,0.0332482643425,-0.0104912919924
1970/01/01/01:00:02.527000,107,2,526000000,,-0.44307115674,0.0330483391881,-0.0105534531176
1970/01/01/01:00:02.548000,108,2,547000000,,-0.44237947464,0.0328259989619,-0.0106217190623
1970/01/01/01:00:02.568000,109,2,566000000,,-0.441757708788,0.0326236002147,-0.0106830857694
1970/01/01/01:00:02.587000,110,2,586000000,,-0.441107392311,0.0324092954397,-0.0107472706586
1970/01/01/01:00:02.609000,111,2,608000000,,-0.440396994352,0.0321720838547,-0.0108173843473
1970/01/01/01:00:02.628000,112,2,627000000,,-0.439787656069,0.0319659821689,-0.0108775207773
1970/01/01/01:00:02.646000,113,2,646000000,,-0.439182281494,0.0317587405443,-0.0109372707084
1970/01/01/01:00:02.668000,114,2,667000000,,-0.438549309969,0.0315393693745,-0.0109997428954
1970/01/01/01:00:02.687000,115,2,687000000,,-0.437920719385,0.0313187539577,-0.0110617820174
1970/01/01/01:00:02.707000,116,2,707000000,,-0.437296569347,0.0310969017446,-0.0111233834177
1970/01/01/01:00:02.727000,117,2,726000000,,-0.436676859856,0.0308738220483,-0.0111845470965
1970/01/01/01:00:02.746000,118,2,746000000,,-0.436061620712,0.0306495241821,-0.011245268397
1970/01/01/01:00:02.766000,119,2,766000000,,-0.43545088172,0.0304240137339,-0.0113055454567
1970/01/01/01:00:02.787000,120,2,786000000,,-0.43484467268,0.0301973056048,-0.0113653764129
1970/01/01/01:00:02.807000,121,2,806000000,,-0.434242993593,0.0299694016576,-0.0114247584715
1970/01/01/01:00:02.827000,122,2,826000000,,-0.433645904064,0.0297403167933,-0.0114836897701
1970/01/01/01:00:02.847000,123,2,846000000,,-0.43305337429,0.0295100584626,-0.0115421684459
1970/01/01/01:00:02.867000,124,2,867000000,,-0.432465493679,0.0292786341161,-0.0116001907736
1970/01/01/01:00:02.887000,125,2,886000000,,-0.43188226223,0.0290460530668,-0.0116577548906
1970/01/01/01:00:02.907000,126,2,906000000,,-0.431303650141,0.0288123264909,-0.0117148589343
1970/01/01/01:00:02.928000,127,2,927000000,,-0.430701196194,0.0285656899214,-0.0117743201554
1970/01/01/01:00:02.947000,128,2,947000000,,-0.430160582066,0.0283414702863,-0.0118276774883
1970/01/01/01:00:02.967000,129,2,967000000,,-0.42956802249,0.0280924737453,-0.0118861608207
1970/01/01/01:00:02.988000,130,2,986000000,,-0.429036408663,0.0278661381453,-0.0119386278093
1970/01/01/01:00:03.007000,131,3,6000000,,-0.428481459618,0.0276268161833,-0.0119933979586
1970/01/01/01:00:03.027000,132,3,27000000,,-0.427931338549,0.0273864045739,-0.0120476940647
1970/01/01/01:00:03.048000,133,3,48000000,,-0.427331745625,0.0271207038313,-0.0121068703011
1970/01/01/01:00:03.067000,134,3,66000000,,-0.426845550537,0.0269023478031,-0.0121548566967
1970/01/01/01:00:03.087000,135,3,87000000,,-0.426283299923,0.0266465116292,-0.0122103504837
1970/01/01/01:00:03.107000,136,3,106000000,,-0.425779223442,0.0264140423387,-0.0122601008043
1970/01/01/01:00:03.127000,137,3,126000000,,-0.425253391266,0.026168320328,-0.0123119978234
1970/01/01/01:00:03.147000,138,3,146000000,,-0.424732476473,0.0259215645492,-0.0123634086922
1970/01/01/01:00:03.166000,139,3,166000000,,-0.424216538668,0.0256737861782,-0.0124143315479
1970/01/01/01:00:03.187000,140,3,186000000,,-0.423705548048,0.0254249945283,-0.0124647635967
1970/01/01/01:00:03.207000,141,3,206000000,,-0.423199534416,0.0251751989126,-0.0125147039071
1970/01/01/01:00:03.227000,142,3,226000000,,-0.422698527575,0.0249244105071,-0.0125641506165
1970/01/01/01:00:03.247000,143,3,246000000,,-0.422202557325,0.0246726367623,-0.012613100931
1970/01/01/01:00:03.266000,144,3,266000000,,-0.421711623669,0.024419888854,-0.0126615539193
1970/01/01/01:00:03.287000,145,3,286000000,,-0.421225786209,0.0241661779583,-0.0127095067874
1970/01/01/01:00:03.306000,146,3,306000000,,-0.420744985342,0.0239115115255,-0.0127569576725
1970/01/01/01:00:03.327000,147,3,327000000,,-0.420245677233,0.0236430969089,-0.0128062386066
1970/01/01/01:00:03.347000,148,3,347000000,,-0.419798761606,0.0233993586153,-0.012850346975
1970/01/01/01:00:03.367000,149,3,367000000,,-0.419333338737,0.0231418926269,-0.0128962807357
1970/01/01/01:00:03.387000,150,3,386000000,,-0.418873101473,0.0228835120797,-0.0129417069256
1970/01/01/01:00:03.406000,151,3,406000000,,-0.41841802001,0.0226242281497,-0.0129866208881
1970/01/01/01:00:03.426000,152,3,426000000,,-0.417968124151,0.0223640501499,-0.0130310226232
1970/01/01/01:00:03.448000,153,3,446000000,,-0.417523473501,0.0221029892564,-0.0130749102682
1970/01/01/01:00:03.467000,154,3,467000000,,-0.417084008455,0.0218410566449,-0.0131182810292
1970/01/01/01:00:03.486000,155,3,486000000,,-0.41664981842,0.0215782616287,-0.0131611349061
1970/01/01/01:00:03.507000,156,3,507000000,,-0.416199594736,0.0213014110923,-0.0132055711001
1970/01/01/01:00:03.527000,157,3,527000000,,-0.415776193142,0.0210368800908,-0.0132473576814
1970/01/01/01:00:03.547000,158,3,547000000,,-0.415378898382,0.0207848083228,-0.0132865700871
1970/01/01/01:00:03.567000,159,3,566000000,,-0.414965867996,0.0205186679959,-0.0133273350075
1970/01/01/01:00:03.587000,160,3,586000000,,-0.414558142424,0.0202517174184,-0.013367574662
1970/01/01/01:00:03.607000,161,3,606000000,,-0.414155811071,0.0199839677662,-0.0134072853252
1970/01/01/01:00:03.627000,162,3,626000000,,-0.413758814335,0.019715430215,-0.0134464669973
1970/01/01/01:00:03.647000,163,3,646000000,,-0.413367182016,0.0194461122155,-0.0134851187468
1970/01/01/01:00:03.668000,164,3,666000000,,-0.412980973721,0.0191760286689,-0.0135232368484
1970/01/01/01:00:03.688000,165,3,687000000,,-0.412581264973,0.0188916251063,-0.0135626867414
1970/01/01/01:00:03.707000,166,3,707000000,,-0.412224769592,0.0186335984617,-0.0135978711769
1970/01/01/01:00:03.727000,167,3,726000000,,-0.411854803562,0.0183612760156,-0.0136343836784
1970/01/01/01:00:03.747000,168,3,747000000,,-0.411490321159,0.0180882271379,-0.0136703578755
1970/01/01/01:00:03.766000,169,3,766000000,,-0.411131292582,0.0178144648671,-0.0137057928368
1970/01/01/01:00:03.786000,170,3,786000000,,-0.410777747631,0.0175400003791,-0.0137406866997
1970/01/01/01:00:03.806000,171,3,806000000,,-0.410429686308,0.0172648411244,-0.0137750376016
1970/01/01/01:00:03.827000,172,3,826000000,,-0.410087138414,0.0169890020043,-0.013808844611
1970/01/01/01:00:03.848000,173,3,847000000,,-0.40973341465,0.0166986491531,-0.0138437552378
1970/01/01/01:00:03.867000,174,3,866000000,,-0.409418642521,0.0164353214204,-0.0138748222962
1970/01/01/01:00:03.887000,175,3,886000000,,-0.409092724323,0.0161575023085,-0.0139069901779
1970/01/01/01:00:03.907000,176,3,906000000,,-0.408772349358,0.0158790443093,-0.0139386095107
1970/01/01/01:00:03.927000,177,3,926000000,,-0.408457577229,0.0155999613926,-0.0139696784317
1970/01/01/01:00:03.947000,178,3,946000000,,-0.408148378134,0.0153202619404,-0.0140001950786
1970/01/01/01:00:03.967000,179,3,966000000,,-0.407844752073,0.0150399571285,-0.0140301594511
1970/01/01/01:00:03.986000,180,3,986000000,,-0.407546758652,0.0147590590641,-0.014059570618
1970/01/01/01:00:04.006000,181,4,6000000,,-0.407254397869,0.0144775779918,-0.0140884257853
1970/01/01/01:00:04.026000,182,4,26000000,,-0.406967669725,0.0141955260187,-0.0141167249531
1970/01/01/01:00:04.047000,183,4,46000000,,-0.406686574221,0.0139129124582,-0.0141444671899
1970/01/01/01:00:04.067000,184,4,67000000,,-0.406397521496,0.013615578413,-0.014172995463
1970/01/01/01:00:04.086000,185,4,86000000,,-0.406141400337,0.0133460508659,-0.0141982743517
1970/01/01/01:00:04.107000,186,4,107000000,,-0.405877321959,0.0130618233234,-0.0142243383452
1970/01/01/01:00:04.127000,187,4,127000000,,-0.405618935823,0.0127770807594,-0.0142498407513
1970/01/01/01:00:04.146000,188,4,146000000,,-0.405366241932,0.0124918334186,-0.0142747797072
1970/01/01/01:00:04.166000,189,4,166000000,,-0.405119270086,0.0122060934082,-0.0142991561443
1970/01/01/01:00:04.187000,190,4,186000000,,-0.404877990484,0.0119198709726,-0.0143229672685
1970/01/01/01:00:04.206000,191,4,206000000,,-0.40464246273,0.0116331782192,-0.01434621308
1970/01/01/01:00:04.227000,192,4,226000000,,-0.404412686825,0.0113460263237,-0.0143688926473
1970/01/01/01:00:04.246000,193,4,246000000,,-0.404188632965,0.0110584264621,-0.0143910050392
1970/01/01/01:00:04.267000,194,4,267000000,,-0.403959572315,0.010755976662,-0.0144136119634
1970/01/01/01:00:04.287000,195,4,286000000,,-0.403757810593,0.0104819284752,-0.0144335245714
1970/01/01/01:00:04.306000,196,4,306000000,,-0.403551071882,0.0101930527017,-0.014453929849
1970/01/01/01:00:04.327000,197,4,326000000,,-0.40335008502,0.00990377459675,-0.0144737651572
1970/01/01/01:00:04.347000,198,4,346000000,,-0.403154909611,0.00961410626769,-0.0144930286333
1970/01/01/01:00:04.367000,199,4,367000000,,-0.402965545654,0.0093240570277,-0.0145117202774
1970/01/01/01:00:04.387000,200,4,386000000,,-0.402781963348,0.00903364084661,-0.0145298382267
1970/01/01/01:00:04.407000,201,4,406000000,,-0.402604192495,0.00874286796898,-0.0145473834127
1970/01/01/01:00:04.427000,202,4,426000000,,-0.402432233095,0.00845174957067,-0.0145643530414
1970/01/01/01:00:04.447000,203,4,447000000,,-0.402257978916,0.00814571604133,-0.014581553638
1970/01/01/01:00:04.466000,204,4,466000000,,-0.40210583806,0.00786852370948,-0.0145965684205
1970/01/01/01:00:04.487000,205,4,486000000,,-0.401951372623,0.00757643859833,-0.0146118123084
1970/01/01/01:00:04.507000,206,4,506000000,,-0.401802778244,0.00728405453265,-0.0146264787763
1970/01/01/01:00:04.527000,207,4,526000000,,-0.40166002512,0.00699138315395,-0.0146405687556
1970/01/01/01:00:04.547000,208,4,546000000,,-0.401523113251,0.0066984356381,-0.0146540794522
1970/01/01/01:00:04.577000,209,4,577000000,,-0.401322513819,0.00624384870753,-0.0146738793701
1970/01/01/01:00:04.587000,210,4,586000000,,-0.401266932487,0.00611175922677,-0.0146793667227
1970/01/01/01:00:04.607000,211,4,606000000,,-0.401147633791,0.00581805314869,-0.0146911405027
1970/01/01/01:00:04.627000,212,4,627000000,,-0.401028692722,0.0055094147101,-0.0147028798237
1970/01/01/01:00:04.647000,213,4,646000000,,-0.40092664957,0.00522996345535,-0.0147129492834
1970/01/01/01:00:04.667000,214,4,667000000,,-0.400824993849,0.00493560312316,-0.0147229824215
1970/01/01/01:00:04.687000,215,4,687000000,,-0.400729238987,0.00464104814455,-0.014732433483
1970/01/01/01:00:04.707000,216,4,706000000,,-0.400639355183,0.00434630969539,-0.0147413043305
1970/01/01/01:00:04.727000,217,4,727000000,,-0.400555372238,0.00405139988288,-0.0147495921701
1970/01/01/01:00:04.749000,218,4,747000000,,-0.400473564863,0.0037415723782,-0.0147576685995
1970/01/01/01:00:04.767000,219,4,767000000,,-0.400405138731,0.00346111180261,-0.0147644216195
1970/01/01/01:00:04.787000,220,4,786000000,,-0.400338858366,0.00316575705074,-0.0147709622979
1970/01/01/01:00:04.807000,221,4,806000000,,-0.400278508663,0.00287027726881,-0.0147769190371
1970/01/01/01:00:04.827000,222,4,826000000,,-0.40022405982,0.00257468409836,-0.0147822936997
1970/01/01/01:00:04.847000,223,4,847000000,,-0.400173246861,0.00226420210674,-0.0147873079404
1970/01/01/01:00:04.868000,224,4,868000000,,-0.400130927563,0.00196841312572,-0.0147914858535
1970/01/01/01:00:04.887000,225,4,887000000,,-0.400096178055,0.00168734160252,-0.0147949131206
1970/01/01/01:00:04.907000,226,4,906000000,,-0.400065392256,0.00139141199179,-0.0147979520261
1970/01/01/01:00:04.927000,227,4,926000000,,-0.400040537119,0.00109542743303,-0.0148004060611
1970/01/01/01:00:04.948000,228,4,946000000,,-0.400021582842,0.000799399625976,-0.0148022761568
1970/01/01/01:00:04.967000,229,4,966000000,,-0.400008559227,0.00050334027037,-0.0148035623133
1970/01/01/01:00:04.988000,230,4,987000000,,-0.400001257658,0.000192456747754,-0.014804283157
1970/01/01/01:00:05.007000,231,5,6000000,,-0.400000274181,-8.88263894012e-05,-0.0148043800145
1970/01/01/01:00:05.027000,232,5,27000000,,-0.400005012751,-0.000384910294088,-0.0148039124906
1970/01/01/01:00:05.049000,233,5,48000000,,-0.400017052889,-0.000710584572516,-0.0148027231917
1970/01/01/01:00:05.067000,234,5,67000000,,-0.40003323555,-0.000991821987554,-0.0148011269048
1970/01/01/01:00:05.089000,235,5,88000000,,-0.400057315826,-0.001302621793,-0.0147987492383
1970/01/01/01:00:05.106000,236,5,106000000,,-0.40008315444,-0.00156897702254,-0.0147961983457
1970/01/01/01:00:05.127000,237,5,127000000,,-0.400119364262,-0.00187966087833,-0.014792624861
1970/01/01/01:00:05.147000,238,5,147000000,,-0.400157749653,-0.00216068560258,-0.0147888362408
1970/01/01/01:00:05.168000,239,5,167000000,,-0.400206387043,-0.0024712018203,-0.0147840362042
1970/01/01/01:00:05.187000,240,5,186000000,,-0.40025600791,-0.00275205285288,-0.0147791393101
1970/01/01/01:00:05.208000,241,5,207000000,,-0.400317072868,-0.00306235253811,-0.0147731136531
1970/01/01/01:00:05.227000,242,5,226000000,,-0.400377929211,-0.00334298564121,-0.0147671075538
1970/01/01/01:00:05.247000,243,5,246000000,,-0.40044772625,-0.00363825983368,-0.0147602176294
1970/01/01/01:00:05.268000,244,5,267000000,,-0.400523453951,-0.00393339060247,-0.014752744697
1970/01/01/01:00:05.287000,245,5,286000000,,-0.40060505271,-0.00422836560756,-0.0147446896881
1970/01/01/01:00:05.307000,246,5,306000000,,-0.40069258213,-0.00452317390591,-0.0147360516712
1970/01/01/01:00:05.327000,247,5,327000000,,-0.400785982609,-0.00481780385599,-0.014726832509
1970/01/01/01:00:05.347000,248,5,346000000,,-0.400885283947,-0.0051122433506,-0.0147170322016
1970/01/01/01:00:05.367000,249,5,366000000,,-0.400990486145,-0.00540648121387,-0.0147066507488
1970/01/01/01:00:05.386000,250,5,386000000,,-0.401101559401,-0.00570050580427,-0.0146956881508
1970/01/01/01:00:05.407000,251,5,406000000,,-0.401218503714,-0.00599430501461,-0.0146841462702
1970/01/01/01:00:05.427000,252,5,426000000,,-0.401341319084,-0.00628786766902,-0.0146720241755
1970/01/01/01:00:05.447000,253,5,447000000,,-0.401470005512,-0.00658118212596,-0.0146593227983
1970/01/01/01:00:05.467000,254,5,466000000,,-0.401604562998,-0.0068742367439,-0.0146460421383
1970/01/01/01:00:05.486000,255,5,486000000,,-0.401744991541,-0.00716701988131,-0.0146321840584
1970/01/01/01:00:05.507000,256,5,506000000,,-0.401891231537,-0.00745952036232,-0.0146177485585
1970/01/01/01:00:05.529000,257,5,528000000,,-0.402058899403,-0.00778093002737,-0.0146012026817
1970/01/01/01:00:05.549000,258,5,549000000,,-0.402217417955,-0.00807279814035,-0.0145855555311
1970/01/01/01:00:05.567000,259,5,566000000,,-0.402365088463,-0.00833520758897,-0.0145709803328
1970/01/01/01:00:05.588000,260,5,586000000,,-0.402534723282,-0.00862646102905,-0.0145542398095
1970/01/01/01:00:05.607000,261,5,606000000,,-0.402710169554,-0.00891737360507,-0.0145369246602
1970/01/01/01:00:05.627000,262,5,626000000,,-0.402891397476,-0.00920793414116,-0.0145190358162
1970/01/01/01:00:05.647000,263,5,647000000,,-0.403078466654,-0.00949813146144,-0.0145005742088
1970/01/01/01:00:05.667000,264,5,666000000,,-0.403271317482,-0.00978795345873,-0.0144815389067
1970/01/01/01:00:05.690000,265,5,687000000,,-0.40348008275,-0.0100918505341,-0.01446093712
1970/01/01/01:00:05.720000,266,5,719000000,,-0.403810411692,-0.0105540826917,-0.0144283343107
1970/01/01/01:00:05.727000,267,5,727000000,,-0.403895288706,-0.0106694763526,-0.0144199561328
1970/01/01/01:00:05.747000,268,5,746000000,,-0.404100626707,-0.0109432637691,-0.0143996914849
1970/01/01/01:00:05.767000,269,5,767000000,,-0.404322355986,-0.0112310396507,-0.0143778063357
1970/01/01/01:00:05.788000,270,5,787000000,,-0.404561400414,-0.0115327266976,-0.0143542159349
1970/01/01/01:00:05.807000,271,5,806000000,,-0.40478309989,-0.0118052493781,-0.0143323335797
1970/01/01/01:00:05.827000,272,5,826000000,,-0.405022054911,-0.0120916618034,-0.0143087478355
1970/01/01/01:00:05.848000,273,5,847000000,,-0.405279159546,-0.0123918801546,-0.0142833758146
1970/01/01/01:00:05.868000,274,5,867000000,,-0.40552982688,-0.0126773007214,-0.0142586333677
1970/01/01/01:00:05.888000,275,5,887000000,,-0.405786246061,-0.012962221168,-0.014233328402
1970/01/01/01:00:05.908000,276,5,906000000,,-0.406035095453,-0.0132324220613,-0.0142087675631
1970/01/01/01:00:05.926000,277,5,926000000,,-0.406302571297,-0.0135163348168,-0.0141823673621
1970/01/01/01:00:05.946000,278,5,946000000,,-0.406575739384,-0.0137997129932,-0.0141554074362
1970/01/01/01:00:05.967000,279,5,967000000,,-0.406854569912,-0.0140825472772,-0.0141278887168
1970/01/01/01:00:05.991000,280,5,987000000,,-0.407153397799,-0.0143789239228,-0.0140983937308
1970/01/01/01:00:06.007000,281,6,7000000,,-0.407429158688,-0.0146465357393,-0.0140711786225
1970/01/01/01:00:06.029000,282,6,29000000,,-0.407769739628,-0.0149697875604,-0.0140375643969
1970/01/01/01:00:06.047000,283,6,46000000,,-0.408026248217,-0.0152082117274,-0.014012247324
1970/01/01/01:00:06.068000,284,6,67000000,,-0.408348709345,-0.0155021362007,-0.013980422169
1970/01/01/01:00:06.088000,285,6,87000000,,-0.408661544323,-0.0157814361155,-0.0139495460317
1970/01/01/01:00:06.108000,286,6,106000000,,-0.408963918686,-0.0160461943597,-0.0139197036624
1970/01/01/01:00:06.127000,287,6,126000000,,-0.409287631512,-0.0163242705166,-0.0138877555728
1970/01/01/01:00:06.149000,288,6,148000000,,-0.409650117159,-0.016629409045,-0.0138519788161
1970/01/01/01:00:06.167000,289,6,166000000,,-0.409951686859,-0.016878478229,-0.0138222146779
1970/01/01/01:00:06.187000,290,6,187000000,,-0.410291999578,-0.0171545874327,-0.013788625598
1970/01/01/01:00:06.207000,291,6,206000000,,-0.41063785553,-0.0174300186336,-0.0137544916943
1970/01/01/01:00:06.228000,292,6,227000000,,-0.410989195108,-0.0177047625184,-0.0137198148295
1970/01/01/01:00:06.247000,293,6,247000000,,-0.411346048117,-0.0179788079113,-0.0136845968664
1970/01/01/01:00:06.267000,294,6,266000000,,-0.41170835495,-0.0182521436363,-0.0136488378048
1970/01/01/01:00:06.287000,295,6,286000000,,-0.412076115608,-0.0185247585177,-0.0136125404388
1970/01/01/01:00:06.307000,296,6,306000000,,-0.412449330091,-0.0187966413796,-0.0135757056996
1970/01/01/01:00:06.326000,297,6,326000000,,-0.4128279984,-0.0190677829087,-0.01353833545
1970/01/01/01:00:06.347000,298,6,347000000,,-0.413212060928,-0.0193381700665,-0.0135004296899
1970/01/01/01:00:06.367000,299,6,367000000,,-0.413601517677,-0.0196077954024,-0.0134619912133
1970/01/01/01:00:06.387000,300,6,386000000,,-0.413996368647,-0.0198766477406,-0.0134230218828
1970/01/01/01:00:06.408000,301,6,407000000,,-0.414396584034,-0.0201447140425,-0.0133835216984
1970/01/01/01:00:06.427000,302,6,426000000,,-0.414802134037,-0.020411984995,-0.0133434943855
1970/01/01/01:00:06.447000,303,6,446000000,,-0.415213048458,-0.0206784494221,-0.0133029390126
1970/01/01/01:00:06.467000,304,6,466000000,,-0.415629267693,-0.0209440980107,-0.0132618593052
1970/01/01/01:00:06.487000,305,6,487000000,,-0.41605079174,-0.0212089195848,-0.0132202561945
1970/01/01/01:00:06.508000,306,6,507000000,,-0.416499108076,-0.0214860830456,-0.0131760109216
1970/01/01/01:00:06.528000,307,6,527000000,,-0.416909724474,-0.021736042574,-0.0131354844198
1970/01/01/01:00:06.547000,308,6,546000000,,-0.417347043753,-0.0219983216375,-0.0130923204124
1970/01/01/01:00:06.567000,309,6,567000000,,-0.417789638042,-0.0222597308457,-0.013048639521
1970/01/01/01:00:06.586000,310,6,586000000,,-0.418237447739,-0.022520262748,-0.0130044436082
1970/01/01/01:00:06.608000,311,6,607000000,,-0.418690443039,-0.0227799061686,-0.0129597336054
1970/01/01/01:00:06.628000,312,6,627000000,,-0.419148623943,-0.0230386499316,-0.0129145123065
1970/01/01/01:00:06.649000,313,6,647000000,,-0.419611990452,-0.023296482861,-0.0128687815741
1970/01/01/01:00:06.668000,314,6,667000000,,-0.420104056597,-0.023566218093,-0.0128202168271
1970/01/01/01:00:06.689000,315,6,689000000,,-0.420577943325,-0.0238221567124,-0.0127734467387
1970/01/01/01:00:06.707000,316,6,706000000,,-0.421032845974,-0.024064425379,-0.0127285467461
1970/01/01/01:00:06.728000,317,6,727000000,,-0.421516686678,-0.0243185199797,-0.0126807950437
1970/01/01/01:00:06.746000,318,6,746000000,,-0.422005593777,-0.0245716534555,-0.0126325422898
1970/01/01/01:00:06.767000,319,6,766000000,,-0.422499537468,-0.0248238183558,-0.012583790347
1970/01/01/01:00:06.787000,320,6,786000000,,-0.422998547554,-0.0250750016421,-0.0125345420092
1970/01/01/01:00:06.808000,321,6,807000000,,-0.423502534628,-0.0253251958638,-0.0124847991392
1970/01/01/01:00:06.827000,322,6,827000000,,-0.424011528492,-0.0255743917078,-0.0124345626682
1970/01/01/01:00:06.847000,323,6,846000000,,-0.424525499344,-0.0258225761354,-0.0123838363215
1970/01/01/01:00:06.868000,324,6,867000000,,-0.425044417381,-0.0260697416961,-0.0123326200992
1970/01/01/01:00:06.887000,325,6,887000000,,-0.425568282604,-0.0263158772141,-0.0122809177265
1970/01/01/01:00:06.907000,326,6,907000000,,-0.42609706521,-0.0265609752387,-0.0122287301347
1970/01/01/01:00:06.927000,327,6,927000000,,-0.426630735397,-0.0268050227314,-0.0121760601178
1970/01/01/01:00:06.947000,328,6,947000000,,-0.427169263363,-0.0270480141044,-0.0121229086071
1970/01/01/01:00:06.968000,329,6,967000000,,-0.427712649107,-0.027289936319,-0.012069279328
1970/01/01/01:00:06.987000,330,6,987000000,,-0.428260833025,-0.0275307819247,-0.0120151732117
1970/01/01/01:00:07.008000,331,7,7000000,,-0.428841620684,-0.0277824997902,-0.0119578512385
1970/01/01/01:00:07.027000,332,7,26000000,,-0.429371654987,-0.0280092023313,-0.0119055397809
1970/01/01/01:00:07.048000,333,7,47000000,,-0.429934233427,-0.0282467585057,-0.0118500171229
1970/01/01/01:00:07.068000,334,7,67000000,,-0.430501520634,-0.0284832008183,-0.0117940269411
1970/01/01/01:00:07.087000,335,7,86000000,,-0.43107354641,-0.0287185162306,-0.0117375710979
1970/01/01/01:00:07.107000,336,7,107000000,,-0.43165025115,-0.0289526991546,-0.0116806514561
1970/01/01/01:00:07.126000,337,7,126000000,,-0.432231634855,-0.0291857402772,-0.0116232708097
1970/01/01/01:00:07.147000,338,7,147000000,,-0.432817667723,-0.0294176284224,-0.0115654319525
1970/01/01/01:00:07.167000,339,7,167000000,,-0.433408349752,-0.029648354277,-0.0115071358159
1970/01/01/01:00:07.188000,340,7,187000000,,-0.434003591537,-0.0298779103905,-0.0114483851939
1970/01/01/01:00:07.207000,341,7,206000000,,-0.434603452682,-0.030106285587,-0.0113891838118
1970/01/01/01:00:07.232000,342,7,231000000,,-0.435359656811,-0.0303900837898,-0.011314548552
1970/01/01/01:00:07.247000,343,7,247000000,,-0.435847342014,-0.0305707324296,-0.0112664159387
1970/01/01/01:00:07.269000,344,7,268000000,,-0.436491817236,-0.0308066606522,-0.0112028094009
1970/01/01/01:00:07.287000,345,7,286000000,,-0.437048137188,-0.0310078170151,-0.0111479014158
1970/01/01/01:00:07.307000,346,7,307000000,,-0.437701761723,-0.0312412474304,-0.0110833924264
1970/01/01/01:00:07.328000,347,7,327000000,,-0.438328802586,-0.0314622968435,-0.0110215060413
1970/01/01/01:00:07.348000,348,7,347000000,,-0.438960254192,-0.0316821038723,-0.0109591847286
1970/01/01/01:00:07.369000,349,7,368000000,,-0.439627975225,-0.0319115556777,-0.0108932824805
1970/01/01/01:00:07.388000,350,7,387000000,,-0.440204143524,-0.0321071222425,-0.0108364168555
1970/01/01/01:00:07.408000,351,7,407000000,,-0.440880775452,-0.0323339886963,-0.0107696354389
1970/01/01/01:00:07.427000,352,7,426000000,,-0.441497057676,-0.0325380340219,-0.0107088107616
1970/01/01/01:00:07.447000,353,7,447000000,,-0.442149966955,-0.0327515676618,-0.0106443716213
1970/01/01/01:00:07.466000,354,7,466000000,,-0.442807108164,-0.0329638049006,-0.0105795133859
1970/01/01/01:00:07.496000,355,7,496000000,,-0.443767517805,-0.0332692377269,-0.0104847270995
1970/01/01/01:00:07.506000,356,7,506000000,,-0.44413408637,-0.0333843715489,-0.0104485452175
1970/01/01/01:00:07.528000,357,7,527000000,,-0.444803863764,-0.0335926823318,-0.0103824418038
1970/01/01/01:00:07.547000,358,7,547000000,,-0.445477813482,-0.0337996669114,-0.0103159276769
1970/01/01/01:00:07.568000,359,7,567000000,,-0.446189850569,-0.0340155661106,-0.0102456500754
1970/01/01/01:00:07.587000,360,7,586000000,,-0.446837991476,-0.0342096239328,-0.010181681253
1970/01/01/01:00:07.607000,361,7,607000000,,-0.447524219751,-0.0344125814736,-0.0101139536127
1970/01/01/01:00:07.628000,362,7,627000000,,-0.448249101639,-0.0346242263913,-0.0100424094126
1970/01/01/01:00:07.647000,363,7,647000000,,-0.448908776045,-0.0348144136369,-0.00997730251402
1970/01/01/01:00:07.667000,364,7,666000000,,-0.449607074261,-0.0350132696331,-0.00990838557482
1970/01/01/01:00:07.688000,365,7,687000000,,-0.450309306383,-0.0352107435465,-0.00983907654881
1970/01/01/01:00:07.707000,366,7,707000000,,-0.451015472412,-0.0354068316519,-0.00976938009262
1970/01/01/01:00:07.728000,367,7,728000000,,-0.451761186123,-0.0356112159789,-0.00969578325748
1970/01/01/01:00:07.748000,368,7,746000000,,-0.452439546585,-0.0357947982848,-0.00962883140892
1970/01/01/01:00:07.767000,369,7,766000000,,-0.453157365322,-0.0359866693616,-0.00955798570067
1970/01/01/01:00:07.787000,370,7,786000000,,-0.453878998756,-0.0361771173775,-0.00948676280677
1970/01/01/01:00:07.808000,371,7,807000000,,-0.454604417086,-0.036366134882,-0.0094151655212
1970/01/01/01:00:07.828000,372,7,827000000,,-0.455370187759,-0.0365630611777,-0.00933958776295
1970/01/01/01:00:07.848000,373,7,847000000,,-0.456066578627,-0.0367398634553,-0.00927085801959
1970/01/01/01:00:07.867000,374,7,866000000,,-0.456803202629,-0.0369245521724,-0.0091981543228
1970/01/01/01:00:07.887000,375,7,886000000,,-0.457543551922,-0.037107784301,-0.00912508647889
1970/01/01/01:00:07.908000,376,7,907000000,,-0.458324819803,-0.037298604846,-0.00904797855765
1970/01/01/01:00:07.927000,377,7,927000000,,-0.459035098553,-0.0374698489904,-0.00897787418216
1970/01/01/01:00:07.949000,378,7,948000000,,-0.459861606359,-0.0376664660871,-0.0088963015005
1970/01/01/01:00:07.971000,379,7,971000000,,-0.460692435503,-0.0378612838686,-0.00881430413574
1970/01/01/01:00:07.988000,380,7,987000000,,-0.461299329996,-0.0380018353462,-0.00875440519303
1970/01/01/01:00:08.007000,381,8,6000000,,-0.462061107159,-0.0381761714816,-0.0086792204529
1970/01/01/01:00:08.028000,382,8,27000000,,-0.462864726782,-0.0383576005697,-0.00859990715981
1970/01/01/01:00:08.048000,383,8,47000000,,-0.463633596897,-0.0385288409889,-0.00852402299643
1970/01/01/01:00:08.068000,384,8,67000000,,-0.464405864477,-0.0386985614896,-0.0084478026256
1970/01/01/01:00:08.087000,385,8,87000000,,-0.465181529522,-0.038866750896,-0.00837124884129
1970/01/01/01:00:08.107000,386,8,107000000,,-0.465921491385,-0.0390251129866,-0.00829821545631
1970/01/01/01:00:08.127000,387,8,126000000,,-0.466703653336,-0.0391903035343,-0.00822101999074
1970/01/01/01:00:08.147000,388,8,146000000,,-0.467489093542,-0.0393539518118,-0.0081434994936
1970/01/01/01:00:08.167000,389,8,166000000,,-0.468277812004,-0.039516042918,-0.00806565769017
1970/01/01/01:00:08.187000,390,8,187000000,,-0.469109416008,-0.0396845601499,-0.00798358116299
1970/01/01/01:00:08.208000,391,8,208000000,,-0.469904690981,-0.0398434475064,-0.00790509022772
1970/01/01/01:00:08.227000,392,8,227000000,,-0.470663130283,-0.0399929322302,-0.00783023424447
1970/01/01/01:00:08.247000,393,8,246000000,,-0.471464544535,-0.0401487499475,-0.00775113748387
1970/01/01/01:00:08.267000,394,8,266000000,,-0.47226908803,-0.0403029769659,-0.00767173431814
1970/01/01/01:00:08.288000,395,8,287000000,,-0.473117113113,-0.0404632054269,-0.00758803542703
1970/01/01/01:00:08.308000,396,8,307000000,,-0.473927915096,-0.0406141653657,-0.0075080152601
1970/01/01/01:00:08.328000,397,8,327000000,,-0.474700927734,-0.0407560952008,-0.00743172084913
1970/01/01/01:00:08.347000,398,8,346000000,,-0.475517511368,-0.0409039221704,-0.0073511255905
1970/01/01/01:00:08.367000,399,8,366000000,,-0.476337075233,-0.0410501360893,-0.00727023975924
1970/01/01/01:00:08.388000,400,8,387000000,,-0.477200716734,-0.0412019193172,-0.00718500092626
1970/01/01/01:00:08.407000,401,8,407000000,,-0.477984845638,-0.041337698698,-0.00710761081427
1970/01/01/01:00:08.427000,402,8,426000000,,-0.478813022375,-0.0414790324867,-0.00702587375417
1970/01/01/01:00:08.448000,403,8,447000000,,-0.47964400053,-0.0416187308729,-0.00694385915995
1970/01/01/01:00:08.467000,404,8,466000000,,-0.480477750301,-0.041756786406,-0.00686157029122
1970/01/01/01:00:08.487000,405,8,486000000,,-0.481314271688,-0.0418931916356,-0.00677901087329
1970/01/01/01:00:08.508000,406,8,507000000,,-0.482195496559,-0.0420346409082,-0.00669203558937
1970/01/01/01:00:08.528000,407,8,527000000,,-0.48299536109,-0.0421610400081,-0.00661309249699
1970/01/01/01:00:08.547000,408,8,546000000,,-0.483839899302,-0.0422924682498,-0.00652974005789
1970/01/01/01:00:08.567000,409,8,567000000,,-0.484729468822,-0.0424286685884,-0.00644194241613
1970/01/01/01:00:08.587000,410,8,586000000,,-0.485536783934,-0.0425503104925,-0.00636226497591
1970/01/01/01:00:08.607000,411,8,606000000,,-0.486389040947,-0.0426767133176,-0.00627814885229
1970/01/01/01:00:08.627000,412,8,626000000,,-0.487243831158,-0.0428014360368,-0.00619378499687
1970/01/01/01:00:08.648000,413,8,647000000,,-0.488101094961,-0.0429244637489,-0.00610917666927
1970/01/01/01:00:08.667000,414,8,666000000,,-0.488960802555,-0.0430458001792,-0.00602432712913
1970/01/01/01:00:08.688000,415,8,687000000,,-0.4898660779,-0.0431713722646,-0.00593497930095
1970/01/01/01:00:08.707000,416,8,707000000,,-0.490687400103,-0.0432833693922,-0.00585391791537
1970/01/01/01:00:08.728000,417,8,727000000,,-0.491554230452,-0.0433995909989,-0.00576836476102
1970/01/01/01:00:08.747000,418,8,746000000,,-0.492423385382,-0.0435141026974,-0.00568258436397
1970/01/01/01:00:08.768000,419,8,767000000,,-0.493294805288,-0.0436268933117,-0.00559657951817
1970/01/01/01:00:08.787000,420,8,786000000,,-0.494168460369,-0.043737962842,-0.00551035348326
1970/01/01/01:00:08.806000,421,8,806000000,,-0.495044291019,-0.0438473075628,-0.00542390998453
1970/01/01/01:00:08.828000,422,8,827000000,,-0.495922327042,-0.0439549162984,-0.00533725228161
1970/01/01/01:00:08.848000,423,8,847000000,,-0.496802479029,-0.0440607964993,-0.00525038409978
1970/01/01/01:00:08.867000,424,8,866000000,,-0.497684746981,-0.0441649332643,-0.00516330823302
1970/01/01/01:00:08.887000,425,8,886000000,,-0.498569071293,-0.0442673265934,-0.00507602887228
1970/01/01/01:00:08.907000,426,8,907000000,,-0.499455422163,-0.0443679727614,-0.00498854927719
1970/01/01/01:00:08.927000,427,8,926000000,,-0.500343799591,-0.0444668680429,-0.00490087224171
1970/01/01/01:00:08.947000,428,8,947000000,,-0.50123411417,-0.0445640049875,-0.00481300195679
1970/01/01/01:00:08.967000,429,8,967000000,,-0.502126336098,-0.044659383595,-0.00472494168207
1970/01/01/01:00:08.987000,430,8,986000000,,-0.503020465374,-0.0447530001402,-0.00463669514284
1970/01/01/01:00:09.007000,431,9,6000000,,-0.503916442394,-0.0448448508978,-0.00454826513305
1970/01/01/01:00:09.027000,432,9,26000000,,-0.504814267159,-0.0449349321425,-0.00445965584368
1970/01/01/01:00:09.048000,433,9,47000000,,-0.505758821964,-0.0450276061893,-0.00436642672867
1970/01/01/01:00:09.068000,434,9,67000000,,-0.506615161896,-0.0451097637415,-0.00428191246465
1970/01/01/01:00:09.087000,435,9,87000000,,-0.507518231869,-0.0451945103705,-0.00419278535992
1970/01/01/01:00:09.108000,436,9,107000000,,-0.508422911167,-0.0452774763107,-0.00410349294543
1970/01/01/01:00:09.127000,437,9,127000000,,-0.509329259396,-0.0453586503863,-0.00401403848082
1970/01/01/01:00:09.148000,438,9,147000000,,-0.510282695293,-0.0454419590533,-0.00391994044185
1970/01/01/01:00:09.167000,439,9,167000000,,-0.511146783829,-0.0455156266689,-0.00383465737104
1970/01/01/01:00:09.187000,440,9,186000000,,-0.512057900429,-0.0455914214253,-0.00374473794363
1970/01/01/01:00:09.207000,441,9,207000000,,-0.51297044754,-0.0456654168665,-0.00365467066877
1970/01/01/01:00:09.228000,442,9,228000000,,-0.51393020153,-0.0457411706448,-0.00355994491838
1970/01/01/01:00:09.247000,443,9,246000000,,-0.514799952507,-0.0458079911768,-0.00347410701215
1970/01/01/01:00:09.269000,444,9,268000000,,-0.515808522701,-0.0458833277225,-0.00337456143461
1970/01/01/01:00:09.290000,445,9,290000000,,-0.516726851463,-0.0459499135613,-0.00328392535448
1970/01/01/01:00:09.306000,446,9,306000000,,-0.517554521561,-0.0460082888603,-0.00320224184543
1970/01/01/01:00:09.327000,447,9,326000000,,-0.518475294113,-0.0460714250803,-0.00311136269011
1970/01/01/01:00:09.347000,448,9,346000000,,-0.519397377968,-0.0461327433586,-0.00302036036737
1970/01/01/01:00:09.367000,449,9,366000000,,-0.520320594311,-0.04619223997,-0.00292923906818
1970/01/01/01:00:09.387000,450,9,386000000,,-0.521245002747,-0.0462499111891,-0.00283800205216
1970/01/01/01:00:09.409000,451,9,408000000,,-0.522263228893,-0.0463112406433,-0.0027375118807
1970/01/01/01:00:09.428000,452,9,427000000,,-0.523097217083,-0.0463597774506,-0.00265519530512
1970/01/01/01:00:09.448000,453,9,447000000,,-0.524024963379,-0.0464119650424,-0.00256363302469
1970/01/01/01:00:09.469000,454,9,466000000,,-0.524953722954,-0.0464623197913,-0.00247196946293
1970/01/01/01:00:09.486000,455,9,486000000,,-0.525883436203,-0.0465108454227,-0.00238020834513
1970/01/01/01:00:09.507000,456,9,507000000,,-0.526814162731,-0.0465575307608,-0.00228835316375
1970/01/01/01:00:09.527000,457,9,526000000,,-0.527745723724,-0.0466023758054,-0.00219640787691
1970/01/01/01:00:09.548000,458,9,547000000,,-0.528678238392,-0.0466453842819,-0.00210437574424
1970/01/01/01:00:09.567000,459,9,567000000,,-0.529658198357,-0.0466885603964,-0.00200765253976
1970/01/01/01:00:09.587000,460,9,586000000,,-0.530545651913,-0.0467258766294,-0.00192006572615
1970/01/01/01:00:09.608000,461,9,607000000,,-0.531527340412,-0.046765178442,-0.00182317977306
1970/01/01/01:00:09.628000,462,9,627000000,,-0.532463014126,-0.0468007177114,-0.00173083366826
1970/01/01/01:00:09.647000,463,9,647000000,,-0.533399343491,-0.0468344129622,-0.00163841922767
1970/01/01/01:00:09.670000,464,9,668000000,,-0.534383237362,-0.0468677990139,-0.00154131441377
1970/01/01/01:00:09.687000,465,9,687000000,,-0.535227060318,-0.0468947924674,-0.00145802821498
1970/01/01/01:00:09.708000,466,9,707000000,,-0.536165237427,-0.0469230264425,-0.00136543344706
1970/01/01/01:00:09.727000,467,9,726000000,,-0.537104010582,-0.0469494089484,-0.00127278477885
1970/01/01/01:00:09.747000,468,9,746000000,,-0.53804320097,-0.046973939985,-0.00118008581921
1970/01/01/01:00:09.768000,469,9,767000000,,-0.538982927799,-0.0469966121018,-0.00108734029345
1970/01/01/01:00:09.788000,470,9,787000000,,-0.539970099926,-0.0470184236765,-0.000989911379293
1970/01/01/01:00:09.807000,471,9,806000000,,-0.540863633156,-0.0470363944769,-0.000901724153664
1970/01/01/01:00:09.826000,472,9,826000000,,-0.541804552078,-0.0470535010099,-0.000808860873803
1970/01/01/01:00:09.847000,473,9,846000000,,-0.542745769024,-0.0470687486231,-0.00071596557973
1970/01/01/01:00:09.868000,474,9,867000000,,-0.543687283993,-0.0470821410418,-0.000623042113148
1970/01/01/01:00:09.887000,475,9,887000000,,-0.54467612505,-0.0470941998065,-0.000525446026586
1970/01/01/01:00:09.908000,476,9,907000000,,-0.545570969582,-0.0471033416688,-0.000437124952441
1970/01/01/01:00:09.928000,477,9,927000000,,-0.546513140202,-0.0471111573279,-0.000344138679793
1970/01/01/01:00:09.948000,478,9,946000000,,-0.547455430031,-0.0471171103418,-0.000251138786552
1970/01/01/01:00:09.968000,479,9,967000000,,-0.548397839069,-0.0471212007105,-0.000158128998009
1970/01/01/01:00:09.988000,480,9,987000000,,-0.549340248108,-0.0471234321594,-6.51129739708e-05
1970/01/01/01:00:10.007000,481,10,6000000,,-0.550282716751,-0.0471238046885,2.79056330328e-05
1970/01/01/01:00:10.027000,482,10,27000000,,-0.551225185394,-0.0471223182976,0.000120923134091
1970/01/01/01:00:10.047000,483,10,47000000,,-0.552167594433,-0.0471189692616,0.000213935869397
1970/01/01/01:00:10.066000,484,10,66000000,,-0.553109943867,-0.0471137613058,0.000306940142764
1970/01/01/01:00:10.088000,485,10,87000000,,-0.554052174091,-0.0471066907048,0.000399932323489
1970/01/01/01:00:10.108000,486,10,107000000,,-0.554994225502,-0.0470977649093,0.000492908700835
1970/01/01/01:00:10.127000,487,10,126000000,,-0.555936038494,-0.0470869764686,0.000585865578614
1970/01/01/01:00:10.149000,488,10,148000000,,-0.556971848011,-0.0470729619265,0.000688091327902
1970/01/01/01:00:10.167000,489,10,167000000,,-0.557819008827,-0.0470598228276,0.000771706399973
1970/01/01/01:00:10.187000,490,10,187000000,,-0.558760046959,-0.0470434613526,0.000864582892973
1970/01/01/01:00:10.207000,491,10,206000000,,-0.559700727463,-0.0470252409577,0.000957425276283
1970/01/01/01:00:10.228000,492,10,227000000,,-0.560641050339,-0.0470051653683,0.00105022988282
1970/01/01/01:00:10.247000,493,10,247000000,,-0.561580955982,-0.046983230859,0.0011429929873
1970/01/01/01:00:10.268000,494,10,267000000,,-0.562567353249,-0.0469582080841,0.00124034564942
1970/01/01/01:00:10.287000,495,10,286000000,,-0.563459277153,-0.0469338037074,0.00132838031277
1970/01/01/01:00:10.308000,496,10,307000000,,-0.564444601536,-0.0469048880041,0.00142562645487
1970/01/01/01:00:10.327000,497,10,327000000,,-0.565335571766,-0.046876963228,0.00151355774142
1970/01/01/01:00:10.347000,498,10,347000000,,-0.5662727952,-0.046845767647,0.00160605867859
1970/01/01/01:00:10.367000,499,10,367000000,,-0.567209362984,-0.0468127205968,0.00169849616941
1970/01/01/01:00:10.388000,500,10,387000000,,-0.568145275116,-0.0467778295279,0.00179086672142
1970/01/01/01:00:10.408000,501,10,407000000,,-0.569127202034,-0.0467392019928,0.00188777956646
1970/01/01/01:00:10.427000,502,10,426000000,,-0.570014894009,-0.0467025004327,0.00197539175861
1970/01/01/01:00:10.447000,503,10,447000000,,-0.570948541164,-0.0466620735824,0.00206753937528
1970/01/01/01:00:10.468000,504,10,467000000,,-0.571881353855,-0.0466198027134,0.00215960503556
1970/01/01/01:00:10.487000,505,10,487000000,,-0.572813332081,-0.0465756878257,0.00225158571266
1970/01/01/01:00:10.507000,506,10,507000000,,-0.573744416237,-0.0465297400951,0.00234347744845
1970/01/01/01:00:10.526000,507,10,526000000,,-0.574674487114,-0.0464819520712,0.00243527651764
1970/01/01/01:00:10.548000,508,10,547000000,,-0.575603663921,-0.0464323274791,0.00252697966062
1970/01/01/01:00:10.566000,509,10,566000000,,-0.576531767845,-0.0463808737695,0.00261858291924
1970/01/01/01:00:10.588000,510,10,587000000,,-0.57745885849,-0.0463275834918,0.00271008280106
1970/01/01/01:00:10.608000,511,10,607000000,,-0.578431129456,-0.0462696664035,0.00280604232103
1970/01/01/01:00:10.627000,512,10,627000000,,-0.579309761524,-0.0462155267596,0.00289275799878
1970/01/01/01:00:10.647000,513,10,647000000,,-0.580233514309,-0.0461567603052,0.0029839258641
1970/01/01/01:00:10.667000,514,10,666000000,,-0.581156015396,-0.0460961721838,0.00307497638278
1970/01/01/01:00:10.687000,515,10,686000000,,-0.58207732439,-0.0460337623954,0.00316590513103
1970/01/01/01:00:10.707000,516,10,707000000,,-0.582997381687,-0.0459695346653,0.00325670908205
1970/01/01/01:00:10.727000,517,10,726000000,,-0.583916068077,-0.0459034927189,0.00334738451056
1970/01/01/01:00:10.747000,518,10,747000000,,-0.584879338741,-0.0458322018385,0.00344245135784
1970/01/01/01:00:10.768000,519,10,767000000,,-0.58574950695,-0.0457659773529,0.0035283351317
1970/01/01/01:00:10.787000,520,10,786000000,,-0.586664140224,-0.0456945076585,0.00361860333942
1970/01/01/01:00:10.809000,521,10,807000000,,-0.587577283382,-0.0456212349236,0.00370872858912
1970/01/01/01:00:10.827000,522,10,827000000,,-0.588488936424,-0.0455461591482,0.00379870738834
1970/01/01/01:00:10.848000,523,10,847000000,,-0.58939909935,-0.0454692877829,0.00388853647746
1970/01/01/01:00:10.867000,524,10,867000000,,-0.590307712555,-0.0453906208277,0.00397821189836
1970/01/01/01:00:10.889000,525,10,888000000,,-0.591305315495,-0.0453020147979,0.00407667318359
1970/01/01/01:00:10.909000,526,10,907000000,,-0.592120110989,-0.0452279113233,0.0041570882313
1970/01/01/01:00:10.927000,527,10,927000000,,-0.593068957329,-0.0451396293938,0.00425073690712
1970/01/01/01:00:10.946000,528,10,946000000,,-0.593925833702,-0.0450580604374,0.00433530798182
1970/01/01/01:00:10.968000,529,10,968000000,,-0.594916045666,-0.0449616089463,0.00443303864449
1970/01/01/01:00:10.988000,530,10,987000000,,-0.595724642277,-0.0448810979724,0.00451284274459
1970/01/01/01:00:11.009000,531,11,9000000,,-0.596710920334,-0.044780742377,0.00461018504575
1970/01/01/01:00:11.027000,532,11,26000000,,-0.597516238689,-0.0446970425546,0.00468966551125
1970/01/01/01:00:11.049000,533,11,48000000,,-0.598498463631,-0.0445928052068,0.00478660361841
1970/01/01/01:00:11.067000,534,11,66000000,,-0.599300324917,-0.044505931437,0.0048657474108
1970/01/01/01:00:11.087000,535,11,86000000,,-0.600189447403,-0.0444077402353,0.00495350174606
1970/01/01/01:00:11.107000,536,11,106000000,,-0.601076602936,-0.0443077944219,0.00504106096923
1970/01/01/01:00:11.127000,537,11,126000000,,-0.601961791515,-0.0442060977221,0.00512842088938
1970/01/01/01:00:11.148000,538,11,148000000,,-0.602933049202,-0.0440922193229,0.00522428285331
1970/01/01/01:00:11.167000,539,11,166000000,,-0.603725850582,-0.04399747774,0.00530253024772
1970/01/01/01:00:11.187000,540,11,186000000,,-0.604604721069,-0.0438905581832,0.00538927223533
1970/01/01/01:00:11.208000,541,11,207000000,,-0.605525255203,-0.0437764301896,0.00548012275249
1970/01/01/01:00:11.227000,542,11,227000000,,-0.606356024742,-0.0436715297401,0.00556211546063
1970/01/01/01:00:11.246000,543,11,246000000,,-0.607228338718,-0.0435594245791,0.00564820924774
1970/01/01/01:00:11.267000,544,11,266000000,,-0.608098387718,-0.0434456020594,0.00573407998309
1970/01/01/01:00:11.289000,545,11,289000000,,-0.60905277729,-0.043318413198,0.00582827627659
1970/01/01/01:00:11.307000,546,11,307000000,,-0.609874784946,-0.0432069078088,0.00590940378606
1970/01/01/01:00:11.328000,547,11,327000000,,-0.610737740993,-0.0430878661573,0.00599457323551
1970/01/01/01:00:11.347000,548,11,346000000,,-0.611555337906,-0.0429732017219,0.00607526535168
1970/01/01/01:00:11.367000,549,11,367000000,,-0.612413525581,-0.0428508482873,0.00615997100249
1970/01/01/01:00:11.387000,550,11,387000000,,-0.613269329071,-0.042726803571,0.00624443264678
1970/01/01/01:00:11.406000,551,11,406000000,,-0.614122629166,-0.0426010750234,0.00632864842191
1970/01/01/01:00:11.427000,552,11,427000000,,-0.614973366261,-0.0424736626446,0.00641261413693
1970/01/01/01:00:11.447000,553,11,446000000,,-0.615821540356,-0.0423445701599,0.00649632653221
1970/01/01/01:00:11.467000,554,11,466000000,,-0.616667151451,-0.0422138087451,0.00657978234813
1970/01/01/01:00:11.487000,555,11,486000000,,-0.617510080338,-0.0420813821256,0.0066629787907
1970/01/01/01:00:11.507000,556,11,507000000,,-0.61835038662,-0.0419472940266,0.00674591213465
1970/01/01/01:00:11.527000,557,11,526000000,,-0.619187951088,-0.0418115481734,0.00682857912034
1970/01/01/01:00:11.547000,558,11,547000000,,-0.620064496994,-0.0416672378778,0.00691508920863
1970/01/01/01:00:11.569000,559,11,567000000,,-0.620854914188,-0.0415351092815,0.00699310097843
1970/01/01/01:00:11.587000,560,11,586000000,,-0.621684253216,-0.0413944274187,0.00707494933158
1970/01/01/01:00:11.607000,561,11,607000000,,-0.62255191803,-0.0412449538708,0.00716058956459
1970/01/01/01:00:11.628000,562,11,626000000,,-0.623334288597,-0.0411081686616,0.00723780505359
1970/01/01/01:00:11.649000,563,11,647000000,,-0.624195992947,-0.0409552827477,0.00732284830883
1970/01/01/01:00:11.672000,564,11,670000000,,-0.625136017799,-0.0407857894897,0.00741562526673
1970/01/01/01:00:11.688000,565,11,686000000,,-0.625787615776,-0.0406666249037,0.00747993774712
1970/01/01/01:00:11.708000,566,11,707000000,,-0.626639962196,-0.0405086614192,0.00756406085566
1970/01/01/01:00:11.727000,567,11,726000000,,-0.627408266068,-0.0403642244637,0.00763988820836
1970/01/01/01:00:11.746000,568,11,746000000,,-0.628214001656,-0.0402106307447,0.00771941291168
1970/01/01/01:00:11.768000,569,11,767000000,,-0.629016637802,-0.040055450052,0.00779863260686
1970/01/01/01:00:11.787000,570,11,787000000,,-0.629816234112,-0.039898686111,0.00787754449993
1970/01/01/01:00:11.807000,571,11,807000000,,-0.630612611771,-0.0397403500974,0.00795614533126
1970/01/01/01:00:11.828000,572,11,827000000,,-0.631405830383,-0.0395804420114,0.00803443230689
1970/01/01/01:00:11.847000,573,11,846000000,,-0.632195830345,-0.0394189730287,0.00811240170151
1970/01/01/01:00:11.867000,574,11,866000000,,-0.632982552052,-0.0392559505999,0.00819005072117
1970/01/01/01:00:11.887000,575,11,886000000,,-0.633766055107,-0.0390913747251,0.00826737657189
1970/01/01/01:00:11.908000,576,11,907000000,,-0.634585142136,-0.0389169119298,0.00834821723402
1970/01/01/01:00:11.928000,577,11,927000000,,-0.635323047638,-0.0387576036155,0.00842104665935
1970/01/01/01:00:11.948000,578,11,948000000,,-0.636096477509,-0.0385884158313,0.00849738437682
1970/01/01/01:00:11.967000,579,11,967000000,,-0.636866569519,-0.0384177081287,0.00857338681817
1970/01/01/01:00:11.988000,580,11,987000000,,-0.637671470642,-0.0382368341088,0.00865282490849
1970/01/01/01:00:12.008000,581,12,7000000,,-0.6384344697,-0.0380630232394,0.00872812978923
1970/01/01/01:00:12.027000,582,12,27000000,,-0.63915604353,-0.0378965102136,0.00879935082048
1970/01/01/01:00:12.047000,583,12,46000000,,-0.639912247658,-0.0377197787166,0.00887398142368
1970/01/01/01:00:12.069000,584,12,68000000,,-0.640739917755,-0.0375236496329,0.00895566958934
1970/01/01/01:00:12.090000,585,12,89000000,,-0.641525924206,-0.0373347662389,0.00903324689716
1970/01/01/01:00:12.107000,586,12,107000000,,-0.642159283161,-0.0371806696057,0.00909575913101
1970/01/01/01:00:12.128000,587,12,127000000,,-0.64290112257,-0.0369980223477,0.0091689703986
1970/01/01/01:00:12.146000,588,12,146000000,,-0.643639206886,-0.0368139110506,0.00924182031304
1970/01/01/01:00:12.168000,589,12,167000000,,-0.644373655319,-0.0366283506155,0.00931430514902
1970/01/01/01:00:12.188000,590,12,187000000,,-0.64510434866,-0.0364413447678,0.00938642211258
1970/01/01/01:00:12.209000,591,12,208000000,,-0.645903766155,-0.0362339727581,0.00946532282978
1970/01/01/01:00:12.228000,592,12,226000000,,-0.646554470062,-0.0360630191863,0.00952954217792
1970/01/01/01:00:12.248000,593,12,246000000,,-0.647273778915,-0.0358717180789,0.00960053876042
1970/01/01/01:00:12.267000,594,12,266000000,,-0.647989332676,-0.0356790013611,0.00967115722597
1970/01/01/01:00:12.286000,595,12,286000000,,-0.64870095253,-0.0354848727584,0.00974139291793
1970/01/01/01:00:12.308000,596,12,306000000,,-0.649408698082,-0.0352893471718,0.00981124490499
1970/01/01/01:00:12.328000,597,12,328000000,,-0.650147616863,-0.0350825451314,0.0098841721192
1970/01/01/01:00:12.347000,598,12,347000000,,-0.650812387466,-0.0348941199481,0.00994978286326
1970/01/01/01:00:12.367000,599,12,366000000,,-0.651508271694,-0.0346944369376,0.0100184641778
1970/01/01/01:00:12.387000,600,12,386000000,,-0.652200162411,-0.0344933867455,0.0100867506117
1970/01/01/01:00:12.407000,601,12,406000000,,-0.652888000011,-0.0342909693718,0.0101546384394
1970/01/01/01:00:12.427000,602,12,427000000,,-0.653571784496,-0.0340872034431,0.0102221248671
1970/01/01/01:00:12.446000,603,12,446000000,,-0.654251456261,-0.0338820889592,0.0102892080322
1970/01/01/01:00:12.467000,604,12,467000000,,-0.654927074909,-0.0336756370962,0.0103558851406
1970/01/01/01:00:12.488000,605,12,487000000,,-0.655598461628,-0.0334678553045,0.0104221533984
1970/01/01/01:00:12.506000,606,12,506000000,,-0.656265735626,-0.03325875476,0.0104880100116
1970/01/01/01:00:12.529000,607,12,528000000,,-0.656994879246,-0.0330272242427,0.0105599742383
1970/01/01/01:00:12.547000,608,12,546000000,,-0.657587707043,-0.0328366160393,0.0106184789911
1970/01/01/01:00:12.568000,609,12,567000000,,-0.658274888992,-0.0326129160821,0.0106863044202
1970/01/01/01:00:12.587000,610,12,586000000,,-0.658892631531,-0.0324092954397,0.0107472706586
1970/01/01/01:00:12.609000,611,12,608000000,,-0.659602999687,-0.0321720838547,0.0108173843473
1970/01/01/01:00:12.627000,612,12,627000000,,-0.660180330276,-0.0319768600166,0.0108743654564
1970/01/01/01:00:12.656000,613,12,653000000,,-0.66103976965,-0.0316821038723,0.0109591847286
1970/01/01/01:00:12.667000,614,12,666000000,,-0.661450684071,-0.0315393693745,0.0109997428954
1970/01/01/01:00:12.688000,615,12,686000000,,-0.662079274654,-0.0313187539577,0.0110617820174
1970/01/01/01:00:12.711000,616,12,710000000,,-0.662765622139,-0.031074648723,0.0111295199022
1970/01/01/01:00:12.728000,617,12,727000000,,-0.663323163986,-0.0308738220483,0.0111845470965
1970/01/01/01:00:12.748000,618,12,747000000,,-0.66393840313,-0.0306495241821,0.011245268397
1970/01/01/01:00:12.767000,619,12,766000000,,-0.66454911232,-0.0304240137339,0.0113055454567
1970/01/01/01:00:12.788000,620,12,787000000,,-0.665185511112,-0.0301859378815,0.0113683566451
1970/01/01/01:00:12.808000,621,12,807000000,,-0.665757000446,-0.0299694016576,0.0114247584715
1970/01/01/01:00:12.827000,622,12,826000000,,-0.666354119778,-0.0297403167933,0.0114836897701
1970/01/01/01:00:12.847000,623,12,847000000,,-0.666946589947,-0.0295100584626,0.0115421684459
1970/01/01/01:00:12.868000,624,12,867000000,,-0.667534530163,-0.0292786341161,0.0116001907736
1970/01/01/01:00:12.887000,625,12,886000000,,-0.668117761612,-0.0290460530668,0.0116577548906
1970/01/01/01:00:12.907000,626,12,907000000,,-0.668696343899,-0.0288123264909,0.0117148589343
1970/01/01/01:00:12.928000,627,12,927000000,,-0.669298827648,-0.0285656899214,0.0117743201554
1970/01/01/01:00:12.946000,628,12,946000000,,-0.669839441776,-0.0283414702863,0.0118276774883
1970/01/01/01:00:12.967000,629,12,967000000,,-0.670403897762,-0.0281043574214,0.0118833873421
1970/01/01/01:00:12.987000,630,12,987000000,,-0.670963585377,-0.0278661381453,0.0119386278093
1970/01/01/01:00:13.008000,631,13,6000000,,-0.67151850462,-0.0276268161833,0.0119933979586
1970/01/01/01:00:13.028000,632,13,26000000,,-0.672068655491,-0.0273864045739,0.0120476940647
1970/01/01/01:00:13.048000,633,13,47000000,,-0.672641098499,-0.0271328091621,0.0121041927487
1970/01/01/01:00:13.067000,634,13,66000000,,-0.673154473305,-0.0269023478031,0.0121548566967
1970/01/01/01:00:13.088000,635,13,87000000,,-0.673690080643,-0.0266587212682,0.0122077194974
1970/01/01/01:00:13.108000,636,13,107000000,,-0.6742208004,-0.0264140423387,0.0122601008043
1970/01/01/01:00:13.127000,637,13,126000000,,-0.674746632576,-0.026168320328,0.0123119978234
1970/01/01/01:00:13.148000,638,13,147000000,,-0.675293445587,-0.0259092003107,0.012365966104
1970/01/01/01:00:13.168000,639,13,167000000,,-0.675783455372,-0.0256737861782,0.0124143315479
