time,.header.seq,.header.stamp.secs,.header.stamp.nsecs,.header.frame_id,.child_frame_id,.pose.pose.position.x,.pose.pose.position.y,.pose.pose.position.z,.pose.pose.orientation.x,.pose.pose.orientation.y,.pose.pose.orientation.z,.pose.pose.orientation.w,.pose.covariance,.twist.twist.linear.x,.twist.twist.linear.y,.twist.twist.linear.z,.twist.twist.angular.x,.twist.twist.angular.y,.twist.twist.angular.z,.twist.covariance
1970/01/01/01:00:10.904000,1,10,902000000,map,map,0.8,1.675,-0.63791630683,8.18089812998e-05,-6.85014240038e-05,-0.674555776258,-0.738223877514,"(119.71102499999999, 0.0, 0.0, 0.0, 0.0, 0.0, 0.0, 119.71102499999999, 0.0, 0.0, 0.0, 0.0, 0.0, 0.0, 118.71102539370062, 0.0, 0.0, 0.0, 0.0, 0.0, 0.0, 0.0, 0.0, 0.0, 0.0, 0.0, 0.0, 0.0, 0.0, 0.0, 0.0, 0.0, 0.0, 0.0, 0.0, 0.0)",0.0,0.0,0.0,0.00200533423026,0.00265707213441,0.000649815306068,"(0.0, 0.0, 0.0, 0.0, 0.0, 0.0, 0.0, 0.0, 0.0, 0.0, 0.0, 0.0, 0.0, 0.0, 0.0, 0.0, 0.0, 0.0, 0.0, 0.0, 0.0, 0.0, 0.0, 0.0, 0.0, 0.0, 0.0, 0.0, 0.0, 0.0, 0.0, 0.0, 0.0, 0.0, 0.0, 0.0)"
1970/01/01/01:00:10.916000,2,10,915000000,map,map,0.8,1.675,-0.606265581388,8.46545691225e-05,2.35690506968e-05,-0.67465192186,-0.738136065509,"(120.12356905800002, 0.0, 0.0, 0.0, 0.0, 0.0, 0.0, 120.12356905800002, 0.0, 0.0, 0.0, 0.0, 0.0, 0.0, 0.020100415881608064, 0.0, 0.0, 0.0, 0.0, 0.0, 0.0, 0.0, 0.0, 0.0, 0.0, 0.0, 0.0, 0.0, 0.0, 0.0, 0.0, 0.0, 0.0, 0.0, 0.0, 0.0)",0.0,0.0,0.0,0.00628110202866,-0.00358890827308,0.0113152156171,"(0.0, 0.0, 0.0, 0.0, 0.0, 0.0, 0.0, 0.0, 0.0, 0.0, 0.0, 0.0, 0.0, 0.0, 0.0, 0.0, 0.0, 0.0, 0.0, 0.0, 0.0, 0.0, 0.0, 0.0, 0.0, 0.0, 0.0, 0.0, 0.0, 0.0, 0.0, 0.0, 0.0, 0.0, 0.0, 0.0)"
1970/01/01/01:00:10.938000,3,10,936000000,map,map,0.8,1.675,-0.612894497575,0.000174113925279,-2.6873709355e-06,-0.674776444724,-0.738022247944,"(120.57048931400001, 0.0, 0.0, 0.0, 0.0, 0.0, 0.0, 120.57048931400001, 0.0, 0.0, 0.0, 0.0, 0.0, 0.0, 0.010099661784118584, 0.0, 0.0, 0.0, 0.0, 0.0, 0.0, 0.0, 0.0, 0.0, 0.0, 0.0, 0.0, 0.0, 0.0, 0.0, 0.0, 0.0, 0.0, 0.0, 0.0, 0.0)",0.0336,0.042,-0.185964767428,-0.00704683406454,-0.00856735258483,0.0313138101706,"(0.0, 0.0, 0.0, 0.0, 0.0, 0.0, 0.0, 0.0, 0.0, 0.0, 0.0, 0.0, 0.0, 0.0, 0.0, 0.0, 0.0, 0.0, 0.0, 0.0, 0.0, 0.0, 0.0, 0.0, 0.0, 0.0, 0.0, 0.0, 0.0, 0.0, 0.0, 0.0, 0.0, 0.0, 0.0, 0.0)"
1970/01/01/01:00:10.956000,4,10,955000000,map,map,0.8,1.675,-0.593127912535,0.000168879355635,-7.72345938045e-05,-0.675589086013,-0.737278390312,"(121.04011688520004, 0.0, 0.0, 0.0, 0.0, 0.0, 0.0, 121.04011688520004, 0.0, 0.0, 0.0, 0.0, 0.0, 0.0, 0.010099236690396172, 0.0, 0.0, 0.0, 0.0, 0.0, 0.0, 0.0, 0.0, 0.0, 0.0, 0.0, 0.0, 0.0, 0.0, 0.0, 0.0, 0.0, 0.0, 0.0, 0.0, 0.0)",0.060808,0.07601,-0.329381082777,-0.00463765861243,0.0100571967258,0.105092077071,"(0.0, 0.0, 0.0, 0.0, 0.0, 0.0, 0.0, 0.0, 0.0, 0.0, 0.0, 0.0, 0.0, 0.0, 0.0, 0.0, 0.0, 0.0, 0.0, 0.0, 0.0, 0.0, 0.0, 0.0, 0.0, 0.0, 0.0, 0.0, 0.0, 0.0, 0.0, 0.0, 0.0, 0.0, 0.0, 0.0)"
1970/01/01/01:00:10.978000,5,10,975000000,map,map,0.8,1.675,-0.624435244173,0.00021510135988,-0.000108975533591,-0.676489534992,-0.73645220408,"(121.46673074210004, 0.0, 0.0, 0.0, 0.0, 0.0, 0.0, 121.46673074210004, 0.0, 0.0, 0.0, 0.0, 0.0, 0.0, 0.01009923456391507, 0.0, 0.0, 0.0, 0.0, 0.0, 0.0, 0.0, 0.0, 0.0, 0.0, 0.0, 0.0, 0.0, 0.0, 0.0, 0.0, 0.0, 0.0, 0.0, 0.0, 0.0)",0.086701664,0.108409,-0.412829169478,0.000517589295029,0.00120394506256,0.164432589802,"(0.0, 0.0, 0.0, 0.0, 0.0, 0.0, 0.0, 0.0, 0.0, 0.0, 0.0, 0.0, 0.0, 0.0, 0.0, 0.0, 0.0, 0.0, 0.0, 0.0, 0.0, 0.0, 0.0, 0.0, 0.0, 0.0, 0.0, 0.0, 0.0, 0.0, 0.0, 0.0, 0.0, 0.0, 0.0, 0.0)"
1970/01/01/01:00:10.997000,6,10,995000000,map,map,0.0663710117325,2.06059800972,-0.60358319799,0.000183981082858,-6.19919380574e-05,-0.678061636149,-0.735005026182,"(0.7344115438203562, 0.0, 0.0, 0.0, 0.0, 0.0, 0.0, 0.040239842971565395, 0.0, 0.0, 0.0, 0.0, 0.0, 0.0, 0.010099291953098654, 0.0, 0.0, 0.0, 0.0, 0.0, 0.0, 0.0, 0.0, 0.0, 0.0, 0.0, 0.0, 0.0, 0.0, 0.0, 0.0, 0.0, 0.0, 0.0, 0.0, 0.0)",0.1099573152,0.1375681,-0.5,0.00653017819108,-0.00132575548995,0.182293681324,"(0.0, 0.0, 0.0, 0.0, 0.0, 0.0, 0.0, 0.0, 0.0, 0.0, 0.0, 0.0, 0.0, 0.0, 0.0, 0.0, 0.0, 0.0, 0.0, 0.0, 0.0, 0.0, 0.0, 0.0, 0.0, 0.0, 0.0, 0.0, 0.0, 0.0, 0.0, 0.0, 0.0, 0.0, 0.0, 0.0)"
1970/01/01/01:00:11.017000,7,11,16000000,map,map,0.0650480058661,2.0612998112,-0.598510063165,0.000193518577172,-6.14952514417e-05,-0.679060687681,-0.734082091859,"(0.7470380591618064, 0.0, 0.0, 0.0, 0.0, 0.0, 0.0, 0.05036021266447749, 0.0, 0.0, 0.0, 0.0, 0.0, 0.0, 0.010099338966853628, 0.0, 0.0, 0.0, 0.0, 0.0, 0.0, 0.0, 0.0, 0.0, 0.0, 0.0, 0.0, 0.0, 0.0, 0.0, 0.0, 0.0, 0.0, 0.0, 0.0, 0.0)",0.101048658679,0.1651234495,-0.5,-0.000393136305112,-0.00131542793914,0.168821913539,"(0.0, 0.0, 0.0, 0.0, 0.0, 0.0, 0.0, 0.0, 0.0, 0.0, 0.0, 0.0, 0.0, 0.0, 0.0, 0.0, 0.0, 0.0, 0.0, 0.0, 0.0, 0.0, 0.0, 0.0, 0.0, 0.0, 0.0, 0.0, 0.0, 0.0, 0.0, 0.0, 0.0, 0.0, 0.0, 0.0)"
1970/01/01/01:00:11.037000,8,11,36000000,map,map,0.0637249096177,2.06199527891,-0.595904666482,0.00024893992856,-4.81586601652e-05,-0.680253419786,-0.732977025199,"(0.759676864321564, 0.0, 0.0, 0.0, 0.0, 0.0, 0.0, 0.06048837256065399, 0.0, 0.0, 0.0, 0.0, 0.0, 0.0, 0.010099379755708328, 0.0, 0.0, 0.0, 0.0, 0.0, 0.0, 0.0, 0.0, 0.0, 0.0, 0.0, 0.0, 0.0, 0.0, 0.0, 0.0, 0.0, 0.0, 0.0, 0.0, 0.0)",0.0933098051698,0.18861110455,-0.5,-0.00427284818792,-0.00450989182638,0.166752663925,"(0.0, 0.0, 0.0, 0.0, 0.0, 0.0, 0.0, 0.0, 0.0, 0.0, 0.0, 0.0, 0.0, 0.0, 0.0, 0.0, 0.0, 0.0, 0.0, 0.0, 0.0, 0.0, 0.0, 0.0, 0.0, 0.0, 0.0, 0.0, 0.0, 0.0, 0.0, 0.0, 0.0, 0.0, 0.0, 0.0)"
1970/01/01/01:00:11.060000,9,11,59000000,map,map,0.0622695032565,2.06276025918,-0.589660413023,0.000249083841114,-5.81247846272e-07,-0.681367779826,-0.73194114259,"(0.7725938393336537, 0.0, 0.0, 0.0, 0.0, 0.0, 0.0, 0.07063842212527363, 0.0, 0.0, 0.0, 0.0, 0.0, 0.0, 0.01009950397685547, 0.0, 0.0, 0.0, 0.0, 0.0, 0.0, 0.0, 0.0, 0.0, 0.0, 0.0, 0.0, 0.0, 0.0, 0.0, 0.0, 0.0, 0.0, 0.0, 0.0, 0.0)",0.0851462645943,0.212920827527,-0.494302000808,0.00684252669927,-0.00219755084211,0.148384565149,"(0.0, 0.0, 0.0, 0.0, 0.0, 0.0, 0.0, 0.0, 0.0, 0.0, 0.0, 0.0, 0.0, 0.0, 0.0, 0.0, 0.0, 0.0, 0.0, 0.0, 0.0, 0.0, 0.0, 0.0, 0.0, 0.0, 0.0, 0.0, 0.0, 0.0, 0.0, 0.0, 0.0, 0.0, 0.0, 0.0)"
1970/01/01/01:00:11.076000,10,11,76000000,map,map,0.0610787162244,2.06338615149,-0.579435084182,0.000327742280174,4.55280732589e-05,-0.682448482974,-0.730933690665,"(0.7849916564861603, 0.0, 0.0, 0.0, 0.0, 0.0, 0.0, 0.08076832703433975, 0.0, 0.0, 0.0, 0.0, 0.0, 0.0, 0.010099378785721118, 0.0, 0.0, 0.0, 0.0, 0.0, 0.0, 0.0, 0.0, 0.0, 0.0, 0.0, 0.0, 0.0, 0.0, 0.0, 0.0, 0.0, 0.0, 0.0, 0.0, 0.0)",0.0796837921644,0.228822557187,-0.465921403649,-0.00262093650135,-0.0101684647796,0.151610469546,"(0.0, 0.0, 0.0, 0.0, 0.0, 0.0, 0.0, 0.0, 0.0, 0.0, 0.0, 0.0, 0.0, 0.0, 0.0, 0.0, 0.0, 0.0, 0.0, 0.0, 0.0, 0.0, 0.0, 0.0, 0.0, 0.0, 0.0, 0.0, 0.0, 0.0, 0.0, 0.0, 0.0, 0.0, 0.0, 0.0)"
1970/01/01/01:00:11.119000,11,11,95000000,map,map,0.0597556195246,2.06408158756,-0.597599982449,0.000372730449833,6.50804757858e-05,-0.683374688946,-0.730067754687,"(0.7976678030909985, 0.0, 0.0, 0.0, 0.0, 0.0, 0.0, 0.09092028121029626, 0.0, 0.0, 0.0, 0.0, 0.0, 0.0, 0.01009950124520399, 0.0, 0.0, 0.0, 0.0, 0.0, 0.0, 0.0, 0.0, 0.0, 0.0, 0.0, 0.0, 0.0, 0.0, 0.0, 0.0, 0.0, 0.0, 0.0, 0.0, 0.0)",0.0739973564059,0.245084414254,-0.41009915998,-1.80963796868e-06,-0.00790702186641,0.126761405952,"(0.0, 0.0, 0.0, 0.0, 0.0, 0.0, 0.0, 0.0, 0.0, 0.0, 0.0, 0.0, 0.0, 0.0, 0.0, 0.0, 0.0, 0.0, 0.0, 0.0, 0.0, 0.0, 0.0, 0.0, 0.0, 0.0, 0.0, 0.0, 0.0, 0.0, 0.0, 0.0, 0.0, 0.0, 0.0, 0.0)"
1970/01/01/01:00:11.119000,12,11,116000000,map,map,0.0584325228242,2.06477702359,-0.606698322178,0.000313546406646,0.000108673683542,-0.684287218266,-0.729212545081,"(0.8103565595108634, 0.0, 0.0, 0.0, 0.0, 0.0, 0.0, 0.10108032947899513, 0.0, 0.0, 0.0, 0.0, 0.0, 0.0, 0.010099542861432451, 0.0, 0.0, 0.0, 0.0, 0.0, 0.0, 0.0, 0.0, 0.0, 0.0, 0.0, 0.0, 0.0, 0.0, 0.0, 0.0, 0.0, 0.0, 0.0, 0.0, 0.0)",0.0681902664894,0.261350550758,-0.376420247129,0.00675352422494,0.00183643485265,0.122751751575,"(0.0, 0.0, 0.0, 0.0, 0.0, 0.0, 0.0, 0.0, 0.0, 0.0, 0.0, 0.0, 0.0, 0.0, 0.0, 0.0, 0.0, 0.0, 0.0, 0.0, 0.0, 0.0, 0.0, 0.0, 0.0, 0.0, 0.0, 0.0, 0.0, 0.0, 0.0, 0.0, 0.0, 0.0, 0.0, 0.0)"
1970/01/01/01:00:11.164000,13,11,136000000,map,map,0.295126096326,2.04017235157,-0.602785233338,0.000356495527004,0.000113659565171,-0.685060074246,-0.728486556396,"(0.25118533635996143, 0.0, 0.0, 0.0, 0.0, 0.0, 0.0, 0.06670010759248468, 0.0, 0.0, 0.0, 0.0, 0.0, 0.0, 0.010036793993220057, 0.0, 0.0, 0.0, 0.0, 0.0, 0.0, 0.0, 0.0, 0.0, 0.0, 0.0, 0.0, 0.0, 0.0, 0.0, 0.0, 0.0, 0.0, 0.0, 0.0, 0.0)",0.0631253320084,0.275215495682,-0.351891303551,-0.00290704200238,-0.00364420733186,0.103808064691,"(0.0, 0.0, 0.0, 0.0, 0.0, 0.0, 0.0, 0.0, 0.0, 0.0, 0.0, 0.0, 0.0, 0.0, 0.0, 0.0, 0.0, 0.0, 0.0, 0.0, 0.0, 0.0, 0.0, 0.0, 0.0, 0.0, 0.0, 0.0, 0.0, 0.0, 0.0, 0.0, 0.0, 0.0, 0.0, 0.0)"
1970/01/01/01:00:11.164000,14,11,156000000,map,map,0.297605530904,2.04150342909,-0.577092724747,0.000386638673178,0.00013718133443,-0.685820521932,-0.727770615783,"(0.26166129667419225, 0.0, 0.0, 0.0, 0.0, 0.0, 0.0, 0.07679239095217327, 0.0, 0.0, 0.0, 0.0, 0.0, 0.0, 9.950343866066029e-05, 0.0, 0.0, 0.0, 0.0, 0.0, 0.0, 0.0, 0.0, 0.0, 0.0, 0.0, 0.0, 0.0, 0.0, 0.0, 0.0, 0.0, 0.0, 0.0, 0.0, 0.0)",0.0679800817024,0.287693946114,-0.313198992384,0.00647810644449,-0.00270485883935,0.100836733525,"(0.0, 0.0, 0.0, 0.0, 0.0, 0.0, 0.0, 0.0, 0.0, 0.0, 0.0, 0.0, 0.0, 0.0, 0.0, 0.0, 0.0, 0.0, 0.0, 0.0, 0.0, 0.0, 0.0, 0.0, 0.0, 0.0, 0.0, 0.0, 0.0, 0.0, 0.0, 0.0, 0.0, 0.0, 0.0, 0.0)"
1970/01/01/01:00:11.208000,15,11,176000000,map,map,0.296288582349,2.04210804231,-0.579964214469,0.000457845104902,6.63988407318e-05,-0.686542629155,-0.727089391002,"(0.27249806399041804, 0.0, 0.0, 0.0, 0.0, 0.0, 0.0, 0.08690581066231814, 0.0, 0.0, 0.0, 0.0, 0.0, 0.0, 0.010050515112074505, 0.0, 0.0, 0.0, 0.0, 0.0, 0.0, 0.0, 0.0, 0.0, 0.0, 0.0, 0.0, 0.0, 0.0, 0.0, 0.0, 0.0, 0.0, 0.0, 0.0, 0.0)",0.0723980335445,0.298924551502,-0.227694585682,-0.0181033131274,0.000823954291423,0.104347909457,"(0.0, 0.0, 0.0, 0.0, 0.0, 0.0, 0.0, 0.0, 0.0, 0.0, 0.0, 0.0, 0.0, 0.0, 0.0, 0.0, 0.0, 0.0, 0.0, 0.0, 0.0, 0.0, 0.0, 0.0, 0.0, 0.0, 0.0, 0.0, 0.0, 0.0, 0.0, 0.0, 0.0, 0.0, 0.0, 0.0)"
1970/01/01/01:00:11.208000,16,11,195000000,map,map,0.295356102746,2.0427861808,-0.596627364307,0.000520737484242,7.02232762233e-05,-0.687224682385,-0.726444848467,"(0.28334553382534583, 0.0, 0.0, 0.0, 0.0, 0.0, 0.0, 0.09702761942508104, 0.0, 0.0, 0.0, 0.0, 0.0, 0.0, 9.950378272267727e-05, 0.0, 0.0, 0.0, 0.0, 0.0, 0.0, 0.0, 0.0, 0.0, 0.0, 0.0, 0.0, 0.0, 0.0, 0.0, 0.0, 0.0, 0.0, 0.0, 0.0, 0.0)",0.0760736734623,0.30852671911,-0.157339793889,0.00205641039021,-0.00644290945267,0.0858269695306,"(0.0, 0.0, 0.0, 0.0, 0.0, 0.0, 0.0, 0.0, 0.0, 0.0, 0.0, 0.0, 0.0, 0.0, 0.0, 0.0, 0.0, 0.0, 0.0, 0.0, 0.0, 0.0, 0.0, 0.0, 0.0, 0.0, 0.0, 0.0, 0.0, 0.0, 0.0, 0.0, 0.0, 0.0, 0.0, 0.0)"
1970/01/01/01:00:11.251000,17,11,215000000,map,map,0.29447550619,2.04343141718,-0.596572091903,0.000553055926403,9.06804262964e-05,-0.687812015841,-0.725888703679,"(0.2941598065832369, 0.0, 0.0, 0.0, 0.0, 0.0, 0.0, 0.10715115163938473, 0.0, 0.0, 0.0, 0.0, 0.0, 0.0, 0.010100160301995413, 0.0, 0.0, 0.0, 0.0, 0.0, 0.0, 0.0, 0.0, 0.0, 0.0, 0.0, 0.0, 0.0, 0.0, 0.0, 0.0, 0.0, 0.0, 0.0, 0.0, 0.0)",0.0794831042291,0.317674047199,-0.0900439574945,0.000592933253543,-0.0044066573047,0.0802740670493,"(0.0, 0.0, 0.0, 0.0, 0.0, 0.0, 0.0, 0.0, 0.0, 0.0, 0.0, 0.0, 0.0, 0.0, 0.0, 0.0, 0.0, 0.0, 0.0, 0.0, 0.0, 0.0, 0.0, 0.0, 0.0, 0.0, 0.0, 0.0, 0.0, 0.0, 0.0, 0.0, 0.0, 0.0, 0.0, 0.0)"
1970/01/01/01:00:11.251000,18,11,235000000,map,map,0.293502248614,2.04414457947,-0.584464061514,0.000506384856543,9.76089113264e-05,-0.688417374978,-0.725314617504,"(0.3050702794984415, 0.0, 0.0, 0.0, 0.0, 0.0, 0.0, 0.11729663218627154, 0.0, 0.0, 0.0, 0.0, 0.0, 0.0, 0.010099864680669306, 0.0, 0.0, 0.0, 0.0, 0.0, 0.0, 0.0, 0.0, 0.0, 0.0, 0.0, 0.0, 0.0, 0.0, 0.0, 0.0, 0.0, 0.0, 0.0, 0.0, 0.0)",0.0824552873204,0.325906642479,-0.0587412149403,0.00236519683226,0.00361357733106,0.0837448624081,"(0.0, 0.0, 0.0, 0.0, 0.0, 0.0, 0.0, 0.0, 0.0, 0.0, 0.0, 0.0, 0.0, 0.0, 0.0, 0.0, 0.0, 0.0, 0.0, 0.0, 0.0, 0.0, 0.0, 0.0, 0.0, 0.0, 0.0, 0.0, 0.0, 0.0, 0.0, 0.0, 0.0, 0.0, 0.0, 0.0)"
1970/01/01/01:00:11.292000,19,11,255000000,map,map,0.292528956283,2.04485773518,-0.581681562689,0.000496176397983,0.000181231458887,-0.689033340632,-0.724729419049,"(0.31599185000600183, 0.0, 0.0, 0.0, 0.0, 0.0, 0.0, 0.1274515909168478, 0.0, 0.0, 0.0, 0.0, 0.0, 0.0, 0.010099911021338809, 0.0, 0.0, 0.0, 0.0, 0.0, 0.0, 0.0, 0.0, 0.0, 0.0, 0.0, 0.0, 0.0, 0.0, 0.0, 0.0, 0.0, 0.0, 0.0, 0.0, 0.0)",0.0850277353161,0.333315978231,-0.0105175049996,0.00453848400531,-0.00895342812729,0.0689129517691,"(0.0, 0.0, 0.0, 0.0, 0.0, 0.0, 0.0, 0.0, 0.0, 0.0, 0.0, 0.0, 0.0, 0.0, 0.0, 0.0, 0.0, 0.0, 0.0, 0.0, 0.0, 0.0, 0.0, 0.0, 0.0, 0.0, 0.0, 0.0, 0.0, 0.0, 0.0, 0.0, 0.0, 0.0, 0.0, 0.0)"
1970/01/01/01:00:11.292000,20,11,275000000,map,map,0.291648353699,2.04550297035,-0.570949363746,0.000507030065524,0.000148301815394,-0.689474162423,-0.724310176445,"(0.3268352885449669, 0.0, 0.0, 0.0, 0.0, 0.0, 0.0, 0.1376000329154893, 0.0, 0.0, 0.0, 0.0, 0.0, 0.0, 0.010099787570866792, 0.0, 0.0, 0.0, 0.0, 0.0, 0.0, 0.0, 0.0, 0.0, 0.0, 0.0, 0.0, 0.0, 0.0, 0.0, 0.0, 0.0, 0.0, 0.0, 0.0, 0.0)",0.0872380425891,0.339984380408,0.0346570014924,-0.00412819377698,0.00344693073783,0.0705993672179,"(0.0, 0.0, 0.0, 0.0, 0.0, 0.0, 0.0, 0.0, 0.0, 0.0, 0.0, 0.0, 0.0, 0.0, 0.0, 0.0, 0.0, 0.0, 0.0, 0.0, 0.0, 0.0, 0.0, 0.0, 0.0, 0.0, 0.0, 0.0, 0.0, 0.0, 0.0, 0.0, 0.0, 0.0, 0.0, 0.0)"
1970/01/01/01:00:11.334000,21,11,295000000,map,map,0.341631151381,2.00558350465,-0.558787359927,0.000516785033872,0.000178574334695,-0.689904392185,-0.723900345758,"(0.20665662473834345, 0.0, 0.0, 0.0, 0.0, 0.0, 0.0, 0.06453571631174684, 0.0, 0.0, 0.0, 0.0, 0.0, 0.0, 0.010099811668740754, 0.0, 0.0, 0.0, 0.0, 0.0, 0.0, 0.0, 0.0, 0.0, 0.0, 0.0, 0.0, 0.0, 0.0, 0.0, 0.0, 0.0, 0.0, 0.0, 0.0, 0.0)",0.0891240728432,0.345985942367,0.0890341884254,0.00303977869147,-0.00617710842853,0.0564030331907,"(0.0, 0.0, 0.0, 0.0, 0.0, 0.0, 0.0, 0.0, 0.0, 0.0, 0.0, 0.0, 0.0, 0.0, 0.0, 0.0, 0.0, 0.0, 0.0, 0.0, 0.0, 0.0, 0.0, 0.0, 0.0, 0.0, 0.0, 0.0, 0.0, 0.0, 0.0, 0.0, 0.0, 0.0, 0.0, 0.0)"
1970/01/01/01:00:11.334000,22,11,315000000,map,map,0.340729727603,2.00624540595,-0.577651849121,0.000539486164067,0.000146633701576,-0.690301132323,-0.723522065939,"(0.21724211944397306, 0.0, 0.0, 0.0, 0.0, 0.0, 0.0, 0.07461989471546211, 0.0, 0.0, 0.0, 0.0, 0.0, 0.0, 0.010100043909623255, 0.0, 0.0, 0.0, 0.0, 0.0, 0.0, 0.0, 0.0, 0.0, 0.0, 0.0, 0.0, 0.0, 0.0, 0.0, 0.0, 0.0, 0.0, 0.0, 0.0, 0.0)",0.0927510215451,0.35138734813,0.151650710953,-0.00497215430113,-0.000345066349398,0.0596681582164,"(0.0, 0.0, 0.0, 0.0, 0.0, 0.0, 0.0, 0.0, 0.0, 0.0, 0.0, 0.0, 0.0, 0.0, 0.0, 0.0, 0.0, 0.0, 0.0, 0.0, 0.0, 0.0, 0.0, 0.0, 0.0, 0.0, 0.0, 0.0, 0.0, 0.0, 0.0, 0.0, 0.0, 0.0, 0.0, 0.0)"
1970/01/01/01:00:11.377000,23,11,336000000,map,map,0.339877419166,2.0068996207,-0.585063315332,0.000552962166129,0.000168267300254,-0.690747230373,-0.723096198376,"(0.2278098934262086, 0.0, 0.0, 0.0, 0.0, 0.0, 0.0, 0.08470916616175835, 0.0, 0.0, 0.0, 0.0, 0.0, 0.0, 0.01009999193255895, 0.0, 0.0, 0.0, 0.0, 0.0, 0.0, 0.0, 0.0, 0.0, 0.0, 0.0, 0.0, 0.0, 0.0, 0.0, 0.0, 0.0, 0.0, 0.0, 0.0, 0.0)",0.0960657640486,0.356491676577,0.168119537192,0.00183880730589,-0.00126366474886,0.0615935722127,"(0.0, 0.0, 0.0, 0.0, 0.0, 0.0, 0.0, 0.0, 0.0, 0.0, 0.0, 0.0, 0.0, 0.0, 0.0, 0.0, 0.0, 0.0, 0.0, 0.0, 0.0, 0.0, 0.0, 0.0, 0.0, 0.0, 0.0, 0.0, 0.0, 0.0, 0.0, 0.0, 0.0, 0.0, 0.0, 0.0)"
1970/01/01/01:00:11.377000,24,11,356000000,map,map,0.338939900393,2.00761936739,-0.565913573795,0.000581513342693,0.000150096184543,-0.69118402714,-0.722678536279,"(0.23844598781779194, 0.0, 0.0, 0.0, 0.0, 0.0, 0.0, 0.0948176974474545, 0.0, 0.0, 0.0, 0.0, 0.0, 0.0, 0.010100242221699564, 0.0, 0.0, 0.0, 0.0, 0.0, 0.0, 0.0, 0.0, 0.0, 0.0, 0.0, 0.0, 0.0, 0.0, 0.0, 0.0, 0.0, 0.0, 0.0, 0.0, 0.0)",0.098779184225,0.360842508919,0.162850149793,-0.00452498885231,-0.00381803783457,0.0599868910004,"(0.0, 0.0, 0.0, 0.0, 0.0, 0.0, 0.0, 0.0, 0.0, 0.0, 0.0, 0.0, 0.0, 0.0, 0.0, 0.0, 0.0, 0.0, 0.0, 0.0, 0.0, 0.0, 0.0, 0.0, 0.0, 0.0, 0.0, 0.0, 0.0, 0.0, 0.0, 0.0, 0.0, 0.0, 0.0, 0.0)"
1970/01/01/01:00:11.377000,25,11,375000000,map,map,0.338172843594,2.00820824847,-0.566065301955,0.000597137743314,0.000217481483788,-0.69156196715,-0.722316864952,"(0.24897548992338836, 0.0, 0.0, 0.0, 0.0, 0.0, 0.0, 0.10491461390683755, 0.0, 0.0, 0.0, 0.0, 0.0, 0.0, 0.010099875924350651, 0.0, 0.0, 0.0, 0.0, 0.0, 0.0, 0.0, 0.0, 0.0, 0.0, 0.0, 0.0, 0.0, 0.0, 0.0, 0.0, 0.0, 0.0, 0.0, 0.0, 0.0)",0.100990522782,0.364562470572,0.183842054127,0.00480775261589,-0.00284572563537,0.0471536695481,"(0.0, 0.0, 0.0, 0.0, 0.0, 0.0, 0.0, 0.0, 0.0, 0.0, 0.0, 0.0, 0.0, 0.0, 0.0, 0.0, 0.0, 0.0, 0.0, 0.0, 0.0, 0.0, 0.0, 0.0, 0.0, 0.0, 0.0, 0.0, 0.0, 0.0, 0.0, 0.0, 0.0, 0.0, 0.0, 0.0)"
1970/01/01/01:00:11.420000,26,11,396000000,map,map,0.337320554431,2.00886256127,-0.551517674322,0.000678258922748,0.000221573658781,-0.692011762269,-0.721885867328,"(0.25957347203823844, 0.0, 0.0, 0.0, 0.0, 0.0, 0.0, 0.11503094980391458, 0.0, 0.0, 0.0, 0.0, 0.0, 0.0, 0.010100111096551482, 0.0, 0.0, 0.0, 0.0, 0.0, 0.0, 0.0, 0.0, 0.0, 0.0, 0.0, 0.0, 0.0, 0.0, 0.0, 0.0, 0.0, 0.0, 0.0, 0.0, 0.0)",0.103091401095,0.368283411162,0.19695504093,-0.00818269760768,-0.0064912992506,0.0559074791261,"(0.0, 0.0, 0.0, 0.0, 0.0, 0.0, 0.0, 0.0, 0.0, 0.0, 0.0, 0.0, 0.0, 0.0, 0.0, 0.0, 0.0, 0.0, 0.0, 0.0, 0.0, 0.0, 0.0, 0.0, 0.0, 0.0, 0.0, 0.0, 0.0, 0.0, 0.0, 0.0, 0.0, 0.0, 0.0, 0.0)"
1970/01/01/01:00:11.420000,27,11,416000000,map,map,0.336510883098,2.009484158,-0.550792477027,0.00064522456039,0.000198656680335,-0.692250140893,-0.721657351066,"(0.27015103152826137, 0.0, 0.0, 0.0, 0.0, 0.0, 0.0, 0.12514997477478954, 0.0, 0.0, 0.0, 0.0, 0.0, 0.0, 0.010100044208360491, 0.0, 0.0, 0.0, 0.0, 0.0, 0.0, 0.0, 0.0, 0.0, 0.0, 0.0, 0.0, 0.0, 0.0, 0.0, 0.0, 0.0, 0.0, 0.0, 0.0, 0.0)",0.104763226147,0.371455070045,0.22463257659,0.00241870477016,0.00390609957923,0.0416479083803,"(0.0, 0.0, 0.0, 0.0, 0.0, 0.0, 0.0, 0.0, 0.0, 0.0, 0.0, 0.0, 0.0, 0.0, 0.0, 0.0, 0.0, 0.0, 0.0, 0.0, 0.0, 0.0, 0.0, 0.0, 0.0, 0.0, 0.0, 0.0, 0.0, 0.0, 0.0, 0.0, 0.0, 0.0, 0.0, 0.0)"
1970/01/01/01:00:11.436000,28,11,435000000,map,map,0.398122786596,2.01317317986,-0.546656144653,0.00060076008796,0.000156829925614,-0.692535663401,-0.721383461088,"(0.1878839737596358, 0.0, 0.0, 0.0, 0.0, 0.0, 0.0, 0.05649888302972594, 0.0, 0.0, 0.0, 0.0, 0.0, 0.0, 0.01010018200640651, 0.0, 0.0, 0.0, 0.0, 0.0, 0.0, 0.0, 0.0, 0.0, 0.0, 0.0, 0.0, 0.0, 0.0, 0.0, 0.0, 0.0, 0.0, 0.0, 0.0, 0.0)",0.106083519591,0.374166838391,0.240578823112,-0.00211075126299,0.00205459562892,0.036593529089,"(0.0, 0.0, 0.0, 0.0, 0.0, 0.0, 0.0, 0.0, 0.0, 0.0, 0.0, 0.0, 0.0, 0.0, 0.0, 0.0, 0.0, 0.0, 0.0, 0.0, 0.0, 0.0, 0.0, 0.0, 0.0, 0.0, 0.0, 0.0, 0.0, 0.0, 0.0, 0.0, 0.0, 0.0, 0.0, 0.0)"
1970/01/01/01:00:11.457000,29,11,455000000,map,map,0.397218092222,2.01391788505,-0.550471352299,0.000592761097673,1.10926060106e-05,-0.692805982751,-0.721123847038,"(0.19837085763306722, 0.0, 0.0, 0.0, 0.0, 0.0, 0.0, 0.06657499804425533, 0.0, 0.0, 0.0, 0.0, 0.0, 0.0, 0.010100623198304319, 0.0, 0.0, 0.0, 0.0, 0.0, 0.0, 0.0, 0.0, 0.0, 0.0, 0.0, 0.0, 0.0, 0.0, 0.0, 0.0, 0.0, 0.0, 0.0, 0.0, 0.0)",0.109726128907,0.376750154552,0.253955618827,-0.00682673909724,0.0134140867801,0.0283685694679,"(0.0, 0.0, 0.0, 0.0, 0.0, 0.0, 0.0, 0.0, 0.0, 0.0, 0.0, 0.0, 0.0, 0.0, 0.0, 0.0, 0.0, 0.0, 0.0, 0.0, 0.0, 0.0, 0.0, 0.0, 0.0, 0.0, 0.0, 0.0, 0.0, 0.0, 0.0, 0.0, 0.0, 0.0, 0.0, 0.0)"
1970/01/01/01:00:11.499000,30,11,475000000,map,map,0.396510813731,2.0145051049,-0.547980145325,0.000544844617251,5.14564864252e-05,-0.692947783188,-0.720987609985,"(0.20876133684900097, 0.0, 0.0, 0.0, 0.0, 0.0, 0.0, 0.07664323553772201, 0.0, 0.0, 0.0, 0.0, 0.0, 0.0, 0.010100042405190104, 0.0, 0.0, 0.0, 0.0, 0.0, 0.0, 0.0, 0.0, 0.0, 0.0, 0.0, 0.0, 0.0, 0.0, 0.0, 0.0, 0.0, 0.0, 0.0, 0.0, 0.0)",0.112883422701,0.379075139097,0.250279081886,0.00964570156079,-0.00344545246417,0.0202315959602,"(0.0, 0.0, 0.0, 0.0, 0.0, 0.0, 0.0, 0.0, 0.0, 0.0, 0.0, 0.0, 0.0, 0.0, 0.0, 0.0, 0.0, 0.0, 0.0, 0.0, 0.0, 0.0, 0.0, 0.0, 0.0, 0.0, 0.0, 0.0, 0.0, 0.0, 0.0, 0.0, 0.0, 0.0, 0.0, 0.0)"
1970/01/01/01:00:11.499000,31,11,495000000,map,map,0.395764237019,2.01512491104,-0.55193062042,0.000484892453923,1.68717868175e-05,-0.693140574727,-0.720802320585,"(0.2191825764348637, 0.0, 0.0, 0.0, 0.0, 0.0, 0.0, 0.08672358221375952, 0.0, 0.0, 0.0, 0.0, 0.0, 0.0, 0.010100188855600352, 0.0, 0.0, 0.0, 0.0, 0.0, 0.0, 0.0, 0.0, 0.0, 0.0, 0.0, 0.0, 0.0, 0.0, 0.0, 0.0, 0.0, 0.0, 0.0, 0.0, 0.0)",0.115608915073,0.381167625187,0.243024676663,-0.00471019543462,0.00997544819727,0.028145906331,"(0.0, 0.0, 0.0, 0.0, 0.0, 0.0, 0.0, 0.0, 0.0, 0.0, 0.0, 0.0, 0.0, 0.0, 0.0, 0.0, 0.0, 0.0, 0.0, 0.0, 0.0, 0.0, 0.0, 0.0, 0.0, 0.0, 0.0, 0.0, 0.0, 0.0, 0.0, 0.0, 0.0, 0.0, 0.0, 0.0)"
1970/01/01/01:00:11.542000,32,11,515000000,map,map,0.39493907092,2.01580996103,-0.542325413149,0.000469046514813,-1.37093737719e-05,-0.693390795298,-0.720561625201,"(0.22965907605905148, 0.0, 0.0, 0.0, 0.0, 0.0, 0.0, 0.09682241065302678, 0.0, 0.0, 0.0, 0.0, 0.0, 0.0, 0.010100491483518922, 0.0, 0.0, 0.0, 0.0, 0.0, 0.0, 0.0, 0.0, 0.0, 0.0, 0.0, 0.0, 0.0, 0.0, 0.0, 0.0, 0.0, 0.0, 0.0, 0.0, 0.0)",0.117941688401,0.383050862668,0.222294391262,0.00515059414882,0.000543781967611,0.0362329514968,"(0.0, 0.0, 0.0, 0.0, 0.0, 0.0, 0.0, 0.0, 0.0, 0.0, 0.0, 0.0, 0.0, 0.0, 0.0, 0.0, 0.0, 0.0, 0.0, 0.0, 0.0, 0.0, 0.0, 0.0, 0.0, 0.0, 0.0, 0.0, 0.0, 0.0, 0.0, 0.0, 0.0, 0.0, 0.0, 0.0)"
1970/01/01/01:00:11.542000,33,11,535000000,map,map,0.394153196401,2.01646238997,-0.523831697041,0.000481887885765,1.13275417638e-05,-0.693621566416,-0.720339452041,"(0.24012362322734376, 0.0, 0.0, 0.0, 0.0, 0.0, 0.0, 0.10692639747265562, 0.0, 0.0, 0.0, 0.0, 0.0, 0.0, 0.010100398955939328, 0.0, 0.0, 0.0, 0.0, 0.0, 0.0, 0.0, 0.0, 0.0, 0.0, 0.0, 0.0, 0.0, 0.0, 0.0, 0.0, 0.0, 0.0, 0.0, 0.0, 0.0)",0.11991569062,0.384745776402,0.213618019171,0.00111212313218,0.000286573307362,0.0296719109427,"(0.0, 0.0, 0.0, 0.0, 0.0, 0.0, 0.0, 0.0, 0.0, 0.0, 0.0, 0.0, 0.0, 0.0, 0.0, 0.0, 0.0, 0.0, 0.0, 0.0, 0.0, 0.0, 0.0, 0.0, 0.0, 0.0, 0.0, 0.0, 0.0, 0.0, 0.0, 0.0, 0.0, 0.0, 0.0, 0.0)"
1970/01/01/01:00:11.587000,34,11,557000000,map,map,0.393328035085,2.01714743902,-0.539946652637,0.000478107881448,1.66928273475e-05,-0.693849275302,-0.720120172525,"(0.25062276085656987, 0.0, 0.0, 0.0, 0.0, 0.0, 0.0, 0.1170460295546089, 0.0, 0.0, 0.0, 0.0, 0.0, 0.0, 0.010100582296567906, 0.0, 0.0, 0.0, 0.0, 0.0, 0.0, 0.0, 0.0, 0.0, 0.0, 0.0, 0.0, 0.0, 0.0, 0.0, 0.0, 0.0, 0.0, 0.0, 0.0, 0.0)",0.121731585653,0.386423740997,0.231737163584,0.00601949917711,-0.0050334224573,0.023603975409,"(0.0, 0.0, 0.0, 0.0, 0.0, 0.0, 0.0, 0.0, 0.0, 0.0, 0.0, 0.0, 0.0, 0.0, 0.0, 0.0, 0.0, 0.0, 0.0, 0.0, 0.0, 0.0, 0.0, 0.0, 0.0, 0.0, 0.0, 0.0, 0.0, 0.0, 0.0, 0.0, 0.0, 0.0, 0.0, 0.0)"
1970/01/01/01:00:11.587000,35,11,576000000,map,map,0.589626282816,1.9219100815,-0.544067496086,0.000494379199151,3.20253486955e-05,-0.693957961488,-0.720015448143,"(0.17752367208826542, 0.0, 0.0, 0.0, 0.0, 0.0, 0.0, 0.05088378208355982, 0.0, 0.0, 0.0, 0.0, 0.0, 0.0, 0.01010032721736548, 0.0, 0.0, 0.0, 0.0, 0.0, 0.0, 0.0, 0.0, 0.0, 0.0, 0.0, 0.0, 0.0, 0.0, 0.0, 0.0, 0.0, 0.0, 0.0, 0.0, 0.0)",0.12299574296,0.387713485603,0.210986504109,-0.000970155403074,-0.00334857787279,0.0153314677784,"(0.0, 0.0, 0.0, 0.0, 0.0, 0.0, 0.0, 0.0, 0.0, 0.0, 0.0, 0.0, 0.0, 0.0, 0.0, 0.0, 0.0, 0.0, 0.0, 0.0, 0.0, 0.0, 0.0, 0.0, 0.0, 0.0, 0.0, 0.0, 0.0, 0.0, 0.0, 0.0, 0.0, 0.0, 0.0, 0.0)"
1970/01/01/01:00:11.629000,36,11,596000000,map,map,0.58903670599,1.92250511854,-0.548101902618,0.000420866740065,4.77189582299e-06,-0.694158253848,-0.719822320746,"(0.18786286073831787, 0.0, 0.0, 0.0, 0.0, 0.0, 0.0, 0.0609416670529813, 0.0, 0.0, 0.0, 0.0, 0.0, 0.0, 9.950506192790642e-05, 0.0, 0.0, 0.0, 0.0, 0.0, 0.0, 0.0, 0.0, 0.0, 0.0, 0.0, 0.0, 0.0, 0.0, 0.0, 0.0, 0.0, 0.0, 0.0, 0.0, 0.0)",0.131959433035,0.388942137042,0.179087420629,0.00289579685831,0.00717694043044,0.0228205273913,"(0.0, 0.0, 0.0, 0.0, 0.0, 0.0, 0.0, 0.0, 0.0, 0.0, 0.0, 0.0, 0.0, 0.0, 0.0, 0.0, 0.0, 0.0, 0.0, 0.0, 0.0, 0.0, 0.0, 0.0, 0.0, 0.0, 0.0, 0.0, 0.0, 0.0, 0.0, 0.0, 0.0, 0.0, 0.0, 0.0)"
1970/01/01/01:00:11.629000,37,11,616000000,map,map,0.588447588402,1.92310344843,-0.528666275754,0.000419016322605,-9.00500242762e-05,-0.694337567615,-0.7196494133,"(0.1982126949480642, 0.0, 0.0, 0.0, 0.0, 0.0, 0.0, 0.07100947117097302, 0.0, 0.0, 0.0, 0.0, 0.0, 0.0, 9.901970822593559e-05, 0.0, 0.0, 0.0, 0.0, 0.0, 0.0, 0.0, 0.0, 0.0, 0.0, 0.0, 0.0, 0.0, 0.0, 0.0, 0.0, 0.0, 0.0, 0.0, 0.0, 0.0)",0.139904774436,0.390047923338,0.139811259487,-0.00723621938992,0.0101333369435,0.031084965562,"(0.0, 0.0, 0.0, 0.0, 0.0, 0.0, 0.0, 0.0, 0.0, 0.0, 0.0, 0.0, 0.0, 0.0, 0.0, 0.0, 0.0, 0.0, 0.0, 0.0, 0.0, 0.0, 0.0, 0.0, 0.0, 0.0, 0.0, 0.0, 0.0, 0.0, 0.0, 0.0, 0.0, 0.0, 0.0, 0.0)"
1970/01/01/01:00:11.672000,38,11,636000000,map,map,0.587858453078,1.92370163052,-0.5319724189,0.000362699078008,-0.00012053960602,-0.694563784239,-0.719431120284,"(0.2085732544856262, 0.0, 0.0, 0.0, 0.0, 0.0, 0.0, 0.08108726264860636, 0.0, 0.0, 0.0, 0.0, 0.0, 0.0, 9.901966557134902e-05, 0.0, 0.0, 0.0, 0.0, 0.0, 0.0, 0.0, 0.0, 0.0, 0.0, 0.0, 0.0, 0.0, 0.0, 0.0, 0.0, 0.0, 0.0, 0.0, 0.0, 0.0)",0.146926449446,0.391043131004,0.134813461326,0.00766634485167,0.00558667499157,0.019036461319,"(0.0, 0.0, 0.0, 0.0, 0.0, 0.0, 0.0, 0.0, 0.0, 0.0, 0.0, 0.0, 0.0, 0.0, 0.0, 0.0, 0.0, 0.0, 0.0, 0.0, 0.0, 0.0, 0.0, 0.0, 0.0, 0.0, 0.0, 0.0, 0.0, 0.0, 0.0, 0.0, 0.0, 0.0, 0.0, 0.0)"
1970/01/01/01:00:11.672000,39,11,656000000,map,map,0.587210403792,1.92435963124,-0.531901388123,0.000409126115969,-0.000153525668255,-0.694672658769,-0.719325870383,"(0.21898235233056168, 0.0, 0.0, 0.0, 0.0, 0.0, 0.0, 0.09118446327372065, 0.0, 0.0, 0.0, 0.0, 0.0, 0.0, 0.010100978290014178, 0.0, 0.0, 0.0, 0.0, 0.0, 0.0, 0.0, 0.0, 0.0, 0.0, 0.0, 0.0, 0.0, 0.0, 0.0, 0.0, 0.0, 0.0, 0.0, 0.0, 0.0)",0.153110467723,0.391938817904,0.120644608905,-0.00738219188502,-0.00618523866824,0.011202436283,"(0.0, 0.0, 0.0, 0.0, 0.0, 0.0, 0.0, 0.0, 0.0, 0.0, 0.0, 0.0, 0.0, 0.0, 0.0, 0.0, 0.0, 0.0, 0.0, 0.0, 0.0, 0.0, 0.0, 0.0, 0.0, 0.0, 0.0, 0.0, 0.0, 0.0, 0.0, 0.0, 0.0, 0.0, 0.0, 0.0)"
1970/01/01/01:00:11.694000,40,11,676000000,map,map,0.586680184524,1.92489799452,-0.552365953126,0.000343090267028,-0.000195851898116,-0.694869477966,-0.719135878976,"(0.22932686194417143, 0.0, 0.0, 0.0, 0.0, 0.0, 0.0, 0.1012731200810615, 0.0, 0.0, 0.0, 0.0, 0.0, 0.0, 0.010100371538554823, 0.0, 0.0, 0.0, 0.0, 0.0, 0.0, 0.0, 0.0, 0.0, 0.0, 0.0, 0.0, 0.0, 0.0, 0.0, 0.0, 0.0, 0.0, 0.0, 0.0, 0.0)",0.158532621042,0.392744936114,0.104934129552,0.000775934057729,0.0102452101533,0.024923628506,"(0.0, 0.0, 0.0, 0.0, 0.0, 0.0, 0.0, 0.0, 0.0, 0.0, 0.0, 0.0, 0.0, 0.0, 0.0, 0.0, 0.0, 0.0, 0.0, 0.0, 0.0, 0.0, 0.0, 0.0, 0.0, 0.0, 0.0, 0.0, 0.0, 0.0, 0.0, 0.0, 0.0, 0.0, 0.0, 0.0)"
1970/01/01/01:00:11.705000,41,11,704000000,map,map,0.586091045388,1.92549617812,-0.523081668623,0.000307292790825,-0.000179208446172,-0.695053470033,-0.718958040348,"(0.2397200694651544, 0.0, 0.0, 0.0, 0.0, 0.0, 0.0, 0.11138134563588316, 0.0, 0.0, 0.0, 0.0, 0.0, 0.0, 9.901967694811373e-05, 0.0, 0.0, 0.0, 0.0, 0.0, 0.0, 0.0, 0.0, 0.0, 0.0, 0.0, 0.0, 0.0, 0.0, 0.0, 0.0, 0.0, 0.0, 0.0, 0.0, 0.0)",0.16516335822,0.393760645058,0.0339576592537,0.00160924169659,0.00271655258364,0.0149327380642,"(0.0, 0.0, 0.0, 0.0, 0.0, 0.0, 0.0, 0.0, 0.0, 0.0, 0.0, 0.0, 0.0, 0.0, 0.0, 0.0, 0.0, 0.0, 0.0, 0.0, 0.0, 0.0, 0.0, 0.0, 0.0, 0.0, 0.0, 0.0, 0.0, 0.0, 0.0, 0.0, 0.0, 0.0, 0.0, 0.0)"
1970/01/01/01:00:11.730000,42,11,715000000,map,map,0.613302194738,1.93883235555,-0.52306315415,0.000236486997257,-0.000210072568674,-0.695241858543,-0.718775889572,"(0.17624029818714776, 0.0, 0.0, 0.0, 0.0, 0.0, 0.0, 0.03922661707612401, 0.0, 0.0, 0.0, 0.0, 0.0, 0.0, 0.010100582922343206, 0.0, 0.0, 0.0, 0.0, 0.0, 0.0, 0.0, 0.0, 0.0, 0.0, 0.0, 0.0, 0.0, 0.0, 0.0, 0.0, 0.0, 0.0, 0.0, 0.0, 0.0)",0.167292982983,0.394103809579,0.0380320757917,0.00397299511944,0.00366680300422,0.0272808371114,"(0.0, 0.0, 0.0, 0.0, 0.0, 0.0, 0.0, 0.0, 0.0, 0.0, 0.0, 0.0, 0.0, 0.0, 0.0, 0.0, 0.0, 0.0, 0.0, 0.0, 0.0, 0.0, 0.0, 0.0, 0.0, 0.0, 0.0, 0.0, 0.0, 0.0, 0.0, 0.0, 0.0, 0.0, 0.0, 0.0)"
1970/01/01/01:00:11.746000,43,11,736000000,map,map,0.612710518861,1.93941248558,-0.556169802169,0.000259990651718,-0.000268919616822,-0.695380306989,-0.718641824398,"(0.18654558353574593, 0.0, 0.0, 0.0, 0.0, 0.0, 0.0, 0.04927452078779392, 0.0, 0.0, 0.0, 0.0, 0.0, 0.0, 0.01010098251535137, 0.0, 0.0, 0.0, 0.0, 0.0, 0.0, 0.0, 0.0, 0.0, 0.0, 0.0, 0.0, 0.0, 0.0, 0.0, 0.0, 0.0, 0.0, 0.0, 0.0, 0.0)",0.172201582458,0.394722909574,0.0443335952783,-0.00550360541615,0.00350533510592,0.0141395921044,"(0.0, 0.0, 0.0, 0.0, 0.0, 0.0, 0.0, 0.0, 0.0, 0.0, 0.0, 0.0, 0.0, 0.0, 0.0, 0.0, 0.0, 0.0, 0.0, 0.0, 0.0, 0.0, 0.0, 0.0, 0.0, 0.0, 0.0, 0.0, 0.0, 0.0, 0.0, 0.0, 0.0, 0.0, 0.0, 0.0)"
1970/01/01/01:00:11.758000,44,11,757000000,map,map,0.612142449753,1.94001671298,-0.531732875501,0.000177921789115,-0.000362949664483,-0.695606268098,-0.718423281135,"(0.1968477071796716, 0.0, 0.0, 0.0, 0.0, 0.0, 0.0, 0.05933085357145972, 0.0, 0.0, 0.0, 0.0, 0.0, 0.0, 0.010100845422814376, 0.0, 0.0, 0.0, 0.0, 0.0, 0.0, 0.0, 0.0, 0.0, 0.0, 0.0, 0.0, 0.0, 0.0, 0.0, 0.0, 0.0, 0.0, 0.0, 0.0, 0.0)",0.17642237619,0.395277004068,-0.010022517147,-0.00103722194774,0.0150398879505,0.0250552345498,"(0.0, 0.0, 0.0, 0.0, 0.0, 0.0, 0.0, 0.0, 0.0, 0.0, 0.0, 0.0, 0.0, 0.0, 0.0, 0.0, 0.0, 0.0, 0.0, 0.0, 0.0, 0.0, 0.0, 0.0, 0.0, 0.0, 0.0, 0.0, 0.0, 0.0, 0.0, 0.0, 0.0, 0.0, 0.0, 0.0)"
1970/01/01/01:00:11.780000,45,11,775000000,map,map,0.611602818928,1.94059035923,-0.532186522272,0.000145973716502,-0.000420331590334,-0.695727993465,-0.71830526469,"(0.20714507825995604, 0.0, 0.0, 0.0, 0.0, 0.0, 0.0, 0.06939409941010523, 0.0, 0.0, 0.0, 0.0, 0.0, 0.0, 0.010100704087237363, 0.0, 0.0, 0.0, 0.0, 0.0, 0.0, 0.0, 0.0, 0.0, 0.0, 0.0, 0.0, 0.0, 0.0, 0.0, 0.0, 0.0, 0.0, 0.0, 0.0, 0.0)",0.179509693069,0.395702073702,-0.0115704886663,-0.00359881561831,0.00821490457637,0.0119306406528,"(0.0, 0.0, 0.0, 0.0, 0.0, 0.0, 0.0, 0.0, 0.0, 0.0, 0.0, 0.0, 0.0, 0.0, 0.0, 0.0, 0.0, 0.0, 0.0, 0.0, 0.0, 0.0, 0.0, 0.0, 0.0, 0.0, 0.0, 0.0, 0.0, 0.0, 0.0, 0.0, 0.0, 0.0, 0.0, 0.0)"
1970/01/01/01:00:11.806000,46,11,796000000,map,map,0.61100638424,1.94122438956,-0.525598240009,0.000121559321032,-0.000361858857533,-0.695900414905,-0.71813832234,"(0.2174855756316447, 0.0, 0.0, 0.0, 0.0, 0.0, 0.0, 0.0794751194924444, 0.0, 0.0, 0.0, 0.0, 0.0, 0.0, 0.010101116122928923, 0.0, 0.0, 0.0, 0.0, 0.0, 0.0, 0.0, 0.0, 0.0, 0.0, 0.0, 0.0, 0.0, 0.0, 0.0, 0.0, 0.0, 0.0, 0.0, 0.0, 0.0)",0.182631354678,0.396153355963,-0.0135295539794,0.00424180888663,-0.00430598687282,0.0213758627917,"(0.0, 0.0, 0.0, 0.0, 0.0, 0.0, 0.0, 0.0, 0.0, 0.0, 0.0, 0.0, 0.0, 0.0, 0.0, 0.0, 0.0, 0.0, 0.0, 0.0, 0.0, 0.0, 0.0, 0.0, 0.0, 0.0, 0.0, 0.0, 0.0, 0.0, 0.0, 0.0, 0.0, 0.0, 0.0, 0.0)"
1970/01/01/01:00:11.832000,47,11,818000000,map,map,0.610466753495,1.94179803587,-0.526969632214,0.000145085628074,-0.000332072097126,-0.696010952259,-0.718031156734,"(0.22780441485251116, 0.0, 0.0, 0.0, 0.0, 0.0, 0.0, 0.0895585536218409, 0.0, 0.0, 0.0, 0.0, 0.0, 0.0, 0.010100778894005867, 0.0, 0.0, 0.0, 0.0, 0.0, 0.0, 0.0, 0.0, 0.0, 0.0, 0.0, 0.0, 0.0, 0.0, 0.0, 0.0, 0.0, 0.0, 0.0, 0.0, 0.0)",0.18536617398,0.396576486808,-0.00262693245211,-5.26953107299e-05,-0.00370516578695,0.00921902812857,"(0.0, 0.0, 0.0, 0.0, 0.0, 0.0, 0.0, 0.0, 0.0, 0.0, 0.0, 0.0, 0.0, 0.0, 0.0, 0.0, 0.0, 0.0, 0.0, 0.0, 0.0, 0.0, 0.0, 0.0, 0.0, 0.0, 0.0, 0.0, 0.0, 0.0, 0.0, 0.0, 0.0, 0.0, 0.0, 0.0)"
1970/01/01/01:00:11.860000,48,11,837000000,map,map,0.609898720719,1.94240187419,-0.523755956437,7.56202028126e-05,-0.000269608214176,-0.696126207426,-0.717919441902,"(0.23815116963082716, 0.0, 0.0, 0.0, 0.0, 0.0, 0.0, 0.09965685680198558, 0.0, 0.0, 0.0, 0.0, 0.0, 0.0, 0.01010100365800255, 0.0, 0.0, 0.0, 0.0, 0.0, 0.0, 0.0, 0.0, 0.0, 0.0, 0.0, 0.0, 0.0, 0.0, 0.0, 0.0, 0.0, 0.0, 0.0, 0.0, 0.0)",0.187295069763,0.396901720561,0.00301737834031,0.0169991276331,0.00122349148303,0.0106902046696,"(0.0, 0.0, 0.0, 0.0, 0.0, 0.0, 0.0, 0.0, 0.0, 0.0, 0.0, 0.0, 0.0, 0.0, 0.0, 0.0, 0.0, 0.0, 0.0, 0.0, 0.0, 0.0, 0.0, 0.0, 0.0, 0.0, 0.0, 0.0, 0.0, 0.0, 0.0, 0.0, 0.0, 0.0, 0.0, 0.0)"
1970/01/01/01:00:11.886000,49,11,858000000,map,map,0.700543518524,2.00124952262,-0.549294988569,8.59717095872e-05,-0.000259383806491,-0.696222590025,-0.717826009583,"(0.17375825277631132, 0.0, 0.0, 0.0, 0.0, 0.0, 0.0, 0.03694669990086469, 0.0, 0.0, 0.0, 0.0, 0.0, 0.0, 0.010101034616363348, 0.0, 0.0, 0.0, 0.0, 0.0, 0.0, 0.0, 0.0, 0.0, 0.0, 0.0, 0.0, 0.0, 0.0, 0.0, 0.0, 0.0, 0.0, 0.0, 0.0, 0.0)",0.189052693566,0.397227039902,0.0137817999581,-0.00661657881066,-0.00380435143961,0.0165626381788,"(0.0, 0.0, 0.0, 0.0, 0.0, 0.0, 0.0, 0.0, 0.0, 0.0, 0.0, 0.0, 0.0, 0.0, 0.0, 0.0, 0.0, 0.0, 0.0, 0.0, 0.0, 0.0, 0.0, 0.0, 0.0, 0.0, 0.0, 0.0, 0.0, 0.0, 0.0, 0.0, 0.0, 0.0, 0.0, 0.0)"
1970/01/01/01:00:11.886000,50,11,875000000,map,map,0.700065750079,2.00187571663,-0.531696710072,5.49786705671e-05,-0.000372754754241,-0.696283772102,-0.71776651338,"(0.18400449216936637, 0.0, 0.0, 0.0, 0.0, 0.0, 0.0, 0.04698888496916695, 0.0, 0.0, 0.0, 0.0, 0.0, 0.0, 0.010100886703910492, 0.0, 0.0, 0.0, 0.0, 0.0, 0.0, 0.0, 0.0, 0.0, 0.0, 0.0, 0.0, 0.0, 0.0, 0.0, 0.0, 0.0, 0.0, 0.0, 0.0, 0.0)",0.193274328305,0.39746274151,-0.0156041586481,-0.00377077996626,0.0100554694315,0.00364404261999,"(0.0, 0.0, 0.0, 0.0, 0.0, 0.0, 0.0, 0.0, 0.0, 0.0, 0.0, 0.0, 0.0, 0.0, 0.0, 0.0, 0.0, 0.0, 0.0, 0.0, 0.0, 0.0, 0.0, 0.0, 0.0, 0.0, 0.0, 0.0, 0.0, 0.0, 0.0, 0.0, 0.0, 0.0, 0.0, 0.0)"
1970/01/01/01:00:11.914000,51,11,896000000,map,map,0.699536422232,2.00253999984,-0.523449615186,4.0432430782e-05,-0.000415962456216,-0.696339945949,-0.717712109701,"(0.1942888097637261, 0.0, 0.0, 0.0, 0.0, 0.0, 0.0, 0.05704702939880632, 0.0, 0.0, 0.0, 0.0, 0.0, 0.0, 0.010101338507996473, 0.0, 0.0, 0.0, 0.0, 0.0, 0.0, 0.0, 0.0, 0.0, 0.0, 0.0, 0.0, 0.0, 0.0, 0.0, 0.0, 0.0, 0.0, 0.0, 0.0, 0.0)",0.19789096732,0.397729153652,-0.0153464303265,0.00232336452318,0.00111721718849,0.0096256108882,"(0.0, 0.0, 0.0, 0.0, 0.0, 0.0, 0.0, 0.0, 0.0, 0.0, 0.0, 0.0, 0.0, 0.0, 0.0, 0.0, 0.0, 0.0, 0.0, 0.0, 0.0, 0.0, 0.0, 0.0, 0.0, 0.0, 0.0, 0.0, 0.0, 0.0, 0.0, 0.0, 0.0, 0.0, 0.0, 0.0)"
1970/01/01/01:00:11.918000,52,11,915000000,map,map,0.699007090833,2.00320416446,-0.543406886586,-9.38465024947e-06,-0.000393634422355,-0.696402795461,-0.71765111465,"(0.20458597948149884, 0.0, 0.0, 0.0, 0.0, 0.0, 0.0, 0.0671173304757083, 0.0, 0.0, 0.0, 0.0, 0.0, 0.0, 0.010101387149076869, 0.0, 0.0, 0.0, 0.0, 0.0, 0.0, 0.0, 0.0, 0.0, 0.0, 0.0, 0.0, 0.0, 0.0, 0.0, 0.0, 0.0, 0.0, 0.0, 0.0, 0.0)",0.20145499835,0.397944884055,-0.00158547742964,0.0043295713355,4.15726351526e-05,0.00658036305694,"(0.0, 0.0, 0.0, 0.0, 0.0, 0.0, 0.0, 0.0, 0.0, 0.0, 0.0, 0.0, 0.0, 0.0, 0.0, 0.0, 0.0, 0.0, 0.0, 0.0, 0.0, 0.0, 0.0, 0.0, 0.0, 0.0, 0.0, 0.0, 0.0, 0.0, 0.0, 0.0, 0.0, 0.0, 0.0, 0.0)"
1970/01/01/01:00:11.959000,53,11,935000000,map,map,0.698502964635,2.00383670494,-0.544831693561,-6.08615001055e-05,-0.000399308369807,-0.696453125384,-0.717602302014,"(0.21488102794649316, 0.0, 0.0, 0.0, 0.0, 0.0, 0.0, 0.07719566697878316, 0.0, 0.0, 0.0, 0.0, 0.0, 0.0, 0.010101209469569414, 0.0, 0.0, 0.0, 0.0, 0.0, 0.0, 0.0, 0.0, 0.0, 0.0, 0.0, 0.0, 0.0, 0.0, 0.0, 0.0, 0.0, 0.0, 0.0, 0.0, 0.0)",0.204678636467,0.398150395649,-0.0226286031393,0.00299973765199,0.00689809979698,0.00980657602122,"(0.0, 0.0, 0.0, 0.0, 0.0, 0.0, 0.0, 0.0, 0.0, 0.0, 0.0, 0.0, 0.0, 0.0, 0.0, 0.0, 0.0, 0.0, 0.0, 0.0, 0.0, 0.0, 0.0, 0.0, 0.0, 0.0, 0.0, 0.0, 0.0, 0.0, 0.0, 0.0, 0.0, 0.0, 0.0, 0.0)"
1970/01/01/01:00:11.961000,54,11,955000000,map,map,0.698502966107,2.00383670481,-0.567628922878,-6.08615001055e-05,-0.000399308369807,-0.696453125384,-0.717602302014,"(0.2148810279464931, 0.0, 0.0, 0.0, 0.0, 0.0, 0.0, 0.07719566697878316, 0.0, 0.0, 0.0, 0.0, 0.0, 0.0, 9.901972407979281e-05, 0.0, 0.0, 0.0, 0.0, 0.0, 0.0, 0.0, 0.0, 0.0, 0.0, 0.0, 0.0, 0.0, 0.0, 0.0, 0.0, 0.0, 0.0, 0.0, 0.0, 0.0)",0.207398581725,0.398335356084,-0.0417849327512,0.00299973765199,0.00689809979698,0.00980657602122,"(0.0, 0.0, 0.0, 0.0, 0.0, 0.0, 0.0, 0.0, 0.0, 0.0, 0.0, 0.0, 0.0, 0.0, 0.0, 0.0, 0.0, 0.0, 0.0, 0.0, 0.0, 0.0, 0.0, 0.0, 0.0, 0.0, 0.0, 0.0, 0.0, 0.0, 0.0, 0.0, 0.0, 0.0, 0.0, 0.0)"
1970/01/01/01:00:12.001000,55,11,976000000,map,map,0.697494711661,2.00510178595,-0.541462940171,-8.1029487401e-05,-0.000385710310637,-0.696604555718,-0.717455170658,"(0.23550664904086177, 0.0, 0.0, 0.0, 0.0, 0.0, 0.0, 0.09738597169176619, 0.0, 0.0, 0.0, 0.0, 0.0, 0.0, 0.010100864740137938, 0.0, 0.0, 0.0, 0.0, 0.0, 0.0, 0.0, 0.0, 0.0, 0.0, 0.0, 0.0, 0.0, 0.0, 0.0, 0.0, 0.0, 0.0, 0.0, 0.0, 0.0)",0.209797000001,0.398510143696,-0.0969793998197,0.00263955067196,-0.00744064831524,0.0161267455302,"(0.0, 0.0, 0.0, 0.0, 0.0, 0.0, 0.0, 0.0, 0.0, 0.0, 0.0, 0.0, 0.0, 0.0, 0.0, 0.0, 0.0, 0.0, 0.0, 0.0, 0.0, 0.0, 0.0, 0.0, 0.0, 0.0, 0.0, 0.0, 0.0, 0.0, 0.0, 0.0, 0.0, 0.0, 0.0, 0.0)"
1970/01/01/01:00:12.001000,56,11,995000000,map,map,0.706163169396,2.01179754053,-0.543866498586,-0.000120696730624,-0.000412673530597,-0.69665786292,-0.717403465036,"(0.16711623513170137, 0.0, 0.0, 0.0, 0.0, 0.0, 0.0, 0.03510820173553161, 0.0, 0.0, 0.0, 0.0, 0.0, 0.0, 0.010101088379385144, 0.0, 0.0, 0.0, 0.0, 0.0, 0.0, 0.0, 0.0, 0.0, 0.0, 0.0, 0.0, 0.0, 0.0, 0.0, 0.0, 0.0, 0.0, 0.0, 0.0, 0.0)",0.211535330016,0.398651680044,-0.0936114806006,0.00371874897358,0.00807927878423,0.0137165272381,"(0.0, 0.0, 0.0, 0.0, 0.0, 0.0, 0.0, 0.0, 0.0, 0.0, 0.0, 0.0, 0.0, 0.0, 0.0, 0.0, 0.0, 0.0, 0.0, 0.0, 0.0, 0.0, 0.0, 0.0, 0.0, 0.0, 0.0, 0.0, 0.0, 0.0, 0.0, 0.0, 0.0, 0.0, 0.0, 0.0)"
1970/01/01/01:00:12.043000,57,12,16000000,map,map,0.705665583943,2.01241492029,-0.567062533293,-0.000207181086241,-0.000399805107872,-0.696716922508,-0.717346175615,"(0.17734983234291418, 0.0, 0.0, 0.0, 0.0, 0.0, 0.0, 0.045152189078672224, 0.0, 0.0, 0.0, 0.0, 0.0, 0.0, 9.950513999134544e-05, 0.0, 0.0, 0.0, 0.0, 0.0, 0.0, 0.0, 0.0, 0.0, 0.0, 0.0, 0.0, 0.0, 0.0, 0.0, 0.0, 0.0, 0.0, 0.0, 0.0, 0.0)",0.213470774704,0.39879325364,-0.0915779687882,0.00832498809747,0.00684881527642,0.00581657061055,"(0.0, 0.0, 0.0, 0.0, 0.0, 0.0, 0.0, 0.0, 0.0, 0.0, 0.0, 0.0, 0.0, 0.0, 0.0, 0.0, 0.0, 0.0, 0.0, 0.0, 0.0, 0.0, 0.0, 0.0, 0.0, 0.0, 0.0, 0.0, 0.0, 0.0, 0.0, 0.0, 0.0, 0.0, 0.0, 0.0)"
1970/01/01/01:00:12.043000,58,12,35000000,map,map,0.705142690001,2.01308253574,-0.560659426031,-0.000171003511525,-0.000527140759447,-0.696753002186,-0.717311023168,"(0.18760809252954128, 0.0, 0.0, 0.0, 0.0, 0.0, 0.0, 0.055210727420155606, 0.0, 0.0, 0.0, 0.0, 0.0, 0.0, 9.901981304587612e-05, 0.0, 0.0, 0.0, 0.0, 0.0, 0.0, 0.0, 0.0, 0.0, 0.0, 0.0, 0.0, 0.0, 0.0, 0.0, 0.0, 0.0, 0.0, 0.0, 0.0, 0.0)",0.214850310641,0.398907894544,-0.123738965234,-0.0165857001022,0.00602703708313,0.00620769848352,"(0.0, 0.0, 0.0, 0.0, 0.0, 0.0, 0.0, 0.0, 0.0, 0.0, 0.0, 0.0, 0.0, 0.0, 0.0, 0.0, 0.0, 0.0, 0.0, 0.0, 0.0, 0.0, 0.0, 0.0, 0.0, 0.0, 0.0, 0.0, 0.0, 0.0, 0.0, 0.0, 0.0, 0.0, 0.0, 0.0)"
1970/01/01/01:00:12.086000,59,12,55000000,map,map,0.704619797442,2.01375010194,-0.560598065078,-0.000135895968737,-0.000482149286775,-0.696768595203,-0.71729585162,"(0.19787973961014602, 0.0, 0.0, 0.0, 0.0, 0.0, 0.0, 0.06528199231182959, 0.0, 0.0, 0.0, 0.0, 0.0, 0.0, 0.010101698078514708, 0.0, 0.0, 0.0, 0.0, 0.0, 0.0, 0.0, 0.0, 0.0, 0.0, 0.0, 0.0, 0.0, 0.0, 0.0, 0.0, 0.0, 0.0, 0.0, 0.0, 0.0)",0.215981346648,0.39901710509,-0.148160937462,0.00137776554549,-0.00798903743129,0.00608871143016,"(0.0, 0.0, 0.0, 0.0, 0.0, 0.0, 0.0, 0.0, 0.0, 0.0, 0.0, 0.0, 0.0, 0.0, 0.0, 0.0, 0.0, 0.0, 0.0, 0.0, 0.0, 0.0, 0.0, 0.0, 0.0, 0.0, 0.0, 0.0, 0.0, 0.0, 0.0, 0.0, 0.0, 0.0, 0.0, 0.0)"
1970/01/01/01:00:12.086000,60,12,76000000,map,map,0.704146704268,2.01435409033,-0.562488279986,-0.000142417483551,-0.000428357858769,-0.69681359355,-0.717252201973,"(0.20813712483230612, 0.0, 0.0, 0.0, 0.0, 0.0, 0.0, 0.0753575103588164, 0.0, 0.0, 0.0, 0.0, 0.0, 0.0, 0.010101252935590731, 0.0, 0.0, 0.0, 0.0, 0.0, 0.0, 0.0, 0.0, 0.0, 0.0, 0.0, 0.0, 0.0, 0.0, 0.0, 0.0, 0.0, 0.0, 0.0, 0.0, 0.0)",0.216847739868,0.399120309055,-0.153136227912,0.000804470083225,-0.00733764095083,0.0106613116339,"(0.0, 0.0, 0.0, 0.0, 0.0, 0.0, 0.0, 0.0, 0.0, 0.0, 0.0, 0.0, 0.0, 0.0, 0.0, 0.0, 0.0, 0.0, 0.0, 0.0, 0.0, 0.0, 0.0, 0.0, 0.0, 0.0, 0.0, 0.0, 0.0, 0.0, 0.0, 0.0, 0.0, 0.0, 0.0, 0.0)"
1970/01/01/01:00:12.128000,61,12,95000000,map,map,0.703648710637,2.01498986716,-0.545501390202,-0.000139692632172,-0.000345827208872,-0.696853692983,-0.717213366945,"(0.21842005239488194, 0.0, 0.0, 0.0, 0.0, 0.0, 0.0, 0.08544841481159926, 0.0, 0.0, 0.0, 0.0, 0.0, 0.0, 0.010101527083821527, 0.0, 0.0, 0.0, 0.0, 0.0, 0.0, 0.0, 0.0, 0.0, 0.0, 0.0, 0.0, 0.0, 0.0, 0.0, 0.0, 0.0, 0.0, 0.0, 0.0, 0.0)",0.217358981437,0.399203879695,-0.154758865092,0.00647821007011,-0.00422821531801,0.00597017205265,"(0.0, 0.0, 0.0, 0.0, 0.0, 0.0, 0.0, 0.0, 0.0, 0.0, 0.0, 0.0, 0.0, 0.0, 0.0, 0.0, 0.0, 0.0, 0.0, 0.0, 0.0, 0.0, 0.0, 0.0, 0.0, 0.0, 0.0, 0.0, 0.0, 0.0, 0.0, 0.0, 0.0, 0.0, 0.0, 0.0)"
1970/01/01/01:00:12.128000,62,12,115000000,map,map,0.703150718484,2.01562564504,-0.562483022488,-0.00016306908947,-0.000287488376692,-0.696880120374,-0.717187529609,"(0.22871536226492004, 0.0, 0.0, 0.0, 0.0, 0.0, 0.0, 0.09555110262001709, 0.0, 0.0, 0.0, 0.0, 0.0, 0.0, 0.010101569613562325, 0.0, 0.0, 0.0, 0.0, 0.0, 0.0, 0.0, 0.0, 0.0, 0.0, 0.0, 0.0, 0.0, 0.0, 0.0, 0.0, 0.0, 0.0, 0.0, 0.0, 0.0)",0.217661282273,0.399283491725,-0.122981579935,0.00776332299063,-0.00558258204969,0.00308028052628,"(0.0, 0.0, 0.0, 0.0, 0.0, 0.0, 0.0, 0.0, 0.0, 0.0, 0.0, 0.0, 0.0, 0.0, 0.0, 0.0, 0.0, 0.0, 0.0, 0.0, 0.0, 0.0, 0.0, 0.0, 0.0, 0.0, 0.0, 0.0, 0.0, 0.0, 0.0, 0.0, 0.0, 0.0, 0.0, 0.0)"
1970/01/01/01:00:12.171000,63,12,135000000,map,map,0.666787331358,1.91632224092,-0.547969701135,-0.000115658638763,-0.000294946002234,-0.696887339998,-0.717180562867,"(0.15798029488961204, 0.0, 0.0, 0.0, 0.0, 0.0, 0.0, 0.025810762843505832, 0.0, 0.0, 0.0, 0.0, 0.0, 0.0, 0.009973814834133668, 0.0, 0.0, 0.0, 0.0, 0.0, 0.0, 0.0, 0.0, 0.0, 0.0, 0.0, 0.0, 0.0, 0.0, 0.0, 0.0, 0.0, 0.0, 0.0, 0.0, 0.0)",0.217739546153,0.399355142553,-0.12070384345,-0.000684533776262,-0.00293600761851,0.00535559753414,"(0.0, 0.0, 0.0, 0.0, 0.0, 0.0, 0.0, 0.0, 0.0, 0.0, 0.0, 0.0, 0.0, 0.0, 0.0, 0.0, 0.0, 0.0, 0.0, 0.0, 0.0, 0.0, 0.0, 0.0, 0.0, 0.0, 0.0, 0.0, 0.0, 0.0, 0.0, 0.0, 0.0, 0.0, 0.0, 0.0)"
1970/01/01/01:00:12.171000,64,12,156000000,map,map,0.666136825518,1.91484302228,-0.561170537913,-0.000164747914926,-0.000276352193556,-0.696903738414,-0.717164670212,"(0.16821587588218062, 0.0, 0.0, 0.0, 0.0, 0.0, 0.0, 0.03559911047172738, 0.0, 0.0, 0.0, 0.0, 0.0, 0.0, 0.01010218429502195, 0.0, 0.0, 0.0, 0.0, 0.0, 0.0, 0.0, 0.0, 0.0, 0.0, 0.0, 0.0, 0.0, 0.0, 0.0, 0.0, 0.0, 0.0, 0.0, 0.0, 0.0)",0.217609754315,0.399422852585,-0.0903240511393,0.00653337320534,0.00374508563195,0.00337084432415,"(0.0, 0.0, 0.0, 0.0, 0.0, 0.0, 0.0, 0.0, 0.0, 0.0, 0.0, 0.0, 0.0, 0.0, 0.0, 0.0, 0.0, 0.0, 0.0, 0.0, 0.0, 0.0, 0.0, 0.0, 0.0, 0.0, 0.0, 0.0, 0.0, 0.0, 0.0, 0.0, 0.0, 0.0, 0.0, 0.0)"
1970/01/01/01:00:12.218000,65,12,175000000,map,map,0.665667990821,1.91535501645,-0.566236062287,-0.0001347676762,-0.000326842060121,-0.696867298513,-0.71720009859,"(0.17842019576621587, 0.0, 0.0, 0.0, 0.0, 0.0, 0.0, 0.0456420495374154, 0.0, 0.0, 0.0, 0.0, 0.0, 0.0, 0.010101191782007083, 0.0, 0.0, 0.0, 0.0, 0.0, 0.0, 0.0, 0.0, 0.0, 0.0, 0.0, 0.0, 0.0, 0.0, 0.0, 0.0, 0.0, 0.0, 0.0, 0.0, 0.0)",0.215965054585,0.399477681589,-0.0844800659613,-0.00774386373319,-0.000459245888129,7.16734962225e-05,"(0.0, 0.0, 0.0, 0.0, 0.0, 0.0, 0.0, 0.0, 0.0, 0.0, 0.0, 0.0, 0.0, 0.0, 0.0, 0.0, 0.0, 0.0, 0.0, 0.0, 0.0, 0.0, 0.0, 0.0, 0.0, 0.0, 0.0, 0.0, 0.0, 0.0, 0.0, 0.0, 0.0, 0.0, 0.0, 0.0)"
1970/01/01/01:00:12.218000,66,12,195000000,map,map,0.665147403251,1.91593315626,-0.542207510339,-0.000138103852388,-0.000344533621663,-0.696880514842,-0.717187219435,"(0.18865922068209726, 0.0, 0.0, 0.0, 0.0, 0.0, 0.0, 0.05570123755574737, 0.0, 0.0, 0.0, 0.0, 0.0, 0.0, 0.010101725004211578, 0.0, 0.0, 0.0, 0.0, 0.0, 0.0, 0.0, 0.0, 0.0, 0.0, 0.0, 0.0, 0.0, 0.0, 0.0, 0.0, 0.0, 0.0, 0.0, 0.0, 0.0)",0.21419121847,0.39952991343,-0.0849734164643,9.8993518987e-05,0.0046195690692,0.00515229369696,"(0.0, 0.0, 0.0, 0.0, 0.0, 0.0, 0.0, 0.0, 0.0, 0.0, 0.0, 0.0, 0.0, 0.0, 0.0, 0.0, 0.0, 0.0, 0.0, 0.0, 0.0, 0.0, 0.0, 0.0, 0.0, 0.0, 0.0, 0.0, 0.0, 0.0, 0.0, 0.0, 0.0, 0.0, 0.0, 0.0)"
1970/01/01/01:00:12.218000,67,12,215000000,map,map,0.664626803471,1.91651092713,-0.566253234878,-0.000154282768065,-0.000359146806613,-0.696893006773,-0.717175148973,"(0.19891095800401465, 0.0, 0.0, 0.0, 0.0, 0.0, 0.0, 0.06577255690580582, 0.0, 0.0, 0.0, 0.0, 0.0, 0.0, 0.010101770164024285, 0.0, 0.0, 0.0, 0.0, 0.0, 0.0, 0.0, 0.0, 0.0, 0.0, 0.0, 0.0, 0.0, 0.0, 0.0, 0.0, 0.0, 0.0, 0.0, 0.0, 0.0)",0.21240117042,0.399576922087,-0.0425045080882,0.00394807591842,0.00903645819786,0.000151735906146,"(0.0, 0.0, 0.0, 0.0, 0.0, 0.0, 0.0, 0.0, 0.0, 0.0, 0.0, 0.0, 0.0, 0.0, 0.0, 0.0, 0.0, 0.0, 0.0, 0.0, 0.0, 0.0, 0.0, 0.0, 0.0, 0.0, 0.0, 0.0, 0.0, 0.0, 0.0, 0.0, 0.0, 0.0, 0.0, 0.0)"
1970/01/01/01:00:12.261000,68,12,235000000,map,map,0.664106202707,1.91708869981,-0.555345521058,-0.00017886143952,-0.000377733216955,-0.696909230017,-0.717159347197,"(0.20917548773196518, 0.0, 0.0, 0.0, 0.0, 0.0, 0.0, 0.07585608758525098, 0.0, 0.0, 0.0, 0.0, 0.0, 0.0, 0.010101810268076446, 0.0, 0.0, 0.0, 0.0, 0.0, 0.0, 0.0, 0.0, 0.0, 0.0, 0.0, 0.0, 0.0, 0.0, 0.0, 0.0, 0.0, 0.0, 0.0, 0.0, 0.0)",0.210597950209,0.399619229879,-0.0457731417363,0.000349047186835,0.00241623298533,0.00573593872405,"(0.0, 0.0, 0.0, 0.0, 0.0, 0.0, 0.0, 0.0, 0.0, 0.0, 0.0, 0.0, 0.0, 0.0, 0.0, 0.0, 0.0, 0.0, 0.0, 0.0, 0.0, 0.0, 0.0, 0.0, 0.0, 0.0, 0.0, 0.0, 0.0, 0.0, 0.0, 0.0, 0.0, 0.0, 0.0, 0.0)"
1970/01/01/01:00:12.261000,69,12,256000000,map,map,0.663533542397,1.91772425061,-0.55979186365,-0.00018529897962,-0.00036033803131,-0.696886712405,-0.71718119046,"(0.21948134026167898, 0.0, 0.0, 0.0, 0.0, 0.0, 0.0, 0.0859621700180822, 0.0, 0.0, 0.0, 0.0, 0.0, 0.0, 0.01010243874997637, 0.0, 0.0, 0.0, 0.0, 0.0, 0.0, 0.0, 0.0, 0.0, 0.0, 0.0, 0.0, 0.0, 0.0, 0.0, 0.0, 0.0, 0.0, 0.0, 0.0, 0.0)",0.208693624894,0.399659210741,-0.0279426370332,0.00111408991662,0.00157144324887,-0.000323574575249,"(0.0, 0.0, 0.0, 0.0, 0.0, 0.0, 0.0, 0.0, 0.0, 0.0, 0.0, 0.0, 0.0, 0.0, 0.0, 0.0, 0.0, 0.0, 0.0, 0.0, 0.0, 0.0, 0.0, 0.0, 0.0, 0.0, 0.0, 0.0, 0.0, 0.0, 0.0, 0.0, 0.0, 0.0, 0.0, 0.0)"
1970/01/01/01:00:12.275000,70,12,275000000,map,map,0.663065001802,1.91824424616,-0.553630281362,-0.000111632400539,-0.000393168100815,-0.69685896529,-0.717208094637,"(0.2297432368059655, 0.0, 0.0, 0.0, 0.0, 0.0, 0.0, 0.09606009533230117, 0.0, 0.0, 0.0, 0.0, 0.0, 0.0, 0.010101354680080495, 0.0, 0.0, 0.0, 0.0, 0.0, 0.0, 0.0, 0.0, 0.0, 0.0, 0.0, 0.0, 0.0, 0.0, 0.0, 0.0, 0.0, 0.0, 0.0, 0.0, 0.0)",0.206983517642,0.399691585721,-0.0208161445475,-0.0090147606139,-0.00488396181271,-0.00184474246091,"(0.0, 0.0, 0.0, 0.0, 0.0, 0.0, 0.0, 0.0, 0.0, 0.0, 0.0, 0.0, 0.0, 0.0, 0.0, 0.0, 0.0, 0.0, 0.0, 0.0, 0.0, 0.0, 0.0, 0.0, 0.0, 0.0, 0.0, 0.0, 0.0, 0.0, 0.0, 0.0, 0.0, 0.0, 0.0, 0.0)"
1970/01/01/01:00:12.296000,71,12,295000000,map,map,0.643174019618,1.88492094859,-0.546829182373,-7.3044624952e-05,-0.000319235726997,-0.696857921497,-0.71720913843,"(0.17111441535554006, 0.0, 0.0, 0.0, 0.0, 0.0, 0.0, 0.035149577303593124, 0.0, 0.0, 0.0, 0.0, 0.0, 0.0, 0.010101914014068738, 0.0, 0.0, 0.0, 0.0, 0.0, 0.0, 0.0, 0.0, 0.0, 0.0, 0.0, 0.0, 0.0, 0.0, 0.0, 0.0, 0.0, 0.0, 0.0, 0.0, 0.0)",0.205154160272,0.399722427149,-0.00348046797339,0.00536056901193,-0.00835012938149,0.000299473541593,"(0.0, 0.0, 0.0, 0.0, 0.0, 0.0, 0.0, 0.0, 0.0, 0.0, 0.0, 0.0, 0.0, 0.0, 0.0, 0.0, 0.0, 0.0, 0.0, 0.0, 0.0, 0.0, 0.0, 0.0, 0.0, 0.0, 0.0, 0.0, 0.0, 0.0, 0.0, 0.0, 0.0, 0.0, 0.0, 0.0)"
1970/01/01/01:00:12.343000,72,12,315000000,map,map,0.642666168331,1.88543149635,-0.560703717741,-0.000116167621639,-0.000339738337221,-0.696844078892,-0.717222559567,"(0.1813302319329772, 0.0, 0.0, 0.0, 0.0, 0.0, 0.0, 0.04519547298502812, 0.0, 0.0, 0.0, 0.0, 0.0, 0.0, 0.010101685215762863, 0.0, 0.0, 0.0, 0.0, 0.0, 0.0, 0.0, 0.0, 0.0, 0.0, 0.0, 0.0, 0.0, 0.0, 0.0, 0.0, 0.0, 0.0, 0.0, 0.0, 0.0)",0.202546512538,0.399750184434,0.0224171097522,0.0025355564673,0.00680929663894,-0.000928371201434,"(0.0, 0.0, 0.0, 0.0, 0.0, 0.0, 0.0, 0.0, 0.0, 0.0, 0.0, 0.0, 0.0, 0.0, 0.0, 0.0, 0.0, 0.0, 0.0, 0.0, 0.0, 0.0, 0.0, 0.0, 0.0, 0.0, 0.0, 0.0, 0.0, 0.0, 0.0, 0.0, 0.0, 0.0, 0.0, 0.0)"
1970/01/01/01:00:12.343000,73,12,336000000,map,map,0.642106572076,1.88601725236,-0.54244327409,-0.000161589828724,-0.000315789784816,-0.696798762469,-0.717266611585,"(0.19158256002935622, 0.0, 0.0, 0.0, 0.0, 0.0, 0.0, 0.055259412019263404, 0.0, 0.0, 0.0, 0.0, 0.0, 0.0, 0.010102310788842625, 0.0, 0.0, 0.0, 0.0, 0.0, 0.0, 0.0, 0.0, 0.0, 0.0, 0.0, 0.0, 0.0, 0.0, 0.0, 0.0, 0.0, 0.0, 0.0, 0.0, 0.0)",0.199888626181,0.399776415068,0.0200124545262,0.00710903509531,0.0049503847931,-0.00725029869507,"(0.0, 0.0, 0.0, 0.0, 0.0, 0.0, 0.0, 0.0, 0.0, 0.0, 0.0, 0.0, 0.0, 0.0, 0.0, 0.0, 0.0, 0.0, 0.0, 0.0, 0.0, 0.0, 0.0, 0.0, 0.0, 0.0, 0.0, 0.0, 0.0, 0.0, 0.0, 0.0, 0.0, 0.0, 0.0, 0.0)"
1970/01/01/01:00:12.385000,74,12,355000000,map,map,0.642106572393,1.88601725077,-0.563818539162,-0.000161589828724,-0.000315789784816,-0.696798762469,-0.717266611585,"(0.19158256002935622, 0.0, 0.0, 0.0, 0.0, 0.0, 0.0, 0.05525941201926335, 0.0, 0.0, 0.0, 0.0, 0.0, 0.0, 9.901982989864046e-05, 0.0, 0.0, 0.0, 0.0, 0.0, 0.0, 0.0, 0.0, 0.0, 0.0, 0.0, 0.0, 0.0, 0.0, 0.0, 0.0, 0.0, 0.0, 0.0, 0.0, 0.0)",0.197553474287,0.399797655637,0.046460698791,0.00710903509531,0.0049503847931,-0.00725029869507,"(0.0, 0.0, 0.0, 0.0, 0.0, 0.0, 0.0, 0.0, 0.0, 0.0, 0.0, 0.0, 0.0, 0.0, 0.0, 0.0, 0.0, 0.0, 0.0, 0.0, 0.0, 0.0, 0.0, 0.0, 0.0, 0.0, 0.0, 0.0, 0.0, 0.0, 0.0, 0.0, 0.0, 0.0, 0.0, 0.0)"
1970/01/01/01:00:12.385000,75,12,376000000,map,map,0.641040638184,1.8871325097,-0.564978291004,-0.000286539401193,-0.000340248691207,-0.696797478307,-0.717267811453,"(0.21210355762674646, 0.0, 0.0, 0.0, 0.0, 0.0, 0.0, 0.07541982282058736, 0.0, 0.0, 0.0, 0.0, 0.0, 0.0, 0.010101252862724636, 0.0, 0.0, 0.0, 0.0, 0.0, 0.0, 0.0, 0.0, 0.0, 0.0, 0.0, 0.0, 0.0, 0.0, 0.0, 0.0, 0.0, 0.0, 0.0, 0.0, 0.0)",0.195058196769,0.399818901795,0.0320667094843,0.00310986234845,0.000287383489821,0.00595589335561,"(0.0, 0.0, 0.0, 0.0, 0.0, 0.0, 0.0, 0.0, 0.0, 0.0, 0.0, 0.0, 0.0, 0.0, 0.0, 0.0, 0.0, 0.0, 0.0, 0.0, 0.0, 0.0, 0.0, 0.0, 0.0, 0.0, 0.0, 0.0, 0.0, 0.0, 0.0, 0.0, 0.0, 0.0, 0.0, 0.0)"
1970/01/01/01:00:12.433000,76,12,395000000,map,map,0.640507670778,1.88769013849,-0.551631159107,-0.000232235841645,-0.00026580235427,-0.696770000537,-0.717294530579,"(0.22238407247636874, 0.0, 0.0, 0.0, 0.0, 0.0, 0.0, 0.08551918337513202, 0.0, 0.0, 0.0, 0.0, 0.0, 0.0, 0.010102120991187707, 0.0, 0.0, 0.0, 0.0, 0.0, 0.0, 0.0, 0.0, 0.0, 0.0, 0.0, 0.0, 0.0, 0.0, 0.0, 0.0, 0.0, 0.0, 0.0, 0.0, 0.0)",0.192839462921,0.399836106124,0.0183973422854,0.002722017867,-0.0117437795943,-0.0049815588481,"(0.0, 0.0, 0.0, 0.0, 0.0, 0.0, 0.0, 0.0, 0.0, 0.0, 0.0, 0.0, 0.0, 0.0, 0.0, 0.0, 0.0, 0.0, 0.0, 0.0, 0.0, 0.0, 0.0, 0.0, 0.0, 0.0, 0.0, 0.0, 0.0, 0.0, 0.0, 0.0, 0.0, 0.0, 0.0, 0.0)"
1970/01/01/01:00:12.433000,77,12,415000000,map,map,0.63997470393,1.88824776852,-0.562489380784,-0.000188824348442,-0.000282984513628,-0.696768415421,-0.717296115696,"(0.23267804232660905, 0.0, 0.0, 0.0, 0.0, 0.0, 0.0, 0.09563142499893176, 0.0, 0.0, 0.0, 0.0, 0.0, 0.0, 0.010102169604193304, 0.0, 0.0, 0.0, 0.0, 0.0, 0.0, 0.0, 0.0, 0.0, 0.0, 0.0, 0.0, 0.0, 0.0, 0.0, 0.0, 0.0, 0.0, 0.0, 0.0, 0.0)",0.190556264066,0.399852495512,0.0279721821758,-0.00465593002131,0.000126446852225,0.00301815010785,"(0.0, 0.0, 0.0, 0.0, 0.0, 0.0, 0.0, 0.0, 0.0, 0.0, 0.0, 0.0, 0.0, 0.0, 0.0, 0.0, 0.0, 0.0, 0.0, 0.0, 0.0, 0.0, 0.0, 0.0, 0.0, 0.0, 0.0, 0.0, 0.0, 0.0, 0.0, 0.0, 0.0, 0.0, 0.0, 0.0)"
1970/01/01/01:00:12.475000,78,12,435000000,map,map,0.706766731558,1.84054709564,-0.562067023463,-0.000134530980898,-0.000258315101942,-0.696731113484,-0.717332406108,"(0.18729025992674628, 0.0, 0.0, 0.0, 0.0, 0.0, 0.0, 0.04323726419282229, 0.0, 0.0, 0.0, 0.0, 0.0, 0.0, 9.950384190676419e-05, 0.0, 0.0, 0.0, 0.0, 0.0, 0.0, 0.0, 0.0, 0.0, 0.0, 0.0, 0.0, 0.0, 0.0, 0.0, 0.0, 0.0, 0.0, 0.0, 0.0, 0.0)",0.188325794852,0.399867245961,0.0169217732162,-0.000364360270951,-0.00856096425737,-0.00415993977518,"(0.0, 0.0, 0.0, 0.0, 0.0, 0.0, 0.0, 0.0, 0.0, 0.0, 0.0, 0.0, 0.0, 0.0, 0.0, 0.0, 0.0, 0.0, 0.0, 0.0, 0.0, 0.0, 0.0, 0.0, 0.0, 0.0, 0.0, 0.0, 0.0, 0.0, 0.0, 0.0, 0.0, 0.0, 0.0, 0.0)"
1970/01/01/01:00:12.475000,79,12,456000000,map,map,0.705967044926,1.84077456137,-0.569555935467,-0.000107363416635,-0.000243175462107,-0.696742819771,-0.717321036996,"(0.19752657934018356, 0.0, 0.0, 0.0, 0.0, 0.0, 0.0, 0.053294517178419376, 0.0, 0.0, 0.0, 0.0, 0.0, 0.0, 0.01005276381851225, 0.0, 0.0, 0.0, 0.0, 0.0, 0.0, 0.0, 0.0, 0.0, 0.0, 0.0, 0.0, 0.0, 0.0, 0.0, 0.0, 0.0, 0.0, 0.0, 0.0, 0.0)",0.188866808824,0.399881185135,0.0107890079039,-0.00482822393027,-0.00101974831962,0.00516652587318,"(0.0, 0.0, 0.0, 0.0, 0.0, 0.0, 0.0, 0.0, 0.0, 0.0, 0.0, 0.0, 0.0, 0.0, 0.0, 0.0, 0.0, 0.0, 0.0, 0.0, 0.0, 0.0, 0.0, 0.0, 0.0, 0.0, 0.0, 0.0, 0.0, 0.0, 0.0, 0.0, 0.0, 0.0, 0.0, 0.0)"
1970/01/01/01:00:12.475000,80,12,475000000,map,map,0.705477395557,1.84130209633,-0.569503072427,-0.000179843859304,-0.000298022665581,-0.696757440118,-0.717306838118,"(0.20778874784843313, 0.0, 0.0, 0.0, 0.0, 0.0, 0.0, 0.06336759946381097, 0.0, 0.0, 0.0, 0.0, 0.0, 0.0, 0.020062020730902047, 0.0, 0.0, 0.0, 0.0, 0.0, 0.0, 0.0, 0.0, 0.0, 0.0, 0.0, 0.0, 0.0, 0.0, 0.0, 0.0, 0.0, 0.0, 0.0, 0.0, 0.0)",0.189138639874,0.399892472547,-0.00916073862753,0.00121576606643,0.0107712062454,0.00012439380439,"(0.0, 0.0, 0.0, 0.0, 0.0, 0.0, 0.0, 0.0, 0.0, 0.0, 0.0, 0.0, 0.0, 0.0, 0.0, 0.0, 0.0, 0.0, 0.0, 0.0, 0.0, 0.0, 0.0, 0.0, 0.0, 0.0, 0.0, 0.0, 0.0, 0.0, 0.0, 0.0, 0.0, 0.0, 0.0, 0.0)"
1970/01/01/01:00:12.522000,81,12,496000000,map,map,0.704965199252,1.84185759137,-0.551910596435,-8.44828948009e-05,-0.000268792236371,-0.696755028528,-0.717309165414,"(0.21807880098969615, 0.0, 0.0, 0.0, 0.0, 0.0, 0.0, 0.07345849262529139, 0.0, 0.0, 0.0, 0.0, 0.0, 0.0, 0.010103147238819894, 0.0, 0.0, 0.0, 0.0, 0.0, 0.0, 0.0, 0.0, 0.0, 0.0, 0.0, 0.0, 0.0, 0.0, 0.0, 0.0, 0.0, 0.0, 0.0, 0.0, 0.0)",0.189219724462,0.39990376293,-0.0271993510967,-0.00463374525263,-0.00724662619535,0.00222688951242,"(0.0, 0.0, 0.0, 0.0, 0.0, 0.0, 0.0, 0.0, 0.0, 0.0, 0.0, 0.0, 0.0, 0.0, 0.0, 0.0, 0.0, 0.0, 0.0, 0.0, 0.0, 0.0, 0.0, 0.0, 0.0, 0.0, 0.0, 0.0, 0.0, 0.0, 0.0, 0.0, 0.0, 0.0, 0.0, 0.0)"
1970/01/01/01:00:12.522000,82,12,515000000,map,map,0.704475550975,1.84238512718,-0.55201885971,-0.000117404008084,-0.000236197143779,-0.696769382823,-0.717295232588,"(0.22836919511844064, 0.0, 0.0, 0.0, 0.0, 0.0, 0.0, 0.08355862048123985, 0.0, 0.0, 0.0, 0.0, 0.0, 0.0, 0.010102371789417777, 0.0, 0.0, 0.0, 0.0, 0.0, 0.0, 0.0, 0.0, 0.0, 0.0, 0.0, 0.0, 0.0, 0.0, 0.0, 0.0, 0.0, 0.0, 0.0, 0.0, 0.0)",0.189114987578,0.399912905451,-0.0119333158902,0.00702182659154,0.0013250012238,0.00317893852687,"(0.0, 0.0, 0.0, 0.0, 0.0, 0.0, 0.0, 0.0, 0.0, 0.0, 0.0, 0.0, 0.0, 0.0, 0.0, 0.0, 0.0, 0.0, 0.0, 0.0, 0.0, 0.0, 0.0, 0.0, 0.0, 0.0, 0.0, 0.0, 0.0, 0.0, 0.0, 0.0, 0.0, 0.0, 0.0, 0.0)"
1970/01/01/01:00:12.536000,83,12,535000000,map,map,0.703985904746,1.84291266474,-0.562462289533,-0.00010392808834,-0.000312674699513,-0.696727840518,-0.717335594781,"(0.23867347784271195, 0.0, 0.0, 0.0, 0.0, 0.0, 0.0, 0.09367206129854122, 0.0, 0.0, 0.0, 0.0, 0.0, 0.0, 0.010102408275765943, 0.0, 0.0, 0.0, 0.0, 0.0, 0.0, 0.0, 0.0, 0.0, 0.0, 0.0, 0.0, 0.0, 0.0, 0.0, 0.0, 0.0, 0.0, 0.0, 0.0, 0.0)",0.188851818993,0.399921614906,0.00176386180435,-0.0102126512131,0.00507480873433,-0.0080995032865,"(0.0, 0.0, 0.0, 0.0, 0.0, 0.0, 0.0, 0.0, 0.0, 0.0, 0.0, 0.0, 0.0, 0.0, 0.0, 0.0, 0.0, 0.0, 0.0, 0.0, 0.0, 0.0, 0.0, 0.0, 0.0, 0.0, 0.0, 0.0, 0.0, 0.0, 0.0, 0.0, 0.0, 0.0, 0.0, 0.0)"
1970/01/01/01:00:12.557000,84,12,555000000,map,map,0.703471779373,1.84346658187,-0.589302503892,8.35166145032e-06,-0.000298814344122,-0.696701284052,-0.717361392603,"(0.24900800945412438, 0.0, 0.0, 0.0, 0.0, 0.0, 0.0, 0.10380558938135839, 0.0, 0.0, 0.0, 0.0, 0.0, 0.0, 0.010102795838965072, 0.0, 0.0, 0.0, 0.0, 0.0, 0.0, 0.0, 0.0, 0.0, 0.0, 0.0, 0.0, 0.0, 0.0, 0.0, 0.0, 0.0, 0.0, 0.0, 0.0, 0.0)",0.188444089427,0.399929453416,-0.00428633521408,-0.00444012875227,-0.0132076273454,-0.00172235252653,"(0.0, 0.0, 0.0, 0.0, 0.0, 0.0, 0.0, 0.0, 0.0, 0.0, 0.0, 0.0, 0.0, 0.0, 0.0, 0.0, 0.0, 0.0, 0.0, 0.0, 0.0, 0.0, 0.0, 0.0, 0.0, 0.0, 0.0, 0.0, 0.0, 0.0, 0.0, 0.0, 0.0, 0.0, 0.0, 0.0)"
1970/01/01/01:00:12.594000,85,12,576000000,map,map,0.679180605962,1.88934777555,-0.575369130661,-8.3133537104e-05,-0.000246932160122,-0.696727010752,-0.717336340253,"(0.2054653718465585, 0.0, 0.0, 0.0, 0.0, 0.0, 0.0, 0.04363313238236481, 0.0, 0.0, 0.0, 0.0, 0.0, 0.0, 0.010102147760434247, 0.0, 0.0, 0.0, 0.0, 0.0, 0.0, 0.0, 0.0, 0.0, 0.0, 0.0, 0.0, 0.0, 0.0, 0.0, 0.0, 0.0, 0.0, 0.0, 0.0, 0.0)",0.187878556194,0.399936860807,-0.0564006110018,0.0102073372147,0.00489335610212,0.00129348064891,"(0.0, 0.0, 0.0, 0.0, 0.0, 0.0, 0.0, 0.0, 0.0, 0.0, 0.0, 0.0, 0.0, 0.0, 0.0, 0.0, 0.0, 0.0, 0.0, 0.0, 0.0, 0.0, 0.0, 0.0, 0.0, 0.0, 0.0, 0.0, 0.0, 0.0, 0.0, 0.0, 0.0, 0.0, 0.0, 0.0)"
1970/01/01/01:00:12.637000,86,12,596000000,map,map,0.678676702071,1.88990134223,-0.577364210924,-7.62597678619e-05,-0.000211244815198,-0.696745569853,-0.717318371208,"(0.21574129054025104, 0.0, 0.0, 0.0, 0.0, 0.0, 0.0, 0.053695981584599595, 0.0, 0.0, 0.0, 0.0, 0.0, 0.0, 0.010102523837317181, 0.0, 0.0, 0.0, 0.0, 0.0, 0.0, 0.0, 0.0, 0.0, 0.0, 0.0, 0.0, 0.0, 0.0, 0.0, 0.0, 0.0, 0.0, 0.0, 0.0, 0.0)",0.186266566467,0.399943174726,-0.0722380890014,0.00690709362027,-0.00472250549632,0.00224883705136,"(0.0, 0.0, 0.0, 0.0, 0.0, 0.0, 0.0, 0.0, 0.0, 0.0, 0.0, 0.0, 0.0, 0.0, 0.0, 0.0, 0.0, 0.0, 0.0, 0.0, 0.0, 0.0, 0.0, 0.0, 0.0, 0.0, 0.0, 0.0, 0.0, 0.0, 0.0, 0.0, 0.0, 0.0, 0.0, 0.0)"
1970/01/01/01:00:12.637000,87,12,616000000,map,map,0.678171493545,1.89045830629,-0.567977878781,-0.000105985219319,-0.000185161629358,-0.696764638009,-0.717299808814,"(0.22603137543488433, 0.0, 0.0, 0.0, 0.0, 0.0, 0.0, 0.06377243019967882, 0.0, 0.0, 0.0, 0.0, 0.0, 0.0, 0.010102566729650733, 0.0, 0.0, 0.0, 0.0, 0.0, 0.0, 0.0, 0.0, 0.0, 0.0, 0.0, 0.0, 0.0, 0.0, 0.0, 0.0, 0.0, 0.0, 0.0, 0.0, 0.0)",0.184645316712,0.399948857254,-0.086353184806,0.0030616531934,0.00100643496859,0.0033271340808,"(0.0, 0.0, 0.0, 0.0, 0.0, 0.0, 0.0, 0.0, 0.0, 0.0, 0.0, 0.0, 0.0, 0.0, 0.0, 0.0, 0.0, 0.0, 0.0, 0.0, 0.0, 0.0, 0.0, 0.0, 0.0, 0.0, 0.0, 0.0, 0.0, 0.0, 0.0, 0.0, 0.0, 0.0, 0.0, 0.0)"
1970/01/01/01:00:12.637000,88,12,635000000,map,map,0.677666345006,1.89101512266,-0.580169843646,-5.9145194206e-05,-0.000211581568106,-0.696769014038,-0.717295601373,"(0.2363357028107408, 0.0, 0.0, 0.0, 0.0, 0.0, 0.0, 0.07386253294753986, 0.0, 0.0, 0.0, 0.0, 0.0, 0.0, 0.010102606324505863, 0.0, 0.0, 0.0, 0.0, 0.0, 0.0, 0.0, 0.0, 0.0, 0.0, 0.0, 0.0, 0.0, 0.0, 0.0, 0.0, 0.0, 0.0, 0.0, 0.0, 0.0)",0.183098387657,0.399953715815,-0.0799314255717,0.000321981219101,0.00177712852096,-0.000893384906855,"(0.0, 0.0, 0.0, 0.0, 0.0, 0.0, 0.0, 0.0, 0.0, 0.0, 0.0, 0.0, 0.0, 0.0, 0.0, 0.0, 0.0, 0.0, 0.0, 0.0, 0.0, 0.0, 0.0, 0.0, 0.0, 0.0, 0.0, 0.0, 0.0, 0.0, 0.0, 0.0, 0.0, 0.0, 0.0, 0.0)"
